timestamp,voxl_imu0_AX(m/s2),voxl_imu0_AY(m/s2),voxl_imu0_AZ(m/s2),voxl_imu0_GX(rad/s),voxl_imu0_GY(rad/s),voxl_imu0_GZ(rad/s),voxl_imu1_AX(m/s2),voxl_imu1_AY(m/s2),voxl_imu1_AZ(m/s2),voxl_imu1_GX(rad/s),voxl_imu1_GY(rad/s),voxl_imu1_GZ(rad/s),voxl_vo_i,voxl_vo_timestamp(ns),voxl_vo_T_imu_wrt_vio_x(m),voxl_vo_T_imu_wrt_vio_y(m),voxl_vo_T_imu_wrt_vio_z(m),voxl_vo_roll(rad),voxl_vo_pitch(rad),voxl_vo_yaw(rad),voxl_vo_vel_imu_wrt_vio_x(m/s),voxl_vo_vel_imu_wrt_vio_y(m/s),voxl_vo_vel_imu_wrt_vio_z(m/s),voxl_vo_angular_vel_x(rad/s),voxl_vo_angular_vel_y(rad/s),voxl_vo_angular_vel_z(rad/s),voxl_vo_gravity_vector_x(m/s2),voxl_vo_gravity_vector_y(m/s2),voxl_vo_gravity_vector_z(m/s2),voxl_vo_T_cam_wrt_imu_x(m),voxl_vo_T_cam_wrt_imu_y(m),voxl_vo_T_cam_wrt_imu_z(m),voxl_vo_imu_to_cam_roll_x(rad),voxl_vo_imu_to_cam_pitch_y(rad),voxl_vo_imu_to_cam_yaw_z(rad),voxl_vo_features,voxl_vo_quality,voxl_vo_state,voxl_vo_error_code,px4_imu0_AX(m/s2),px4_imu0_AY(m/s2),px4_imu0_AZ(m/s2),px4_imu0_GX(rad/s),px4_imu0_GY(rad/s),px4_imu0_GZ(rad/s),px4_imu1_AX(m/s2),px4_imu1_AY(m/s2),px4_imu1_AZ(m/s2),px4_imu1_GX(rad/s),px4_imu1_GY(rad/s),px4_imu1_GZ(rad/s),px4_gps_lat,px4_gps_lon,px4_gps_alt,px4_gps_north,px4_gps_east,px4_gps_down,px4_gps_vel_m_s,px4_gps_vel_n_m_s,px4_gps_vel_e_m_s,px4_gps_vel_d_m_s,px4_gps_eph,px4_gps_epv,px4_vo_position[0],px4_vo_position[1],px4_vo_position[2],px4_vo_q[0],px4_vo_q[1],px4_vo_q[2],px4_vo_q[3],px4_vo_velocity[0],px4_vo_velocity[1],px4_vo_velocity[2],px4_vo_angular_velocity[0],px4_vo_angular_velocity[1],px4_vo_angular_velocity[2],px4_vo_position_variance[0],px4_vo_position_variance[1],px4_vo_position_variance[2],px4_vo_orientation_variance[0],px4_vo_orientation_variance[1],px4_vo_orientation_variance[2],px4_vo_velocity_variance[0],px4_vo_velocity_variance[1],px4_vo_velocity_variance[2],px4_vehicle_odom_position[0],px4_vehicle_odom_position[1],px4_vehicle_odom_position[2],px4_vehicle_odom_q[0],px4_vehicle_odom_q[1],px4_vehicle_odom_q[2],px4_vehicle_odom_q[3],px4_vehicle_odom_velocity[0],px4_vehicle_odom_velocity[1],px4_vehicle_odom_velocity[2],px4_vehicle_odom_angular_velocity[0],px4_vehicle_odom_angular_velocity[1],px4_vehicle_odom_angular_velocity[2],px4_vehicle_odom_position_variance[0],px4_vehicle_odom_position_variance[1],px4_vehicle_odom_position_variance[2],px4_vehicle_odom_orientation_variance[0],px4_vehicle_odom_orientation_variance[1],px4_vehicle_odom_orientation_variance[2],px4_vehicle_odom_velocity_variance[0],px4_vehicle_odom_velocity_variance[1],px4_vehicle_odom_velocity_variance[2],px4_imu0_bias_gyro_bias[0],px4_imu0_bias_gyro_bias[1],px4_imu0_bias_gyro_bias[2],px4_imu0_bias_accel_bias[0],px4_imu0_bias_accel_bias[1],px4_imu0_bias_accel_bias[2],px4_imu1_bias_gyro_bias[0],px4_imu1_bias_gyro_bias[1],px4_imu1_bias_gyro_bias[2],px4_imu1_bias_accel_bias[0],px4_imu1_bias_accel_bias[1],px4_imu1_bias_accel_bias[2]
564943991,-0.9474,0.19433,-10.03595,0.01192,0.00635,-0.00284,-0.8914,1.2816,-9.0138,0.01434,-0.05072,0.00077,159,564946643693,-0.0001,-0.0008,-0.0025,-0.0047,0.0029,0.0026,-0.002,-0.004,-0.007,0.009,0.004,-0.008,0.516,-0.831,9.754,0.065,-0.014,0.013,-0.01,0.653,1.586,15,100,2,0,-0.89591026,0.34572273,-10.014467,-0.024181502,0.0029827405,0.0016511598,-0.9232042,0.16304514,-9.902179,-0.016294181,-0.000119908116,0.023235528,59.3962226,24.6605742,23.629,-0.011140237134813618,0.005681381023714695,-0.004999998586217983,0.013,0.011000001,0.0050000004,0.0,0.13100001,0.261,-0.0007176208,-0.00020343291,-0.100847825,0.9986949,-0.044696942,-0.024696881,0.0009103671,-0.002025945,-0.0016430517,-0.0035783611,0.00011392736,-0.0012278998,-7.115529e-05,1.223719e-07,1.7654024e-07,1.01542966e-07,1.0810183e-07,1.2016926e-07,1.5459196e-07,1.1326393e-05,1.4487629e-05,6.5228696e-06,2.338156,-1.3193864,-2.3802004,0.99632156,-0.013726171,-0.03581514,-0.07663042,-0.023101142,-0.027668508,-0.037425105,-0.001460168,0.000562889,-0.0001618207,0.017543316,0.017542878,0.034172673,2.4708379e-05,2.4350233e-05,0.00034871788,0.0062190704,0.0062178452,0.0067882445,-0.004158201,-0.0009553781,-6.960885e-05,-0.024508808,0.0441316,-0.031160276,-0.0022037544,0.0027691622,0.0016558438,0.0018858004,-0.004701377,-0.066834904
565044186,-1.9942,0.3184,-9.84411,-0.00885,0.03578,0.00688,-2.59631,-0.12783,-9.82579,-0.02295,-0.0145,-0.00243,162,565045588803,-0.0,-0.0007,-0.0027,-0.0046,0.0031,0.0026,-0.006,-0.002,-0.008,-0.012,0.037,0.006,0.515,-0.831,9.754,0.065,-0.014,0.013,-0.01,0.653,1.586,15,100,2,0,-0.97013056,-0.33758244,-10.717883,-0.0056991647,0.0038882152,0.0020772656,-0.78817123,-0.5260061,-10.8165245,-0.02119043,-0.0015654671,0.03480666,59.3962226,24.6605742,23.646,-0.011140237559727156,0.005681381114361388,-0.021999998266309953,0.021000002,-0.014,0.016,0.009000001,0.13100001,0.261,-0.0007017821,-0.00015426088,-0.10092207,0.99869376,-0.044713147,-0.024712628,0.000867303,-0.00096501154,-0.0019643018,-0.0039234753,0.006175698,0.009289988,0.041181665,1.2186116e-07,1.7597111e-07,1.01614155e-07,8.80662e-08,9.096203e-08,1.69851e-07,1.04171095e-05,1.2834949e-05,6.9157795e-06,2.335785,-1.316979,-2.3859854,0.9963305,-0.013706088,-0.035820108,-0.07651504,-0.023247566,-0.028160226,-0.043024544,0.0061968756,-0.011865846,0.019246118,0.017214255,0.017213847,0.033747595,2.4627128e-05,2.426828e-05,0.00034921148,0.0061106584,0.006109465,0.0067167925,-0.004158201,-0.0009553781,-6.960885e-05,-0.024508808,0.0441316,-0.031160276,-0.0022037544,0.0027691622,0.0016558438,0.0018858004,-0.004701377,-0.066834904
565144267,-0.35517,-0.19345,-9.10555,-0.00792,0.04909,0.00554,-1.96894,-1.45125,-11.66471,-0.01869,0.11121,-0.00243,165,565147302243,-0.0018,-0.001,-0.0047,-0.0041,0.009,0.0023,-0.012,-0.005,-0.016,0.037,0.018,-0.014,0.516,-0.831,9.754,0.065,-0.014,0.013,-0.011,0.653,1.586,14,100,2,0,-1.1152191,1.0381259,-10.540712,-0.03169162,-0.022743396,0.0020240024,-2.1593306,-0.4984728,-8.713937,-0.022222972,-0.008366922,0.045918148,59.3962226,24.6605742,23.646,-0.011140237559727156,0.005681381114361388,-0.021999998266309953,0.021000002,-0.014,0.016,0.009000001,0.13100001,0.261,-0.00075033196,-0.00023850205,-0.100964166,0.9986946,-0.04471169,-0.02468266,0.00084989483,-0.0022617918,-0.0026510337,-0.0039014283,-0.00078355044,0.0019650005,0.012776219,1.2237294e-07,1.7646146e-07,1.0147123e-07,1.0350579e-07,1.12559306e-07,1.588554e-07,1.1342309e-05,1.43198295e-05,6.565206e-06,2.3331447,-1.3145088,-2.3923898,0.99632007,-0.013721043,-0.035864007,-0.07662885,-0.022316946,-0.028357008,-0.04881594,-0.0004757842,-0.0059931935,0.014153966,0.01689777,0.016897388,0.033242114,2.4544968e-05,2.4187184e-05,0.00034835358,0.0060053198,0.00600415,0.0066379765,-0.004158201,-0.0009553781,-6.960885e-05,-0.024508808,0.0441316,-0.031160276,-0.0022037544,0.0027691622,0.0016558438,0.0018858004,-0.004701377,-0.066834904
565244517,-2.45741,0.54891,-8.37178,0.00886,0.23964,-0.04759,-1.0686,2.92991,-1.67722,0.00582,0.33918,0.00397,168,565246016743,-0.0032,-0.0013,-0.008,-0.0037,0.0173,0.0012,-0.02,-0.007,-0.029,0.107,0.121,-0.012,0.516,-0.832,9.754,0.065,-0.014,0.013,-0.011,0.653,1.585,9,86,2,0,-1.1353304,0.9059659,-11.22306,0.0064981133,0.0058589545,0.008202536,-1.2282255,-0.9842563,-10.943178,0.005176034,0.001445559,0.025167381,59.3962225,24.6605742,23.651,-0.02228047465406647,0.005681381197141144,-0.02700000007471343,0.017,-0.006,-0.016,0.013,0.13100001,0.261,-0.00068491115,-0.00022565859,-0.10094029,0.9986948,-0.044736303,-0.02462947,0.0008759342,-0.0018437436,-0.0023387796,-0.0036190015,-0.00029686035,-0.0019599458,0.004837708,1.2300791e-07,1.7735015e-07,1.01947144e-07,1.1135028e-07,1.261368e-07,1.574417e-07,1.1485256e-05,1.4716317e-05,6.5476715e-06,2.3304613,-1.3130248,-2.3997562,0.99631804,-0.013719198,-0.035824396,-0.07667276,-0.022370372,-0.029129332,-0.054501668,0.000392535,-0.005407668,0.008305401,0.01830459,0.018304074,0.035292443,2.4913432e-05,2.455493e-05,0.00034884608,0.0064983154,0.006496974,0.0069726342,-0.004158201,-0.0009553781,-6.960885e-05,-0.024508808,0.0441316,-0.031160276,-0.0022037544,0.0027691622,0.0016558438,0.0018858004,-0.004701377,-0.066834904
565344623,-0.07294,-1.20249,-13.50335,0.27717,0.13405,-0.00178,2.83928,-0.21382,-6.17183,0.49692,-0.12103,-0.03012,171,565344922094,-0.0068,-0.0002,-0.0137,0.0009,0.0333,-0.0002,-0.024,0.013,-0.075,0.272,0.138,-0.007,0.516,-0.832,9.754,0.065,-0.014,0.013,-0.01,0.652,1.585,9,100,2,0,-1.313459,0.1637634,-10.41382,-0.03424825,-0.0064981133,0.02263687,-0.9756372,0.27605146,-9.468349,-0.018878868,-0.0005129403,0.033314474,59.3962224,24.6605743,23.658,-0.03342071384703898,0.011362762364997963,-0.033999999492854156,0.013,0.001,0.013,-0.022000002,0.13100001,0.261,-0.00070572435,-0.00015124083,-0.10104886,0.9986962,-0.044720393,-0.024602968,0.0008523349,-0.002441978,-0.002051405,-0.004024876,-0.002665803,0.00057514297,0.0026841175,1.2339e-07,1.7792883e-07,1.0232511e-07,1.1210852e-07,1.2480191e-07,1.5566822e-07,1.1542948e-05,1.4741445e-05,6.5453487e-06,2.3274515,-1.3116926,-2.4072456,0.9963145,-0.013755797,-0.035841502,-0.076704994,-0.022557069,-0.03095975,-0.062040117,-0.0013280321,-0.00221561,0.010200763,0.01790544,0.017904963,0.03469884,2.4797619e-05,2.4441018e-05,0.00034799115,0.006353765,0.006352471,0.006874555,-0.004158201,-0.0009553781,-6.960885e-05,-0.024508808,0.0441316,-0.031160276,-0.002198892,0.0027777033,0.0016582106,0.0018865502,-0.0047016647,-0.06807621
565444705,-0.25452,0.97525,-11.49359,-0.06917,0.51608,-0.06929,-1.36073,1.34849,1.77135,-0.37876,0.27313,-0.11748,174,565444143933,-0.0095,0.0006,-0.027,-0.0024,0.0695,-0.0015,-0.024,-0.005,-0.216,-0.053,0.497,-0.087,0.516,-0.832,9.754,0.065,-0.014,0.013,-0.009,0.652,1.585,4,27,2,0,-1.0716447,1.1994951,-11.909717,-0.01603223,0.007829694,-0.035313517,-1.0699687,0.14844051,-11.292971,-0.004216769,0.0060486984,-0.014062557,59.3962224,24.6605742,23.663,-0.03342071410609471,0.005681381030502706,-0.03899999922347278,0.029000001,-0.017,-0.024,0.017,0.13100001,0.261,-0.00051578355,-5.297928e-05,-0.10160262,0.9986943,-0.04473081,-0.024658954,0.0009218316,-0.0014601924,-0.0016925703,-0.006193702,0.0038553383,-0.0039641843,-0.007238089,1.2348751e-07,1.7815361e-07,1.0251271e-07,1.0901914e-07,1.1800103e-07,1.4882272e-07,1.140438e-05,1.4506284e-05,6.437386e-06,2.3242023,-1.3094013,-2.415274,0.99631065,-0.013749929,-0.03584215,-0.076756336,-0.022473099,-0.03160181,-0.07409325,0.0025392072,0.003805049,-0.0038774165,0.01756121,0.017560763,0.034259588,2.471112e-05,2.4353585e-05,0.00034848438,0.0062397397,0.0062384713,0.0068007237,-0.004158201,-0.0009553781,-6.960885e-05,-0.024508808,0.0441316,-0.031160276,-0.002198892,0.0027777033,0.0016582106,0.0018865502,-0.0047016647,-0.06807621
565545599,0.20392,-1.60491,-13.5606,0.33723,0.18878,0.0178,2.22149,8.40517,-26.21844,-0.138,0.2742,-0.02586,177,565543422065,-0.0141,0.0004,-0.0571,0.0117,0.0951,0.0002,-0.052,-0.014,-0.405,0.48,0.206,0.119,0.516,-0.832,9.754,0.065,-0.014,0.013,-0.012,0.652,1.587,3,16,2,0,-0.6014235,0.9911995,-8.180987,-0.015446334,-0.0041545313,-0.0010652645,-1.2428302,0.24157496,-8.535808,-0.010531929,-0.010298775,0.01769311,59.3962224,24.6605743,23.68,-0.03342071410213593,0.011362762325586015,-0.05599999973193405,0.021000002,0.009000001,0.019000001,0.012,0.13100001,0.261,-0.00039986693,-0.000103361934,-0.10178532,0.9986928,-0.044740494,-0.024699342,0.00095801876,-0.0019660338,-0.0021423858,-0.0057770563,-0.007693067,0.003437696,0.008639825,1.2354101e-07,1.7831097e-07,1.0274767e-07,1.0841044e-07,1.1626985e-07,1.4913887e-07,1.1436889e-05,1.450807e-05,6.414966e-06,2.3207235,-1.308081,-2.4244113,0.9963125,-0.013786762,-0.035878938,-0.07670866,-0.021683287,-0.03236072,-0.08603446,0.00527507,-0.0027705724,0.007338281,0.017219597,0.017219182,0.033726092,2.46175e-05,2.4260873e-05,0.00034762756,0.006124194,0.0061229635,0.006715851,-0.004181877,-0.0009551891,-6.6081535e-05,-0.024503602,0.04414199,-0.032478493,-0.002198892,0.0027777033,0.0016582106,0.0018865502,-0.0047016647,-0.06807621
565645711,0.44762,-0.91577,-10.04044,0.09554,-0.24159,0.00262,0.85661,0.48372,-19.72729,0.00901,-0.20518,0.1041,180,565662830811,-0.0223,0.0011,-0.1157,0.0317,0.0948,0.0034,-0.075,-0.002,-0.546,-0.06,-0.374,0.055,0.517,-0.831,9.754,0.065,-0.014,0.013,-0.013,0.651,1.588,3,16,2,0,-0.92655605,-0.39360675,-9.67018,-0.03488741,-0.058163438,-0.004261058,-0.86334914,-0.6002264,-9.859083,-0.010471975,-0.07784035,0.006921363,59.3962224,24.6605743,23.68,-0.03342071410213593,0.011362762325586015,-0.05599999973193405,0.021000002,0.009000001,0.019000001,0.012,0.13100001,0.261,-0.0003722454,-0.00010769134,-0.10183461,0.9986943,-0.044691574,-0.024727913,0.0009492253,-0.002106034,-0.0029812574,-0.0052714427,-0.0023016275,-4.1512394e-05,-0.003861577,1.2388982e-07,1.7935585e-07,1.033307e-07,1.1675682e-07,1.2375921e-07,1.6682901e-07,1.1805287e-05,1.4737047e-05,6.7465735e-06,2.3173864,-1.3067162,-2.434273,0.99630815,-0.013796499,-0.035894502,-0.0767558,-0.02137869,-0.03356719,-0.09916968,0.0037629206,0.0051503303,0.0023687326,0.016892113,0.016891727,0.03320838,2.4528304e-05,2.4170418e-05,0.00034812264,0.0060128816,0.006011687,0.0066332854,-0.004181877,-0.0009551891,-6.6081535e-05,-0.024503602,0.04414199,-0.032478493,-0.002198892,0.0027777033,0.0016582106,0.0018865502,-0.0047016647,-0.06807621
565745556,-0.60365,-0.5289,-10.88451,0.00286,0.04949,0.04003,0.72251,1.20038,-11.72202,0.03777,-0.18814,0.07854,183,565743447757,-0.0268,0.0018,-0.16,0.0292,0.0805,0.0068,-0.07,0.003,-0.543,0.031,0.049,0.032,0.516,-0.831,9.754,0.065,-0.014,0.013,-0.013,0.652,1.587,1,9,2,0,-0.83461875,-0.2671929,-9.231563,-0.029294772,-0.001970739,0.0076166405,-0.70186025,-0.24540567,-8.861239,-0.00541585,0.0062751914,0.011224732,59.3962224,24.6605743,23.679,-0.03342071379979022,0.01136276237661475,-0.054999999204805555,0.020000001,-0.014,0.014,0.027,0.13100001,0.261,-0.00025197907,-4.916989e-05,-0.1015425,0.9986911,-0.044718962,-0.024805803,0.0010186142,-0.0023778544,-0.002671835,-0.0039032062,0.012765009,0.0097965365,-0.006167232,1.2407315e-07,1.7966958e-07,1.0325749e-07,1.0378038e-07,1.210452e-07,1.6447802e-07,1.1225637e-05,1.455687e-05,6.549517e-06,2.3142862,-1.305075,-2.445047,0.9963055,-0.013797042,-0.035973452,-0.076752305,-0.019679248,-0.03487118,-0.11498826,0.0061568893,-0.000118235046,-0.0035674253,0.016577728,0.016577367,0.03279482,2.4440242e-05,2.4081439e-05,0.00034861767,0.005905663,0.0059044985,0.0065615224,-0.004181877,-0.0009551891,-6.6081535e-05,-0.024503602,0.04414199,-0.032478493,-0.002198892,0.0027777033,0.0016582106,0.0018865502,-0.0047016647,-0.06807621
565846321,-0.96174,-0.59019,-5.06714,0.0785,-0.03599,-0.00311,-1.04465,-0.78237,6.60986,0.29025,0.03131,-0.00988,186,565849631606,-0.0368,0.0012,-0.2162,0.0332,0.0875,0.01,-0.078,-0.005,-0.505,0.111,-0.149,0.056,0.517,-0.831,9.754,0.065,-0.014,0.013,-0.013,0.651,1.587,2,10,2,0,-0.62823856,0.70389533,-9.995314,-0.037390783,0.033449303,0.017310547,-0.60836667,0.5554548,-10.070251,-0.027225804,0.03679847,0.0331013,59.3962224,24.6605743,23.682,-0.03342071436885904,0.011362762400519826,-0.0579999995042452,0.008,-0.001,-0.008,-0.008,0.13100001,0.261,-0.0003218935,-4.783453e-05,-0.101508334,0.9986919,-0.04470884,-0.02479033,0.0010394896,-0.0019497207,-0.0024108223,-0.003722622,-0.013839282,0.0034093265,0.0024914893,1.2388628e-07,1.7967588e-07,1.0304347e-07,1.02209874e-07,1.1502457e-07,1.5707802e-07,1.1316489e-05,1.4475417e-05,6.4920155e-06,2.311169,-1.3034172,-2.4568355,0.99630064,-0.013843438,-0.03598656,-0.07680131,-0.019768778,-0.034713797,-0.12998089,-0.003915608,-0.0004558123,0.002812253,0.01627546,0.01627512,0.032305185,2.4352608e-05,2.3993149e-05,0.0003477657,0.005802732,0.0058015967,0.0064829756,-0.004181877,-0.0009551891,-6.6081535e-05,-0.024503602,0.04414199,-0.032478493,-0.002198636,0.0027814482,0.0016646015,0.0018885587,-0.0047019185,-0.06959279
565945627,-0.39817,-1.1705,-10.02126,0.08276,-0.14505,0.08358,3.94077,2.90124,-34.28103,0.03777,-0.72718,0.06362,189,565947983266,-0.0466,-0.0007,-0.265,0.0315,0.0808,0.0147,-0.084,-0.013,-0.498,0.053,-0.132,0.089,0.517,-0.83,9.754,0.065,-0.014,0.013,-0.013,0.651,1.588,18,38,2,0,-1.6558299,0.6014235,-10.400413,-0.039254993,0.0017044231,0.004580637,-1.455914,0.5068525,-9.887814,-0.014355666,-0.017360032,0.02354196,59.3962224,24.6605743,23.669,-0.033420714029532776,0.011362762442438671,-0.04499999910387264,0.030000001,-0.016,0.026,0.046000004,0.13100001,0.261,-0.00028609473,-6.3795596e-05,-0.101769336,0.9986933,-0.044657074,-0.024827408,0.0010398137,-0.0019266679,-0.0032438,-0.0053685084,0.0057038744,-0.007918191,-0.00040186182,1.2414016e-07,1.798255e-07,1.0323384e-07,1.13787216e-07,1.305541e-07,1.5150992e-07,1.174582e-05,1.5282374e-05,6.449898e-06,2.3083227,-1.3020747,-2.4695199,0.9962956,-0.013813444,-0.03604487,-0.07684431,-0.017634148,-0.0373879,-0.14319237,-0.008856585,-0.008352747,0.0051400107,0.017612947,0.017612493,0.03428644,2.4718483e-05,2.4359077e-05,0.00034826115,0.006288684,0.006287381,0.0068136924,-0.0041930755,-0.0009558664,-6.23568e-05,-0.024500957,0.04415183,-0.03368752,-0.002198636,0.0027814482,0.0016646015,0.0018885587,-0.0047019185,-0.06959279
566045807,-0.15925,1.32715,-9.8582,-0.17264,-0.07141,0.05148,-1.36073,-1.00692,-16.61307,-0.0581,0.4063,0.06788,192,566046479695,-0.0544,-0.0017,-0.314,0.0311,0.0715,0.019,-0.075,-0.012,-0.498,-0.218,-0.017,0.058,0.517,-0.83,9.754,0.065,-0.014,0.013,-0.013,0.651,1.588,15,28,2,0,0.69144547,0.683784,-9.501629,-0.016777916,0.035739623,-0.0015446334,0.37349546,0.7084443,-9.860041,-0.0007927259,0.0075941808,0.010485299,59.3962224,24.6605743,23.68,-0.03342071410213593,0.011362762325586015,-0.05599999973193405,0.043,0.032,-0.028,0.002,0.13100001,0.26200002,-0.00019307931,-6.1668197e-06,-0.10173693,0.99868935,-0.04473059,-0.024850445,0.0011005071,-0.00093776145,-0.001791704,-0.0056298743,0.0036530972,-0.01395035,-0.002200956,1.2473635e-07,1.8126599e-07,1.03768734e-07,1.1823658e-07,1.2657736e-07,1.7514989e-07,1.1719406e-05,1.4792222e-05,6.8088852e-06,2.305335,-1.3002622,-2.4815607,0.9962942,-0.013811778,-0.036037456,-0.07686562,-0.019560143,-0.038425222,-0.15393573,0.009212763,0.010893892,-0.0033233035,0.017277915,0.017277485,0.033761952,2.4623361e-05,2.4263549e-05,0.0003474103,0.006175053,0.0061737723,0.006731018,-0.0041930755,-0.0009558664,-6.23568e-05,-0.024500957,0.04415183,-0.03368752,-0.002198636,0.0027814482,0.0016646015,0.0018885587,-0.0047019185,-0.06959279
566145974,-0.73745,0.83892,-4.65949,0.05293,0.17919,0.06254,0.36333,1.64948,-21.84802,0.16987,-0.45659,0.07747,195,566155087421,-0.0612,-0.0026,-0.3673,0.0382,0.0894,0.0238,-0.061,-0.013,-0.49,0.15,0.186,0.033,0.517,-0.831,9.754,0.065,-0.014,0.013,-0.012,0.651,1.587,17,37,2,0,-1.0539277,0.22361845,-8.916965,-0.029827405,0.014061491,0.019654129,-0.496318,-0.21164744,-9.135316,-0.014355666,-0.03202879,0.027605513,59.3962224,24.6605743,23.68,-0.03342071410213593,0.011362762325586015,-0.05599999973193405,0.043,0.032,-0.028,0.002,0.13100001,0.26200002,-0.0002511655,-0.00020963236,-0.101634495,0.99869215,-0.044678167,-0.024831407,0.0010972379,-0.003636141,-0.004513294,-0.0048483266,-0.007568338,0.011037033,0.0036053169,1.2376083e-07,1.7983946e-07,1.0324992e-07,8.35684e-08,8.616915e-08,1.5301023e-07,1.0361482e-05,1.27903795e-05,6.4407327e-06,2.303039,-1.2993405,-2.4945858,0.9962956,-0.013832067,-0.036043808,-0.07684277,-0.015963867,-0.03814038,-0.16748975,-0.004151689,0.004667254,0.0041718404,0.016934358,0.016933959,0.033319674,2.4517223e-05,2.4157087e-05,0.00034790728,0.0060504586,0.0060492028,0.0066519612,-0.0042016194,-0.00095346716,-5.851107e-05,-0.024494406,0.044160184,-0.035161242,-0.0021945336,0.0027877896,0.0016683358,0.0018924393,-0.0047040056,-0.070748165
566246381,0.80153,-1.8722,-11.44563,-0.11525,0.06161,-0.00311,-1.51398,2.96813,-15.85362,-0.52151,0.6332,0.00397,198,566245898997,-0.0665,-0.0015,-0.4104,0.0375,0.0972,0.0251,-0.066,-0.001,-0.49,-0.114,0.059,-0.01,0.517,-0.832,9.754,0.065,-0.014,0.013,-0.011,0.651,1.586,15,26,2,0,-0.941879,1.9560628,-10.548853,-0.048522796,-0.02844256,-0.005965481,-0.6256049,0.6845023,-10.065463,0.004369985,-0.07952573,0.00075275655,59.3962223,24.6605743,23.682,-0.04456095168556627,0.01136276257875406,-0.05799999862066051,0.021000002,-0.020000001,0.007,-0.001,0.13100001,0.26200002,-0.00039373024,-0.00018645776,-0.101759054,0.9986924,-0.044682935,-0.024812136,0.001114203,-0.0030020967,-0.0026396543,-0.0058175065,0.0084635485,-0.003971275,-0.0025580819,1.2396163e-07,1.8023107e-07,1.03206965e-07,1.0773458e-07,1.199315e-07,1.5250563e-07,1.1632486e-05,1.48378e-05,6.463338e-06,2.30157,-1.2994993,-2.5090587,0.9962906,-0.013793652,-0.036068078,-0.07690231,-0.0143880155,-0.041168552,-0.17587797,0.0059884293,0.0101206405,0.0021055946,0.018349217,0.018348673,0.03527652,2.4882876e-05,2.4524454e-05,0.00034706236,0.0065499777,0.0065485663,0.0069774217,-0.0042016194,-0.00095346716,-5.851107e-05,-0.024494406,0.044160184,-0.035161242,-0.0021945336,0.0027877896,0.0016683358,0.0018924393,-0.0047040056,-0.070748165
566346648,-0.4361,2.25636,-10.07401,0.06145,0.17892,-0.01696,-0.79562,2.39003,-17.31521,0.41809,0.75039,-0.03012,201,566344722404,-0.0728,0.0002,-0.4612,0.0364,0.1011,0.0257,-0.085,0.012,-0.578,0.023,0.113,0.005,0.517,-0.832,9.754,0.065,-0.014,0.013,-0.01,0.65,1.586,15,15,2,0,-1.2665327,0.38498765,-9.277532,-0.011451593,-0.0053795855,-0.00793622,-1.2543821,0.21398178,-9.234556,-0.037411332,0.033187903,0.019238591,59.3962223,24.6605743,23.686,-0.04456095121340396,0.01136276249972416,-0.06199999865251994,0.024,-0.017,-0.017,0.034,0.13100001,0.26200002,-0.00049868005,-0.00024612353,-0.10183551,0.9986908,-0.04471842,-0.0248119,0.001155986,-0.0030606324,-0.003082368,-0.005441186,-0.0076643527,0.002401624,0.000532474,1.2467403e-07,1.8155687e-07,1.03761295e-07,1.2167628e-07,1.3548451e-07,1.8126657e-07,1.1940288e-05,1.5294621e-05,7.046062e-06,2.299443,-1.2992097,-2.5224652,0.9962858,-0.013879935,-0.036142867,-0.07691429,-0.014454624,-0.041990846,-0.17700581,-0.0031517937,-0.0007599311,-0.005400972,0.017933646,0.017933147,0.03476679,2.4751891e-05,2.4392528e-05,0.00034755984,0.0063933097,0.006391939,0.0068843737,-0.004204733,-0.0009546462,-5.7665937e-05,-0.024493836,0.044163074,-0.036174785,-0.0021945336,0.0027877896,0.0016683358,0.0018924393,-0.0047040056,-0.070748165
566446694,-1.02386,0.52978,-12.4048,-0.3568,-0.2111,-0.0352,-0.18741,2.54769,-25.4781,-0.35745,0.271,0.01781,204,566443663176,-0.0834,0.0035,-0.5273,0.0361,0.1052,0.0254,-0.127,0.034,-0.764,-0.092,-0.207,0.089,0.517,-0.832,9.754,0.065,-0.014,0.013,-0.01,0.65,1.586,16,12,2,0,-1.0611103,0.113964,-10.022607,-0.039414786,0.01901497,0.014487596,-1.7707516,0.88346046,-10.157401,-0.024328025,-0.0048629404,0.02464778,59.3962223,24.6605743,23.686,-0.04456095121340396,0.01136276249972416,-0.06199999865251994,0.043,0.034,0.027,-0.029000001,0.13100001,0.26200002,-0.0004032173,-0.00012692701,-0.1019552,0.9986907,-0.04469059,-0.024865333,0.001124958,-0.0020569894,-0.0019075931,-0.0059821615,0.007021139,0.0015237248,0.0011956354,1.2485198e-07,1.8182061e-07,1.03962215e-07,1.1855632e-07,1.3150442e-07,1.6189314e-07,1.1543871e-05,1.4872692e-05,6.4352703e-06,2.2965784,-1.2984866,-2.5327687,0.99628466,-0.013821002,-0.036109924,-0.076954626,-0.014700806,-0.04202127,-0.17517792,-0.0056080525,0.0066060144,0.005824505,0.017587071,0.017586602,0.03422913,2.465592e-05,2.4296829e-05,0.00034671364,0.0062732105,0.0062718797,0.006800555,-0.004204733,-0.0009546462,-5.7665937e-05,-0.024493836,0.044163074,-0.036174785,-0.0021945708,0.0027939777,0.0016686223,0.0018972973,-0.0047042496,-0.072184026
566546797,-0.31186,2.22766,-8.62567,-0.11405,-0.03346,-0.01696,2.12571,8.83516,-19.91358,-0.45652,-0.68776,-0.02906,207,566543786231,-0.0979,0.0065,-0.6091,0.0178,0.0929,0.0275,-0.149,0.025,-0.836,-0.104,0.123,0.001,0.517,-0.833,9.754,0.065,-0.014,0.013,-0.009,0.65,1.585,15,35,2,0,-0.9246407,1.5773001,-10.138487,-0.048043426,0.019547602,-0.0056991647,-1.2969391,0.17477673,-10.669042,0.009479403,-0.005935452,-0.0056623276,59.3962223,24.6605743,23.699,-0.04456095155273023,0.011362762457805313,-0.07499999905289251,0.039,-0.039,-0.004,0.009000001,0.13100001,0.26200002,-0.00039240925,-0.00018275101,-0.10183572,0.9986906,-0.044712476,-0.024830863,0.0011417866,-0.0035789888,-0.0027595032,-0.005928218,0.004071207,0.0059299623,-0.0006762248,1.2480139e-07,1.814653e-07,1.03869496e-07,1.1433909e-07,1.2571017e-07,1.5591571e-07,1.1713543e-05,1.49661255e-05,6.459669e-06,2.294691,-1.297385,-2.5434678,0.996281,-0.01381368,-0.03615418,-0.07698172,-0.01386924,-0.0416808,-0.17626134,-0.00017144486,-0.012538966,-0.0017558147,0.017243212,0.017242774,0.033788197,2.4556359e-05,2.419714e-05,0.00034721164,0.006149865,0.0061485786,0.0067243436,-0.0042176503,-0.0009548821,-5.7900357e-05,-0.024490021,0.044176623,-0.037814196,-0.0021945708,0.0027939777,0.0016686223,0.0018972973,-0.0047042496,-0.072184026
566647019,0.13702,-2.2791,-11.67103,0.11552,0.08664,0.00262,-0.50349,-3.10434,-22.43552,-0.08047,0.33492,-0.0003,210,566643980809,-0.1129,0.0069,-0.6909,0.0235,0.0975,0.0294,-0.154,0.003,-0.799,0.162,0.063,0.04,0.517,-0.833,9.754,0.065,-0.014,0.013,-0.009,0.65,1.586,14,28,2,0,-0.10151415,0.1910573,-11.286267,-0.0038882152,0.009161274,0.0010652645,0.4661511,0.20446482,-9.67066,0.01305,0.016407428,0.010971593,59.3962223,24.6605743,23.699,-0.04456095155273023,0.011362762457805313,-0.07499999905289251,0.039,-0.039,-0.004,0.009000001,0.13100001,0.26200002,-0.0002890821,-0.00015976591,-0.10218963,0.99868834,-0.044770014,-0.024816286,0.0011619537,-0.00127675,-0.0012007693,-0.007429832,-0.0027845942,0.0059826225,0.0025120266,1.2479045e-07,1.8131584e-07,1.0379363e-07,1.11258295e-07,1.1882822e-07,1.5001422e-07,1.1533605e-05,1.4599196e-05,6.397471e-06,2.292586,-1.2962921,-2.5543656,0.9962836,-0.013806298,-0.036141664,-0.0769551,-0.012539856,-0.04253365,-0.18240027,0.0041088443,-0.0052402746,-0.0058229393,0.016913677,0.016913272,0.033268455,2.4462397e-05,2.410181e-05,0.0003477095,0.006032701,0.006031464,0.006641326,-0.0042176503,-0.0009548821,-5.7900357e-05,-0.024490021,0.044176623,-0.037814196,-0.0021875736,0.0027982898,0.0016691198,0.0019005376,-0.0047083353,-0.07324059
566747264,-0.96652,-1.1116,-7.99261,-0.09554,-0.08766,-0.00191,-1.96894,0.81816,-18.88665,-0.23388,0.37008,0.00184,213,566744009259,-0.1275,0.0079,-0.7705,0.0262,0.0975,0.0308,-0.156,-0.008,-0.782,-0.161,-0.066,-0.005,0.516,-0.833,9.754,0.065,-0.014,0.013,-0.008,0.65,1.585,13,17,2,0,-1.0041282,0.23271641,-9.740091,-0.054807857,0.02924151,0.012357067,-0.92128885,0.48578352,-9.934022,-0.019558346,-0.018272664,0.015974427,59.3962223,24.6605742,23.713,-0.04456095217541558,0.005681381143119034,-0.08899999888712136,0.055000003,0.030000001,-0.046000004,-0.063,0.13100001,0.263,-0.00030758852,-5.4533066e-05,-0.10214041,0.9986912,-0.04470047,-0.024828095,0.0011401353,-0.002475764,-0.0021572916,-0.0068073873,-0.005173586,-0.0028212268,0.00086287543,1.252937e-07,1.8266421e-07,1.0424182e-07,1.1931321e-07,1.2687919e-07,1.6583013e-07,1.1878477e-05,1.4976721e-05,6.6158104e-06,2.2903295,-1.2959589,-2.5665135,0.99628305,-0.013824706,-0.036157217,-0.076953106,-0.0128572825,-0.043015063,-0.19093244,-0.008517843,2.5604363e-06,0.0019430955,0.016587054,0.016586676,0.03275205,2.4361343e-05,2.4002722e-05,0.0003468683,0.0059145167,0.0059133205,0.0065568425,-0.0042257914,-0.0009520464,-5.674421e-05,-0.02448319,0.044184443,-0.039375823,-0.0021875736,0.0027982898,0.0016691198,0.0019005376,-0.0047083353,-0.07324059
566847449,1.04972,-1.08798,-16.2319,0.2042,-0.12068,0.00195,0.8614,-2.93712,-6.90262,0.34245,-0.31278,0.00503,216,566843201383,-0.1421,0.0087,-0.8503,0.0217,0.1007,0.0316,-0.166,-0.013,-0.795,0.181,-0.03,0.045,0.516,-0.834,9.754,0.065,-0.014,0.013,-0.007,0.65,1.584,15,14,2,0,-1.55671,0.25474307,-9.62517,-0.037923414,0.006711166,0.014327806,-1.2531252,-0.6138733,-9.781033,-0.031316005,-0.002737902,0.014195789,59.3962222,24.6605743,23.701,-0.055701189447853225,0.011362762551284154,-0.0770000002900649,0.019000001,-0.008,0.017,0.022000002,0.13100001,0.263,-0.0004174256,-0.0002576095,-0.10216011,0.99868673,-0.044792987,-0.02484096,0.0011630551,-0.0016318972,-0.002638529,-0.006660041,0.010972355,-0.005036514,-0.0016702097,1.2463352e-07,1.8177984e-07,1.0365536e-07,1.1403822e-07,1.2255921e-07,1.659101e-07,1.19982105e-05,1.5443771e-05,6.5915488e-06,2.2890196,-1.2968333,-2.580358,0.99628174,-0.013789864,-0.036150455,-0.076979846,-0.0101332,-0.045563225,-0.20213081,0.0075153788,0.0015402911,0.0007437088,0.017960027,0.017959522,0.034765042,2.4727808e-05,2.436871e-05,0.00034736737,0.0064044343,0.006403057,0.006889241,-0.0042257914,-0.0009520464,-5.674421e-05,-0.02448319,0.044184443,-0.039375823,-0.0021875736,0.0027982898,0.0016691198,0.0019005376,-0.0047083353,-0.07324059
566947619,-0.09713,-1.53764,-6.78885,-0.04614,0.0724,0.00208,-2.83576,-5.71775,4.43659,0.2519,-0.31491,-0.07167,219,566942500518,-0.1566,0.0097,-0.9312,0.0303,0.0912,0.0299,-0.176,-0.019,-0.812,0.017,-0.079,-0.025,0.515,-0.835,9.754,0.065,-0.014,0.013,-0.006,0.65,1.583,15,12,2,0,-0.35290533,-0.31794998,-11.007582,-0.042557314,0.018801918,-0.00793622,-0.34476504,-0.26551697,-11.122503,-0.031582467,0.011078178,-0.0016653906,59.3962222,24.6605744,23.709,-0.05570118919015546,0.017044144020851852,-0.08499999967787301,0.032,-0.007,0.031000001,-0.013,0.13100001,0.263,-0.00031228355,-0.0003170682,-0.10219218,0.99868774,-0.044763647,-0.02485063,0.0011901084,-0.001102823,-0.0026499233,-0.006817883,-0.004810833,0.0025796962,0.006097955,1.2407975e-07,1.8074175e-07,1.0314931e-07,9.3840086e-08,1.0167317e-07,1.65164e-07,1.1072919e-05,1.40665925e-05,6.6161124e-06,2.287264,-1.2965403,-2.59314,0.9962821,-0.01389627,-0.03617603,-0.076942734,-0.010074518,-0.04576753,-0.2168754,-0.006876402,-0.0057017887,-0.0034158546,0.017610958,0.01761049,0.034225833,2.462882e-05,2.4271229e-05,0.00034652746,0.0062862923,0.0062849624,0.0068047154,-0.0042257914,-0.0009520464,-5.674421e-05,-0.02448319,0.044184443,-0.039375823,-0.0021918095,0.0027997144,0.0016692405,0.0019027557,-0.0047061546,-0.07482157
567047961,0.30935,1.17198,-7.96384,0.16452,-0.01016,-0.11816,5.66483,7.13907,-48.13264,-0.12948,0.06753,-0.07593,222,567041922802,-0.1715,0.0097,-1.0139,0.0403,0.095,0.0276,-0.177,-0.022,-0.831,0.166,-0.057,-0.004,0.515,-0.836,9.754,0.065,-0.014,0.013,-0.005,0.65,1.582,14,10,2,0,-2.129403,2.8682537,-9.172187,-0.11355719,0.038402785,0.031052459,-1.7721881,0.74842745,-7.994958,-0.02789196,-0.030043645,0.04623124,59.3962222,24.6605743,23.718,-0.05570118942490782,0.011362762624628769,-0.09399999970525398,0.026,0.003,-0.026,-0.006,0.13100001,0.264,-0.00071907026,-0.0005007783,-0.10276767,0.99871397,-0.044743925,-0.02381674,0.0010989177,-0.009917191,-0.0034990136,-0.0076841917,0.0035754626,0.09882454,-0.026292544,1.2411313e-07,1.8054189e-07,1.0318191e-07,8.641606e-08,9.358195e-08,1.7787897e-07,1.0413234e-05,1.2870511e-05,6.938448e-06,2.285152,-1.2954377,-2.6068532,0.996349,-0.013329724,-0.034471072,-0.07695993,-0.015316286,-0.04289056,-0.23134124,0.0109595675,0.057865564,-0.021400893,0.017276058,0.017275617,0.03379702,2.4534234e-05,2.4177065e-05,0.00034702654,0.0061739557,0.006172667,0.006731732,-0.0042369375,-0.00095317,-5.502124e-05,-0.024479574,0.044197436,-0.04143263,-0.0021918095,0.0027997144,0.0016692405,0.0019027557,-0.0047061546,-0.07482157
567148220,-1.23411,2.70572,-8.84627,-0.15493,0.01128,-0.0119,2.59504,5.30443,-18.01734,-0.32017,0.3232,0.00397,225,567146523632,-0.1873,0.0117,-1.1024,0.0454,0.0894,0.0244,-0.184,-0.013,-0.855,-0.096,-0.002,-0.059,0.515,-0.837,9.754,0.065,-0.014,0.013,-0.004,0.649,1.581,15,12,2,0,2.5948358,3.0286653,-12.661975,0.0010120012,0.12399678,-0.032543827,4.50493,-0.6014235,-16.447208,0.017280092,0.026646249,-0.039596327,59.3962222,24.6605743,23.718,-0.05570118942490782,0.011362762624628769,-0.09399999970525398,0.026,0.003,-0.026,-0.006,0.13100001,0.264,-0.00216513,-0.0008039688,-0.10534235,0.9987961,-0.044384155,-0.020871786,0.0008886559,-0.014197826,-0.0022397132,-0.020625066,0.054687753,0.110689886,0.023996823,1.35104e-07,1.8571589e-07,1.1145496e-07,9.930116e-08,1.0219902e-07,2.3026296e-07,1.1116183e-05,1.338833e-05,7.658309e-06,2.2830155,-1.2949781,-2.621719,0.99645007,-0.01263718,-0.03147648,-0.077050954,-0.01598012,-0.04334601,-0.24700746,-0.030406488,-0.0125261685,-0.0074167117,0.01694348,0.016943064,0.033275105,2.4393614e-05,2.4074878e-05,0.0003462193,0.0060578096,0.006056566,0.0066476404,-0.0042369375,-0.00095317,-5.502124e-05,-0.024479574,0.044197436,-0.04143263,-0.0021907296,0.0028035492,0.0016734868,0.0019061049,-0.0047068847,-0.07669143
567248493,-0.19748,-1.57621,-7.44109,0.07117,-0.05623,0.03258,1.36904,-1.04515,-16.81846,0.08571,-0.52158,0.05936,228,567245188353,-0.2028,0.0139,-1.1869,0.0507,0.0878,0.0225,-0.187,0.006,-0.862,0.094,0.096,-0.011,0.515,-0.838,9.754,0.065,-0.014,0.013,-0.004,0.649,1.58,15,11,2,0,-5.1513643,-2.4243686,-2.012566,-0.05044027,0.0757403,0.02380866,-4.191768,-1.2591107,-5.7810397,0.13129273,0.13980621,0.004589816,59.3962222,24.6605744,23.72,-0.05570118973689322,0.017044143903999196,-0.0959999995043372,0.030000001,-0.018000001,0.024,0.013,0.13100001,0.264,-0.0036600733,-0.0013493054,-0.1088733,0.9988905,-0.04412784,-0.016445342,-0.00017476364,-0.013954039,-0.00936589,-0.038964223,0.15261497,0.068614975,-0.027616339,1.7614836e-07,2.0519116e-07,1.373022e-07,2.3884715e-07,2.9018526e-07,4.275936e-07,1.6073433e-05,2.175743e-05,9.850502e-06,2.280947,-1.2958214,-2.640565,0.9965605,-0.0116887335,-0.025886603,-0.07784835,-0.009160653,-0.041599546,-0.27973193,-0.032761313,0.2734601,-0.04672392,0.018359771,0.01835921,0.035327964,2.4695824e-05,2.4439698e-05,0.00034676242,0.006559207,0.006557792,0.0069825994,-0.0042452565,-0.0009553958,-5.248904e-05,-0.024478938,0.044209532,-0.042737857,-0.0021907296,0.0028035492,0.0016734868,0.0019061049,-0.0047068847,-0.07669143
567348316,-0.2596,0.19343,-6.94711,-0.12443,-0.15584,0.04962,1.60849,3.58923,-35.56589,-0.45865,-0.71759,0.09558,231,567344032249,-0.2193,0.0165,-1.2723,0.0462,0.0857,0.0229,-0.188,0.007,-0.868,-0.056,-0.021,-0.04,0.516,-0.838,9.754,0.065,-0.014,0.013,-0.003,0.649,1.58,14,10,2,0,2.6082435,-8.131187,-34.415215,0.3875432,0.43633232,-0.18263958,2.2057781,-1.7010803,-15.407407,-0.086040735,0.51804304,0.17346708,59.3962221,24.6605744,23.723,-0.06684142717481031,0.017044144088836425,-0.09899999865528926,0.017,-0.006,-0.016,-0.014,0.13100001,0.264,-0.0069857533,-0.0008426462,-0.11584501,0.9991105,-0.041765228,-0.0057594995,-0.00083226414,-0.016561592,0.009001193,-0.096204795,-0.0089909425,0.38326013,0.04402685,3.6321615e-07,2.759374e-07,2.5286852e-07,3.9923498e-07,5.826023e-07,7.9272644e-07,1.9305267e-05,2.7875178e-05,1.2564806e-05,2.2794344,-1.2947946,-2.666661,0.9969002,-0.008740901,-0.01262656,-0.077164054,0.010738055,-0.04738315,-0.45288903,-0.08215181,0.43790668,0.060457382,0.017955573,0.017955055,0.034730557,2.446447e-05,2.4312818e-05,0.00034733096,0.0064159003,0.006414654,0.0068836166,-0.004249165,-0.0009550395,-5.998484e-05,-0.02447343,0.04421462,-0.044218227,-0.0021907296,0.0028035492,0.0016734868,0.0019061049,-0.0047068847,-0.07669143
567448442,1.48486,-2.11586,-7.84394,0.07104,0.10435,-0.03107,0.00416,1.27682,-4.01289,-0.22429,-0.58443,-0.05889,234,567443203621,-0.2342,0.0191,-1.3589,0.0418,0.0784,0.0219,-0.179,0.016,-0.885,-0.069,0.143,0.011,0.517,-0.838,9.754,0.065,-0.014,0.013,-0.004,0.649,1.58,15,7,2,0,-4.730464,-7.08971,-12.330618,0.7367369,0.1123854,0.11723235,-4.6595955,-0.49129018,-16.219519,0.79934746,-0.18102795,0.16665229,59.3962222,24.6605744,23.767,-0.05570118963980902,0.01704414422036502,-0.14299999958614235,0.036000002,0.029000001,0.022000002,-0.128,0.13100001,0.264,-0.0093434565,-0.001131104,-0.13527413,0.998907,-0.043797415,0.016060669,-0.0029383933,-0.007778797,-0.010500917,-0.28628552,0.0945579,0.29023463,-0.014878685,9.973612e-07,5.2473695e-07,6.530838e-07,5.3029174e-07,6.4001745e-07,1.2531791e-06,2.1086149e-05,2.7682006e-05,1.4548155e-05,2.2796888,-1.2960947,-2.716043,0.9969711,-0.0075279577,0.00689786,-0.07710084,0.018838318,-0.08075719,-0.7928048,0.1199963,0.24495974,-0.0034245704,0.017608607,0.017608125,0.034288693,2.4195338e-05,2.4205958e-05,0.00034660543,0.006356934,0.006356063,0.0068097464,-0.0042598313,-0.00095494295,-6.71742e-05,-0.024446817,0.044251427,-0.0462554,-0.0021924805,0.0028077897,0.0016594591,0.0019346137,-0.00470287,-0.079027206
567549047,-0.08249,1.2521,-16.09761,0.13735,-0.02494,-0.04053,-0.91056,-0.94004,-3.54003,0.36802,0.82496,-0.06634,237,567543468909,-0.2494,0.0209,-1.4482,0.0541,0.0893,0.0209,-0.174,0.013,-0.9,0.241,-0.084,-0.026,0.517,-0.838,9.754,0.065,-0.014,0.013,-0.003,0.649,1.58,14,9,2,0,-5.797799,1.4887146,2.3017855,-0.14460965,0.21321268,0.047564056,0.9911995,10.132502,-6.0187836,-0.22517413,0.11690375,0.10666493,59.3962221,24.6605744,23.846,-0.066841428171024,0.01704414443273793,-0.22199999880312696,0.07,-0.069000006,-0.013,-0.397,0.13100001,0.264,-0.013090264,-0.0063231313,-0.17817377,0.9992454,-0.02988414,0.024759384,-0.0015936833,-0.016516382,-0.025558993,-0.4966686,0.2790394,0.13781089,0.032493457,1.3115617e-06,7.229839e-07,9.2425506e-07,5.952353e-07,7.853759e-07,2.0636894e-06,2.4780697e-05,3.3327917e-05,1.8779861e-05,2.2799509,-1.2989308,-2.8004487,0.99710816,0.0065862923,0.012582706,-0.07465756,0.003038601,-0.091195546,-1.139835,0.043240447,0.12402465,0.013642347,0.017276999,0.017276546,0.033764455,2.4033863e-05,2.4096242e-05,0.00034712555,0.0063656424,0.006364477,0.0067288443,-0.0042697135,-0.00096469925,-0.000101887454,-0.024463048,0.044295743,-0.04904267,-0.0021965276,0.002801405,0.0016259411,0.0019381668,-0.0047067744,-0.08117724
567648961,-1.02894,2.00702,-9.6232,-0.18609,0.09277,0.00754,-7.81639,-1.0547,12.55649,-0.21151,1.0785,0.06895,240,567642686067,-0.265,0.0246,-1.5378,0.0529,0.0875,0.0188,-0.18,0.022,-0.927,0.052,0.047,-0.005,0.518,-0.839,9.754,0.065,-0.014,0.013,-0.003,0.649,1.58,13,9,2,0,3.8130057,3.112941,6.702328,-0.40687776,-0.0060187443,0.06034723,8.813775,0.09002198,-10.335051,-0.6901845,-0.27473614,0.08693338,59.3962221,24.6605744,23.846,-0.066841428171024,0.01704414443273793,-0.22199999880312696,0.07,-0.069000006,-0.013,-0.397,0.13100001,0.264,-0.015959406,-0.008693531,-0.22587818,0.99946654,-0.027252441,0.017997166,-3.892808e-05,-0.023961566,-0.014989008,-0.5583039,-0.037017066,-0.3355606,0.052366484,1.0259787e-06,6.649109e-07,7.6158733e-07,7.2216704e-07,1.1417131e-06,3.2911876e-06,2.481551e-05,3.5600675e-05,2.336816e-05,2.2782917,-1.300929,-2.9075127,0.99732906,0.0068054465,0.0028902187,-0.0726646,0.008617783,-0.0774023,-1.2597536,-0.06029446,-0.2815525,0.051076125,0.016947571,0.016947148,0.033334106,2.3933955e-05,2.3940978e-05,0.00034622662,0.0063592186,0.0063569793,0.006654747,-0.0042697135,-0.00096469925,-0.000101887454,-0.024463048,0.044295743,-0.04904267,-0.0021965276,0.002801405,0.0016259411,0.0019381668,-0.0047067744,-0.08117724
567749399,-0.82346,-1.23627,-6.69293,0.06438,-0.00044,0.00914,-1.11649,0.95671,-14.46369,-0.21151,0.13678,-0.04078,243,567742146377,-0.2816,0.0286,-1.6303,0.0512,0.0913,0.0194,-0.184,0.031,-0.951,-0.019,-0.022,0.038,0.518,-0.839,9.754,0.065,-0.014,0.013,-0.003,0.649,1.58,15,16,2,0,-2.4947581,1.9977219,-16.451038,-0.15190671,-0.14823155,-0.046871636,1.1252748,4.2164288,-12.167573,0.24234763,0.054744717,0.09891754,59.3962222,24.660574,23.997,-0.05570119247741109,-0.005681381692111179,-0.37300000021921986,0.109000005,0.026,-0.106000006,-0.758,0.13100001,0.264,-0.020048868,-0.013315687,-0.28087983,0.99945855,-0.028219044,0.016801758,0.002004659,-0.024937961,-0.016899291,-0.53489083,0.0573842,0.070161276,0.023263603,8.291764e-07,5.978866e-07,6.650752e-07,1.2744198e-06,1.8147787e-06,4.9456626e-06,2.7248354e-05,3.125279e-05,2.7425194e-05,2.2764757,-1.3027548,-3.0169172,0.9974891,0.00685936,0.00484931,-0.07032044,0.013482378,-0.07223212,-1.2140101,0.015704768,0.08744549,0.016226249,0.016621921,0.016621524,0.032815043,2.369192e-05,2.3739196e-05,0.00034674455,0.0062531373,0.0062514744,0.0065705753,-0.004268495,-0.00096116133,-0.00012357163,-0.024335,0.04423527,-0.051371135,-0.0021895675,0.002807359,0.0016047998,0.0020511204,-0.0047976933,-0.08273876
567849440,0.60054,0.57133,-8.54893,-0.04427,-0.00697,0.0383,3.45228,4.65466,-37.21852,-0.1625,-0.20518,0.06895,246,567861552516,-0.3032,0.0333,-1.7436,0.0581,0.0826,0.0233,-0.191,0.047,-0.962,-0.019,0.073,0.044,0.519,-0.839,9.754,0.065,-0.014,0.013,-0.003,0.649,1.58,15,16,2,0,-0.5114015,3.9973593,-9.957006,-0.16921726,-0.2876214,0.020293288,1.7180792,0.79942393,-10.8948145,-0.17816348,-0.30488637,0.060959954,59.396222,24.6605742,24.089,-0.07798166948016362,0.005681381700236682,-0.46499999835331085,0.14500001,-0.119,0.083000004,-0.638,0.13100001,0.264,-0.02723118,-0.01907877,-0.3306919,0.99951386,-0.026438354,0.016125498,0.0036092747,-0.04121088,-0.023785993,-0.5054705,-0.10925683,-0.09761215,0.043911107,7.986886e-07,5.954528e-07,6.59206e-07,1.6534653e-06,2.4785338e-06,6.8412605e-06,1.972851e-05,2.6134874e-05,2.9725617e-05,2.2762475,-1.306044,-3.1199994,0.99763316,0.007932311,0.0013621211,-0.0682888,0.022168444,-0.06788336,-1.1964529,-0.08360969,-0.1111473,0.06626989,0.01802584,0.018025324,0.0348347,2.4057532e-05,2.4100766e-05,0.00034590194,0.0067386455,0.006737005,0.006905088,-0.004284818,-0.000977932,-0.0001331965,-0.024379797,0.04435979,-0.05436562,-0.002199731,0.0027927256,0.0015952962,0.0020196019,-0.0047481707,-0.08496877
567949491,-0.16403,-0.41828,-12.27531,0.0753,0.01754,0.00821,0.03289,-0.27593,-14.68818,0.11235,0.30616,0.01995,249,567942312005,-0.3167,0.037,-1.8219,0.0613,0.0881,0.0278,-0.191,0.06,-0.973,0.064,-0.001,0.103,0.52,-0.839,9.753,0.065,-0.014,0.013,-0.003,0.649,1.58,13,16,2,0,-6.2852583,0.9969456,-9.784144,0.26317358,-0.1887116,0.050333746,-5.279454,0.9950302,-10.189004,0.15126409,-0.23771118,0.019844793,59.3962223,24.6605739,24.266,-0.04456095550835226,-0.011362763639209399,-0.6419999986980185,0.26200002,0.224,-0.135,-0.869,0.13100001,0.264,-0.033800438,-0.024351586,-0.37955227,0.9995473,-0.026229383,0.013346446,0.006255693,-0.04357897,-0.02392344,-0.5021055,0.034102112,-0.06892192,0.035430282,6.967979e-07,5.605749e-07,6.0240353e-07,2.1380988e-06,3.1977233e-06,9.53926e-06,1.7530647e-05,2.347098e-05,3.3089764e-05,2.2731285,-1.3046951,-3.216468,0.9978019,0.008481285,-0.0022572349,-0.06568525,0.032685246,-0.06056701,-1.2147412,-0.1284147,-0.1039915,0.02345882,0.017674811,0.01767434,0.034292806,2.3875535e-05,2.3923943e-05,0.00034639332,0.0065761567,0.006574861,0.006821285,-0.004280235,-0.00095306226,-0.00013833752,-0.024066696,0.04427452,-0.055940118,-0.002199731,0.0027927256,0.0015952962,0.0020196019,-0.0047481707,-0.08496877
568050292,-0.15925,0.6099,-14.28478,-0.1283,-0.03773,0.03337,1.01944,3.47457,-7.06024,-0.06982,-0.13274,0.06469,252,568051850692,-0.3379,0.0449,-1.9283,0.0553,0.0798,0.031,-0.196,0.077,-0.994,-0.247,-0.062,0.066,0.52,-0.839,9.753,0.065,-0.014,0.013,-0.003,0.649,1.58,13,16,2,0,-3.7019148,-0.47836152,-19.405005,0.21960427,0.1758219,0.15760587,-3.336799,-0.215957,-16.670347,0.3797024,0.3031677,0.18544456,59.3962221,24.6605739,24.358,-0.06684143404829454,-0.011362764033090379,-0.7339999988233795,0.102000006,-0.096,-0.035,-0.68700004,0.132,0.264,-0.0387017,-0.029652905,-0.42856687,0.999504,-0.028147107,0.011455625,0.008262267,-0.03244007,-0.025787935,-0.49453437,-0.0124947,0.20019771,-0.0081386035,6.3556246e-07,5.3287886e-07,5.5704226e-07,2.7185004e-06,4.1225694e-06,1.2778442e-05,1.701506e-05,2.3203978e-05,3.5821857e-05,2.2779222,-1.3066455,-3.3157067,0.99795264,0.0068205693,-0.00040124462,-0.06359179,0.05185772,-0.056864284,-1.1873688,0.0667911,0.24214667,0.043330103,0.017338028,0.017337598,0.03376677,2.3714942e-05,2.3757148e-05,0.0003468837,0.006436251,0.0064354553,0.006739726,-0.004281288,-0.0009698286,-0.00014415632,-0.024053758,0.044234592,-0.05845456,-0.0021851659,0.0028057126,0.0015847832,0.0022773668,-0.00490248,-0.08751757
568150192,-0.21181,-0.59587,-8.33791,0.03522,0.05868,0.0399,2.72913,3.37424,-22.21103,0.04204,-0.25206,-0.00669,255,568144161361,-0.3537,0.0532,-2.0207,0.0519,0.0863,0.0332,-0.194,0.083,-1.016,0.062,0.044,-0.067,0.521,-0.839,9.753,0.065,-0.014,0.013,-0.003,0.649,1.58,12,13,2,0,-1.628536,0.57939684,-20.074425,0.11009508,-0.21603563,-0.13598101,-2.3087287,0.008619126,-16.49198,0.18068156,-0.034700077,-0.08396233,59.3962221,24.6605739,24.358,-0.06684143404829454,-0.011362764033090379,-0.7339999988233795,0.102000006,-0.096,-0.035,-0.68700004,0.132,0.264,-0.0421889,-0.034579784,-0.47748998,0.9994933,-0.022617048,0.020211034,0.009649409,-0.01959991,-0.033534996,-0.4850821,0.22846615,0.09522444,-0.012169423,8.981485e-07,7.0496077e-07,7.784289e-07,3.4758834e-06,5.372732e-06,1.6775224e-05,1.808515e-05,2.6242951e-05,3.8688828e-05,2.2825677,-1.3092985,-3.4140542,0.9980088,0.012842079,0.0061703287,-0.06144528,0.063755296,-0.048556577,-1.1440992,0.046171136,0.030858498,0.00080988737,0.017003315,0.017002923,0.03333586,2.354802e-05,2.3583802e-05,0.00034605662,0.0062754583,0.0062753307,0.006665643,-0.004281288,-0.0009698286,-0.00014415632,-0.024053758,0.044234592,-0.05845456,-0.0021851659,0.0028057126,0.0015847832,0.0022773668,-0.00490248,-0.08751757
568250073,-1.05283,-1.67637,-13.12928,-0.08648,0.16707,0.00741,-3.45834,-2.40679,14.92082,-0.24133,0.01853,-0.0216,258,568246185151,-0.3708,0.0627,-2.1253,0.0461,0.0941,0.034,-0.199,0.095,-1.046,-0.229,0.08,0.012,0.522,-0.839,9.753,0.065,-0.014,0.013,-0.003,0.649,1.58,12,13,2,0,7.099287,-2.2505496,-6.9589868,-0.2320146,0.107272126,0.035153728,6.027403,-1.9287689,-6.418376,-0.12097397,0.12339211,0.023948316,59.3962222,24.660574,24.507,-0.055701196994739834,-0.0056813819696507435,-0.8829999998205363,0.036000002,-0.004,0.035,-0.845,0.132,0.26500002,-0.045006637,-0.037083574,-0.52444077,0.9993186,-0.02654744,0.023495883,0.010273985,-0.020923503,-0.0061848466,-0.50203705,-0.13741878,-0.04232231,0.050020855,9.643816e-07,7.152839e-07,8.105974e-07,4.3080786e-06,6.7599017e-06,2.1511141e-05,1.8741941e-05,2.74271e-05,4.168007e-05,2.285367,-1.3113228,-3.5151517,0.9981053,0.007832625,0.008882182,-0.06037961,0.051193766,-0.041692287,-1.2312752,0.06435688,-0.045841575,0.03247021,0.018445294,0.018444851,0.035294216,2.3934203e-05,2.3994604e-05,0.00034652476,0.006765487,0.0067659533,0.0069935448,-0.004290366,-0.0009785617,-0.00014364411,-0.024003977,0.04426049,-0.06019767,-0.0021878385,0.002800882,0.0015854911,0.0023182454,-0.0049143136,-0.08863018
568350358,1.45619,1.13191,-8.63076,-0.10047,0.03911,-0.00378,7.76723,7.70762,-41.38356,-0.01549,-0.43848,0.04125,261,568345034353,-0.3865,0.0725,-2.2287,0.0362,0.1061,0.0355,-0.209,0.092,-1.065,-0.059,0.001,0.065,0.522,-0.84,9.753,0.065,-0.014,0.013,-0.004,0.649,1.58,10,18,2,0,1.4235923,4.697424,-29.124027,-0.9377523,0.000479369,0.064661555,4.6227245,6.4061656,-22.53255,-0.6763417,0.0720781,0.04316026,59.3962221,24.6605736,24.57,-0.06684143598283876,-0.02840691045620937,-0.945999999145254,0.165,-0.007,-0.164,-0.546,0.132,0.26500002,-0.049258158,-0.039712474,-0.5787709,0.9993207,-0.023055753,0.027157815,0.00943611,-0.03147535,-0.007629196,-0.63868076,0.048038792,0.07598979,0.0127364285,1.016303e-06,7.5589367e-07,9.0559064e-07,5.239921e-06,8.347953e-06,2.692013e-05,1.9305418e-05,2.89049e-05,4.579913e-05,2.2861638,-1.3105611,-3.6321375,0.9979716,0.01227128,0.013789745,-0.060927644,0.04594073,-0.020726686,-1.5220567,-0.12185869,0.10738257,-0.028867882,0.018022219,0.018021822,0.034782942,2.3748029e-05,2.376751e-05,0.00034569934,0.0066137277,0.0066133514,0.006901033,-0.0042762645,-0.0009811077,-0.00015162352,-0.023723014,0.044051535,-0.06398226,-0.002168924,0.0028009238,0.0015774567,0.0025548795,-0.0051084897,-0.09169935
568450410,0.4094,0.51901,-15.12915,-0.14201,0.03325,0.01753,-0.46517,0.54583,-12.78716,-0.25199,0.23478,0.04871,264,568445055028,-0.4034,0.0801,-2.3365,0.0286,0.1093,0.0405,-0.232,0.079,-1.085,0.016,-0.04,0.082,0.523,-0.84,9.753,0.065,-0.014,0.013,-0.005,0.648,1.581,12,20,2,0,-2.401863,-1.0204087,-3.1081526,-0.22434469,-0.02924151,-0.0056459014,-0.62009823,-0.48626238,-8.678502,-0.57788384,-0.12734908,-0.042081088,59.3962224,24.6605737,24.784,-0.03342071983236635,-0.022725529006768188,-1.1599999991857595,0.20300001,0.201,0.029000001,-1.121,0.132,0.26500002,-0.05869724,-0.04288118,-0.6600891,0.99921894,-0.030224387,0.02315141,0.010583197,-0.05907647,0.01846664,-0.8274086,-0.2905563,-0.17193605,0.12944017,8.784565e-07,6.6273515e-07,7.737079e-07,6.715989e-06,1.0565837e-05,3.3469092e-05,2.4810124e-05,3.5619538e-05,5.136557e-05,2.284236,-1.3127389,-3.7699294,0.9981596,0.0030418616,0.00775598,-0.06006813,0.028864546,-0.02162573,-1.740503,-0.26282507,-0.08794942,0.012294519,0.017672759,0.017672414,0.034243308,2.3646082e-05,2.3655062e-05,0.00034614722,0.006581157,0.0065801633,0.006817885,-0.0042866655,-0.00096234045,-0.00015687481,-0.02331895,0.044093072,-0.06639499,-0.0021740822,0.0028223388,0.0015726336,0.0028784336,-0.0050779395,-0.09328567
568550651,-2.55806,0.83892,-13.22519,0.14614,0.09397,0.06347,-8.05105,-3.19512,21.29733,0.13685,1.27132,0.06682,267,568544091477,-0.4253,0.0857,-2.4459,0.0403,0.1037,0.0456,-0.257,0.068,-1.105,0.298,-0.093,0.065,0.524,-0.84,9.753,0.065,-0.014,0.013,-0.006,0.648,1.581,10,19,2,0,9.077376,-5.5717864,-6.322608,0.5349758,-0.058696073,0.015552861,4.8671727,-5.845204,-8.607155,0.38166088,-0.05325919,-0.06702197,59.3962223,24.6605735,24.932,-0.04456096025451821,-0.034088294208029196,-1.30799999866659,0.10700001,-0.035,-0.101,-1.095,0.132,0.26500002,-0.068131536,-0.047520597,-0.73574394,0.99910915,-0.03468714,0.02085116,0.011954488,-0.07279301,0.0048378436,-0.8398954,0.18702401,0.019580515,0.04082125,7.761522e-07,6.130609e-07,6.804404e-07,8.75085e-06,1.33620215e-05,4.081557e-05,2.8662173e-05,3.8376187e-05,5.504422e-05,2.2874417,-1.3142213,-3.9187427,0.9982405,0.0010090041,0.0071302936,-0.05885745,0.031924795,-0.039241645,-1.721937,0.18600082,0.06086356,0.031959407,0.017337596,0.017337292,0.03381365,2.3407101e-05,2.34167e-05,0.0003453763,0.0065184794,0.006516629,0.006746153,-0.004278518,-0.00096891285,-0.00016075707,-0.023067145,0.043888137,-0.06981446,-0.0021610858,0.0028184024,0.0015686785,0.003085531,-0.0052880645,-0.09588026
568651034,-0.95248,0.45234,-13.7959,0.07703,-0.11296,0.0162,-1.83485,-1.47514,4.17866,0.03245,0.02279,-0.01095,270,568653282436,-0.4552,0.0931,-2.5699,0.0487,0.1028,0.0509,-0.292,0.067,-1.14,0.041,-0.175,0.025,0.525,-0.84,9.753,0.065,-0.014,0.013,-0.006,0.648,1.581,9,19,2,0,11.166557,-4.4924803,8.413704,0.06657903,-0.0030892668,0.1391768,8.853758,4.3720517,10.173681,-0.0127302455,-0.013496324,0.15441501,59.3962223,24.6605735,24.932,-0.04456096025451821,-0.034088294208029196,-1.30799999866659,0.10700001,-0.035,-0.101,-1.095,0.132,0.26500002,-0.078702115,-0.05399719,-0.81703115,0.9991725,-0.030259322,0.024100743,0.012561714,-0.07461867,-0.024673378,-0.8001674,0.12619542,0.03292067,0.024443772,8.520104e-07,6.710241e-07,7.556205e-07,1.130908e-05,1.6737584e-05,4.9107966e-05,3.1737636e-05,4.2308006e-05,5.793246e-05,2.2906408,-1.3182462,-4.0618153,0.9982869,0.0056970064,0.009184266,-0.057501767,0.029388959,-0.047955472,-1.6676701,0.034463108,-0.022328885,0.018563999,0.01700381,0.017003538,0.033291455,2.3215283e-05,2.3223925e-05,0.00034587755,0.00635341,0.006351424,0.006663861,-0.004278518,-0.00096891285,-0.00016075707,-0.023067145,0.043888137,-0.06981446,-0.0021610858,0.0028184024,0.0015686785,0.003085531,-0.0052880645,-0.09588026
568751316,-0.39787,1.56782,-10.17982,0.07797,0.09543,-0.04412,0.73209,3.35513,-14.86491,0.00155,-0.64622,-0.05889,273,568742701788,-0.4803,0.0987,-2.6741,0.0547,0.0988,0.0516,-0.316,0.071,-1.159,0.154,0.037,-0.022,0.525,-0.84,9.753,0.065,-0.014,0.013,-0.006,0.648,1.581,10,20,2,0,10.4741535,0.35194767,1.2047623,-0.18556906,0.32517198,0.16719325,7.655939,3.3557131,3.627455,-0.3172036,-0.06778806,0.112933464,59.3962223,24.6605735,25.115,-0.04456096163615714,-0.03408829545943558,-1.4909999993812963,0.09,0.09,0.0,-1.194,0.132,0.26500002,-0.09037728,-0.059851345,-0.90398365,0.9990944,-0.03319959,0.023226446,0.0129903555,-0.08420503,-0.025729131,-0.797192,-0.035286874,0.11682504,-0.029755345,8.147371e-07,6.4826156e-07,7.02452e-07,1.4186987e-05,2.044543e-05,5.8715294e-05,3.4474593e-05,4.4608507e-05,6.165231e-05,2.2931159,-1.3239126,-4.2010183,0.9983104,0.0006663677,0.009144569,-0.0573796,0.035714544,-0.061733283,-1.6449742,-0.1200691,0.0540475,0.010710199,0.016672844,0.016672598,0.03286122,2.3067014e-05,2.3067189e-05,0.00034635578,0.006176406,0.0061741425,0.0065885647,-0.0042870515,-0.00096359523,-0.00017332185,-0.022781212,0.043883216,-0.07232876,-0.0021641152,0.0028255822,0.0015557357,0.003292956,-0.0053058993,-0.09748543
568851535,-1.07164,0.56834,-7.11047,-0.14268,-0.1079,-0.05544,-0.5849,4.95566,-24.03085,-0.4757,0.2497,0.04125,276,568846405628,-0.5114,0.1067,-2.7965,0.0565,0.0984,0.0506,-0.339,0.078,-1.182,-0.232,-0.041,0.024,0.526,-0.84,9.753,0.065,-0.014,0.013,-0.005,0.648,1.58,7,20,2,0,7.9827476,-0.2336741,9.963231,-0.22855249,-0.06327671,0.023542345,5.934029,0.15610196,5.5543084,-0.14830635,-0.024134839,0.03190222,59.3962222,24.6605733,25.226,-0.05570120265413874,-0.045451061431473073,-1.601999999312146,0.128,-0.015000001,-0.127,-0.95100003,0.132,0.26500002,-0.10035757,-0.06723464,-0.98472136,0.99921393,-0.02950164,0.022947954,0.013213115,-0.093339734,-0.04460099,-0.81905365,0.14744326,-0.15493624,-0.092903495,8.1294826e-07,6.608486e-07,7.353157e-07,1.7408049e-05,2.4640587e-05,6.9754984e-05,3.7692513e-05,4.766998e-05,6.571466e-05,2.2957423,-1.3287392,-4.3420644,0.99919045,0.0055876835,0.0070252777,-0.039217733,0.020314207,-0.06826701,-1.676864,0.004933436,-0.10454359,0.052063115,0.01807722,0.018076869,0.034788627,2.4113988e-05,2.3370778e-05,0.00927802,0.006594135,0.006591232,0.006915484,-0.004280338,-0.0009673451,-0.0001765187,-0.022388471,0.043705642,-0.076195344,-0.0021522676,0.0028239896,0.0015469026,0.0036116538,-0.005504849,-0.10063092
568951562,-0.58901,0.35727,-4.14663,-0.10246,-0.03786,-0.02055,-0.95845,4.54478,-24.36519,-0.38515,-0.20945,0.00823,279,568945177140,-0.54,0.1163,-2.9185,0.0443,0.099,0.049,-0.355,0.088,-1.22,-0.134,0.084,0.035,0.526,-0.84,9.753,0.065,-0.014,0.013,-0.005,0.647,1.58,11,18,2,0,7.4488406,-7.984184,-11.971008,0.38168424,0.07973504,-0.11765846,-5.0163317,-3.1672895,-17.70991,-0.045391884,-0.16291517,-0.04260069,59.3962222,24.6605733,25.392,-0.055701204168613586,-0.04545106256193067,-1.7679999995946205,0.056,-0.029000001,-0.047000002,-1.125,0.132,0.26500002,-0.111220926,-0.07279123,-1.0668889,0.9992982,-0.028366514,0.021156231,0.012281103,-0.09845951,-0.043907676,-0.8334998,-0.0672305,0.17194873,-0.009591589,7.183777e-07,6.156595e-07,7.010609e-07,2.0756159e-05,2.9029792e-05,8.2266575e-05,3.8842405e-05,4.914516e-05,6.993643e-05,2.29634,-1.3372182,-4.477552,0.9991961,0.0065479283,0.007099909,-0.038909327,0.019411815,-0.081240624,-1.6900461,0.10437897,-0.0152831115,-0.016449878,0.017707663,0.017707326,0.03434383,2.400671e-05,2.3855544e-05,0.008410289,0.00611954,0.0061146687,0.0068411427,-0.0042837546,-0.00097347493,-0.00017651175,-0.02205681,0.043573596,-0.07903653,-0.002150541,0.0028200794,0.0015467958,0.0038364613,-0.005589309,-0.10276612
569051793,-0.92381,-0.33217,-6.80354,0.01192,-0.03812,0.00248,-0.31671,3.37424,-26.19456,-0.04851,0.29231,0.0306,282,569044188900,-0.572,0.1271,-3.043,0.0404,0.0897,0.0496,-0.37,0.089,-1.257,-0.088,-0.047,0.03,0.526,-0.84,9.753,0.065,-0.014,0.013,-0.005,0.647,1.58,12,19,2,0,8.958624,0.53678,2.6973076,-0.41619882,0.085540734,-0.03387541,9.919896,-1.8748994,0.13215993,-0.3970291,0.17920934,-0.014582159,59.3962221,24.6605732,25.553,-0.0668414462615916,-0.05113244677766519,-1.9289999991813471,0.031000001,0.018000001,-0.025,-1.1290001,0.132,0.26500002,-0.12144211,-0.0794049,-1.1473967,0.99950814,-0.0205623,0.02126452,0.010417649,-0.1036616,-0.05621118,-0.8554942,0.08453203,-0.080255434,-0.008816769,7.1357994e-07,6.485777e-07,7.856562e-07,2.4576202e-05,3.4085024e-05,9.629543e-05,4.1026113e-05,5.1569223e-05,7.4017196e-05,2.2950225,-1.3449838,-4.6139703,0.999108,0.013943803,0.005836679,-0.039429855,0.013903982,-0.08682564,-1.6863408,0.087827645,-0.08284541,-0.017028667,0.017361458,0.017361118,0.033829592,2.4174487e-05,2.41191e-05,0.007085693,0.005784095,0.005777429,0.0067630894,-0.0042899046,-0.0009755114,-0.0001763765,-0.021716282,0.04330944,-0.082048126,-0.0021524164,0.00282129,0.0015468624,0.004046202,-0.005704964,-0.10510446
569151838,-0.47463,-1.09366,-8.53964,0.02231,-0.03852,0.05548,-1.98331,-1.6758,-17.00474,-0.138,-0.07948,0.02527,285,569143334300,-0.6046,0.1383,-3.1712,0.045,0.0897,0.0518,-0.384,0.086,-1.288,-0.04,0.068,0.076,0.526,-0.839,9.753,0.065,-0.014,0.013,-0.005,0.647,1.581,10,21,2,0,8.43573,-4.5652637,-16.184803,0.14429007,-0.005965481,0.03936152,-4.912423,-1.423353,-23.116976,-0.20327757,-0.12787534,-0.022269603,59.3962221,24.6605732,25.553,-0.0668414462615916,-0.05113244677766519,-1.9289999991813471,0.031000001,0.018000001,-0.025,-1.1290001,0.132,0.26500002,-0.13166939,-0.084318236,-1.2318703,0.9995605,-0.021099402,0.018518865,0.009527074,-0.11005405,-0.039077803,-0.8724725,0.10327363,-0.06464736,-0.038288783,6.382953e-07,6.047388e-07,7.378593e-07,2.8671533e-05,3.9483504e-05,0.000111903384,4.232405e-05,5.232302e-05,7.829746e-05,2.2932503,-1.3515003,-4.7543573,0.99907386,0.01338449,0.0040047453,-0.040698778,0.01881915,-0.08032307,-1.6911016,0.17336725,0.011048977,-0.062469076,0.017009899,0.017009549,0.033305082,2.4257126e-05,2.5287525e-05,0.006568572,0.0055425614,0.0055351476,0.0066794283,-0.0042899046,-0.0009755114,-0.0001763765,-0.021716282,0.04330944,-0.082048126,-0.0021524164,0.00282129,0.0015468624,0.004046202,-0.005704964,-0.10510446
569251974,-1.74571,1.15075,-8.30464,-0.05865,0.10862,0.00568,-1.13564,0.71305,-8.01075,-0.02508,0.97197,0.03273,288,569242676115,-0.6394,0.1508,-3.3013,0.0321,0.0939,0.0554,-0.397,0.078,-1.255,-0.185,-0.04,-0.002,0.526,-0.839,9.753,0.065,-0.014,0.013,-0.005,0.647,1.58,12,19,2,0,-1.6941371,3.8431726,-18.316122,-0.51185954,0.09209211,0.01784318,-2.741361,3.156755,-20.822372,-0.74477595,-0.018945483,0.06785467,59.3962222,24.6605733,25.724,-0.055701206749704635,-0.045451064840147944,-2.0999999998946666,0.048,0.048,0.0,-1.1650001,0.132,0.26500002,-0.14468731,-0.090361014,-1.3258576,0.99964,-0.017407188,0.018298116,0.009064406,-0.114410214,-0.039894756,-0.87726504,0.017375482,-0.022625415,0.00071577035,6.377509e-07,6.321126e-07,7.916933e-07,3.3216562e-05,4.5456727e-05,0.00012912847,4.4294775e-05,5.414759e-05,8.233578e-05,2.291682,-1.3570203,-4.8979855,0.99898386,0.015348859,0.0039246567,-0.042193916,0.017447878,-0.0743995,-1.7086589,-0.13475706,0.005369055,-0.020512076,0.018350976,0.018350406,0.035362463,2.4365769e-05,2.5347246e-05,0.0061224503,0.005894301,0.005890205,0.0070178006,-0.004297601,-0.00097347016,-0.0001760252,-0.021516081,0.04286698,-0.085217535,-0.0021564297,0.0028256334,0.0015471473,0.0041254275,-0.0059246733,-0.10758459
569352474,-0.70878,3.997,-0.43943,0.04255,0.02859,0.01114,-1.50919,3.95234,8.3628,0.10276,0.19111,-0.03865,291,569344870125,-0.6763,0.1596,-3.424,0.0392,0.0876,0.0558,-0.387,0.044,-1.065,0.182,-0.072,0.018,0.526,-0.839,9.753,0.065,-0.014,0.013,-0.005,0.647,1.581,10,9,2,0,-8.268615,-2.3429658,-27.59078,0.41167143,-0.10594055,0.047137953,-7.2637687,-2.7724855,-25.174791,0.5136997,-0.20387045,0.066342495,59.396222,24.6605734,25.901,-0.0779816912621297,-0.03976968304935545,-2.2769999985323968,0.098000005,-0.083000004,0.053000003,-1.2470001,0.132,0.266,-0.15618616,-0.095087714,-1.4124802,0.9996177,-0.021700272,0.014373849,0.0093243355,-0.114235215,-0.023237955,-0.8883104,-0.13590577,-0.13923164,0.014375896,5.6557957e-07,5.639554e-07,6.985184e-07,3.8050726e-05,5.196876e-05,0.00014801334,4.5509856e-05,5.628536e-05,8.618326e-05,2.2915497,-1.3599731,-5.0379124,0.9989589,0.011007755,-0.0007519078,-0.044267166,0.017801156,-0.064770944,-1.708498,-0.05670704,-0.09078597,-0.014542224,0.017919103,0.017918553,0.03476232,2.4488e-05,2.5653368e-05,0.0053898594,0.0057711313,0.0057688537,0.006918696,-0.004307119,-0.0009833862,-0.0001758063,-0.020743504,0.042168945,-0.087702796,-0.0021617776,0.0028183814,0.0015473433,0.004615311,-0.006303085,-0.1093792
