timestamp,voxl_imu0_AX(m/s2),voxl_imu0_AY(m/s2),voxl_imu0_AZ(m/s2),voxl_imu0_GX(rad/s),voxl_imu0_GY(rad/s),voxl_imu0_GZ(rad/s),voxl_imu1_AX(m/s2),voxl_imu1_AY(m/s2),voxl_imu1_AZ(m/s2),voxl_imu1_GX(rad/s),voxl_imu1_GY(rad/s),voxl_imu1_GZ(rad/s),voxl_vo_i,voxl_vo_timestamp(ns),voxl_vo_T_imu_wrt_vio_x(m),voxl_vo_T_imu_wrt_vio_y(m),voxl_vo_T_imu_wrt_vio_z(m),voxl_vo_roll(rad),voxl_vo_pitch(rad),voxl_vo_yaw(rad),voxl_vo_vel_imu_wrt_vio_x(m/s),voxl_vo_vel_imu_wrt_vio_y(m/s),voxl_vo_vel_imu_wrt_vio_z(m/s),voxl_vo_angular_vel_x(rad/s),voxl_vo_angular_vel_y(rad/s),voxl_vo_angular_vel_z(rad/s),voxl_vo_gravity_vector_x(m/s2),voxl_vo_gravity_vector_y(m/s2),voxl_vo_gravity_vector_z(m/s2),voxl_vo_T_cam_wrt_imu_x(m),voxl_vo_T_cam_wrt_imu_y(m),voxl_vo_T_cam_wrt_imu_z(m),voxl_vo_imu_to_cam_roll_x(rad),voxl_vo_imu_to_cam_pitch_y(rad),voxl_vo_imu_to_cam_yaw_z(rad),voxl_vo_features,voxl_vo_quality,voxl_vo_state,voxl_vo_error_code,px4_imu0_AX(m/s2),px4_imu0_AY(m/s2),px4_imu0_AZ(m/s2),px4_imu0_GX(rad/s),px4_imu0_GY(rad/s),px4_imu0_GZ(rad/s),px4_imu1_AX(m/s2),px4_imu1_AY(m/s2),px4_imu1_AZ(m/s2),px4_imu1_GX(rad/s),px4_imu1_GY(rad/s),px4_imu1_GZ(rad/s),px4_gps_lat,px4_gps_lon,px4_gps_alt,px4_gps_north,px4_gps_east,px4_gps_down,px4_gps_vel_m_s,px4_gps_vel_n_m_s,px4_gps_vel_e_m_s,px4_gps_vel_d_m_s,px4_gps_eph,px4_gps_epv,px4_vo_position[0],px4_vo_position[1],px4_vo_position[2],px4_vo_q[0],px4_vo_q[1],px4_vo_q[2],px4_vo_q[3],px4_vo_velocity[0],px4_vo_velocity[1],px4_vo_velocity[2],px4_vo_angular_velocity[0],px4_vo_angular_velocity[1],px4_vo_angular_velocity[2],px4_vo_position_variance[0],px4_vo_position_variance[1],px4_vo_position_variance[2],px4_vo_orientation_variance[0],px4_vo_orientation_variance[1],px4_vo_orientation_variance[2],px4_vo_velocity_variance[0],px4_vo_velocity_variance[1],px4_vo_velocity_variance[2],px4_vehicle_odom_position[0],px4_vehicle_odom_position[1],px4_vehicle_odom_position[2],px4_vehicle_odom_q[0],px4_vehicle_odom_q[1],px4_vehicle_odom_q[2],px4_vehicle_odom_q[3],px4_vehicle_odom_velocity[0],px4_vehicle_odom_velocity[1],px4_vehicle_odom_velocity[2],px4_vehicle_odom_angular_velocity[0],px4_vehicle_odom_angular_velocity[1],px4_vehicle_odom_angular_velocity[2],px4_vehicle_odom_position_variance[0],px4_vehicle_odom_position_variance[1],px4_vehicle_odom_position_variance[2],px4_vehicle_odom_orientation_variance[0],px4_vehicle_odom_orientation_variance[1],px4_vehicle_odom_orientation_variance[2],px4_vehicle_odom_velocity_variance[0],px4_vehicle_odom_velocity_variance[1],px4_vehicle_odom_velocity_variance[2],px4_imu0_bias_gyro_bias[0],px4_imu0_bias_gyro_bias[1],px4_imu0_bias_gyro_bias[2],px4_imu0_bias_accel_bias[0],px4_imu0_bias_accel_bias[1],px4_imu0_bias_accel_bias[2],px4_imu1_bias_gyro_bias[0],px4_imu1_bias_gyro_bias[1],px4_imu1_bias_gyro_bias[2],px4_imu1_bias_accel_bias[0],px4_imu1_bias_accel_bias[1],px4_imu1_bias_accel_bias[2],px4_actuator_motors_control[0],px4_actuator_motors_control[1],px4_actuator_motors_control[2],px4_actuator_motors_control[3],px4_actuator_outputs_output[0],px4_actuator_outputs_output[1],px4_actuator_outputs_output[2],px4_actuator_outputs_output[3]
591934608.997,-0.15447,0.04573,-9.68585,-0.00259,-0.00244,0.00328,-0.26403,0.11584,-9.7828,0.00155,-0.00065,0.0029,2,591947243467,0.0003,0.0001,0.0003,-0.0007,-0.0016,-0.0002,0.002,0.0,0.006,-0.0,-0.0,-0.0,0.552,-0.444,9.771,0.065,-0.014,0.013,0.0,0.65,1.571,28,100,2,0,0.7192182,0.24612394,-10.273998,0.013741911,-0.015552861,0.034621093,0.48961425,0.170946,-10.35588,0.0042633996,-0.0053958655,0.020217841,59.3948197,24.6601313,26.626,0.0,0.0,0.0,0.093,-0.042000003,-0.083000004,0.063,0.80300003,1.485,-0.00010575381,0.0004612738,-0.10002646,0.99932534,-0.023998154,-0.027802253,-0.0001281083,0.00032230737,-0.00010696108,0.0020591323,-0.00023301863,0.0023894212,-0.00024831254,1.2899929e-07,1.5494152e-07,1.0288412e-07,1.1621439e-08,8.22888e-09,2.1800403e-08,4.4782914e-06,3.9803995e-06,4.2603e-06,0.11254834,0.16950205,-3.4884868,0.5712344,-8.629827e-05,0.0027440684,-0.82078236,0.00085751823,-0.0023977114,-0.14363585,0.029852754,-0.015682353,0.048015974,0.02995878,0.029958762,0.067575656,2.4854398e-05,2.484957e-05,0.00035515882,0.007022877,0.0070228428,0.008254863,-0.008635172,-0.002524877,0.0018492317,0.0009738726,0.06209306,-0.34573194,-0.003380746,0.0004799465,0.004875554,0.021643372,-0.013684872,-0.36758336,0.0021366146,5.258889e-11,0.002136615,0.0,123.0,109.0,123.0,109.0
592034590.997,-0.15447,0.08879,-9.76258,-0.001,0.00062,0.00288,-0.25924,-0.00838,-9.49621,0.00262,-0.00278,-0.00349,5,592046232646,0.0003,0.0001,0.0003,-0.0007,-0.0016,-0.0002,0.001,0.0,0.006,0.001,0.001,0.001,0.553,-0.445,9.771,0.065,-0.014,0.013,0.0,0.65,1.571,28,100,2,0,0.7192182,0.24612394,-10.273998,0.013741911,-0.015552861,0.034621093,0.48961425,0.170946,-10.35588,0.0042633996,-0.0053958655,0.020217841,59.3948197,24.6601313,26.626,0.0,0.0,0.0,0.093,-0.042000003,-0.083000004,0.063,0.80300003,1.485,-0.00010575381,0.0004612738,-0.10002646,0.99932534,-0.023998154,-0.027802253,-0.0001281083,0.00032230737,-0.00010696108,0.0020591323,-0.00023301863,0.0023894212,-0.00024831254,1.2899929e-07,1.5494152e-07,1.0288412e-07,1.1621439e-08,8.22888e-09,2.1800403e-08,4.4782914e-06,3.9803995e-06,4.2603e-06,0.11254834,0.16950205,-3.4884868,0.5712344,-8.629827e-05,0.0027440684,-0.82078236,0.00085751823,-0.0023977114,-0.14363585,0.029852754,-0.015682353,0.048015974,0.02995878,0.029958762,0.067575656,2.4854398e-05,2.484957e-05,0.00035515882,0.007022877,0.0070228428,0.008254863,-0.008635172,-0.002524877,0.0018492317,0.0009738726,0.06209306,-0.34573194,-0.003380746,0.0004799465,0.004875554,0.021643372,-0.013684872,-0.36758336,0.0021366146,5.258889e-11,0.002136615,0.0,123.0,109.0,123.0,109.0
592134574.997,-0.15447,0.08879,-9.76258,-0.001,0.00062,0.00288,-0.25924,-0.00838,-9.49621,0.00262,-0.00278,-0.00349,7,592115640324,0.0003,0.0001,0.0004,-0.0007,-0.0015,-0.0002,0.001,0.0,0.006,0.001,0.002,0.001,0.554,-0.446,9.77,0.065,-0.014,0.013,0.0,0.65,1.571,28,100,2,0,0.7192182,0.24612394,-10.273998,0.013741911,-0.015552861,0.034621093,0.48961425,0.170946,-10.35588,0.0042633996,-0.0053958655,0.020217841,59.3948197,24.6601313,26.626,0.0,0.0,0.0,0.093,-0.042000003,-0.083000004,0.063,0.80300003,1.485,-0.00010575381,0.0004612738,-0.10002646,0.99932534,-0.023998154,-0.027802253,-0.0001281083,0.00032230737,-0.00010696108,0.0020591323,-0.00023301863,0.0023894212,-0.00024831254,1.2899929e-07,1.5494152e-07,1.0288412e-07,1.1621439e-08,8.22888e-09,2.1800403e-08,4.4782914e-06,3.9803995e-06,4.2603e-06,0.11254834,0.16950205,-3.4884868,0.5712344,-8.629827e-05,0.0027440684,-0.82078236,0.00085751823,-0.0023977114,-0.14363585,0.029852754,-0.015682353,0.048015974,0.02995878,0.029958762,0.067575656,2.4854398e-05,2.484957e-05,0.00035515882,0.007022877,0.0070228428,0.008254863,-0.008635172,-0.002524877,0.0018492317,0.0009738726,0.06209306,-0.34573194,-0.003380746,0.0004799465,0.004875554,0.021643372,-0.013684872,-0.36758336,0.0021366146,5.258889e-11,0.002136615,0.0,123.0,109.0,123.0,109.0
592234558.997,-0.15447,0.08879,-9.76258,-0.001,0.00062,0.00288,-0.25924,-0.00838,-9.49621,0.00262,-0.00278,-0.00349,10,592222156020,0.0004,0.0001,0.0004,-0.0008,-0.0016,-0.0002,0.001,-0.0,0.006,0.0,0.002,0.0,0.554,-0.446,9.77,0.065,-0.014,0.013,0.0,0.65,1.571,28,100,2,0,0.7192182,0.24612394,-10.273998,0.013741911,-0.015552861,0.034621093,0.48961425,0.170946,-10.35588,0.0042633996,-0.0053958655,0.020217841,59.3948197,24.6601313,26.626,0.0,0.0,0.0,0.093,-0.042000003,-0.083000004,0.063,0.80300003,1.485,-0.00010575381,0.0004612738,-0.10002646,0.99932534,-0.023998154,-0.027802253,-0.0001281083,0.00032230737,-0.00010696108,0.0020591323,-0.00023301863,0.0023894212,-0.00024831254,1.2899929e-07,1.5494152e-07,1.0288412e-07,1.1621439e-08,8.22888e-09,2.1800403e-08,4.4782914e-06,3.9803995e-06,4.2603e-06,0.11254834,0.16950205,-3.4884868,0.5712344,-8.629827e-05,0.0027440684,-0.82078236,0.00085751823,-0.0023977114,-0.14363585,0.029852754,-0.015682353,0.048015974,0.02995878,0.029958762,0.067575656,2.4854398e-05,2.484957e-05,0.00035515882,0.007022877,0.0070228428,0.008254863,-0.008635172,-0.002524877,0.0018492317,0.0009738726,0.06209306,-0.34573194,-0.003380746,0.0004799465,0.004875554,0.021643372,-0.013684872,-0.36758336,0.0021366146,5.258889e-11,0.002136615,0.0,123.0,109.0,123.0,109.0
592334545.997,-0.15447,0.08879,-9.76258,-0.001,0.00062,0.00288,-0.25924,-0.00838,-9.49621,0.00262,-0.00278,-0.00349,13,592320151458,0.0004,0.0001,0.0003,-0.0008,-0.0016,-0.0002,0.001,0.0,0.005,0.003,0.0,0.0,0.555,-0.447,9.77,0.065,-0.014,0.013,0.0,0.65,1.571,28,100,2,0,0.7192182,0.24612394,-10.273998,0.013741911,-0.015552861,0.034621093,0.48961425,0.170946,-10.35588,0.0042633996,-0.0053958655,0.020217841,59.3948197,24.6601313,26.626,0.0,0.0,0.0,0.093,-0.042000003,-0.083000004,0.063,0.80300003,1.485,-0.00010575381,0.0004612738,-0.10002646,0.99932534,-0.023998154,-0.027802253,-0.0001281083,0.00032230737,-0.00010696108,0.0020591323,-0.00023301863,0.0023894212,-0.00024831254,1.2899929e-07,1.5494152e-07,1.0288412e-07,1.1621439e-08,8.22888e-09,2.1800403e-08,4.4782914e-06,3.9803995e-06,4.2603e-06,0.11254834,0.16950205,-3.4884868,0.5712344,-8.629827e-05,0.0027440684,-0.82078236,0.00085751823,-0.0023977114,-0.14363585,0.029852754,-0.015682353,0.048015974,0.02995878,0.029958762,0.067575656,2.4854398e-05,2.484957e-05,0.00035515882,0.007022877,0.0070228428,0.008254863,-0.008635172,-0.002524877,0.0018492317,0.0009738726,0.06209306,-0.34573194,-0.003380746,0.0004799465,0.004875554,0.021643372,-0.013684872,-0.36758336,0.0021366146,5.258889e-11,0.002136615,0.0,123.0,109.0,123.0,109.0
592434527.997,-0.15447,0.08879,-9.76258,-0.001,0.00062,0.00288,-0.25924,-0.00838,-9.49621,0.00262,-0.00278,-0.00349,17,592448093170,0.0003,0.0001,0.0003,-0.0008,-0.0016,-0.0002,0.001,-0.0,0.004,0.0,-0.001,-0.0,0.556,-0.447,9.77,0.065,-0.014,0.013,0.0,0.65,1.571,28,100,2,0,0.7192182,0.24612394,-10.273998,0.013741911,-0.015552861,0.034621093,0.48961425,0.170946,-10.35588,0.0042633996,-0.0053958655,0.020217841,59.3948197,24.6601313,26.626,0.0,0.0,0.0,0.093,-0.042000003,-0.083000004,0.063,0.80300003,1.485,-0.00010575381,0.0004612738,-0.10002646,0.99932534,-0.023998154,-0.027802253,-0.0001281083,0.00032230737,-0.00010696108,0.0020591323,-0.00023301863,0.0023894212,-0.00024831254,1.2899929e-07,1.5494152e-07,1.0288412e-07,1.1621439e-08,8.22888e-09,2.1800403e-08,4.4782914e-06,3.9803995e-06,4.2603e-06,0.11254834,0.16950205,-3.4884868,0.5712344,-8.629827e-05,0.0027440684,-0.82078236,0.00085751823,-0.0023977114,-0.14363585,0.029852754,-0.015682353,0.048015974,0.02995878,0.029958762,0.067575656,2.4854398e-05,2.484957e-05,0.00035515882,0.007022877,0.0070228428,0.008254863,-0.008635172,-0.002524877,0.0018492317,0.0009738726,0.06209306,-0.34573194,-0.003380746,0.0004799465,0.004875554,0.021643372,-0.013684872,-0.36758336,0.0021366146,5.258889e-11,0.002136615,0.0,123.0,109.0,123.0,109.0
592534508.997,-0.15447,0.08879,-9.76258,-0.001,0.00062,0.00288,-0.25924,-0.00838,-9.49621,0.00262,-0.00278,-0.00349,20,592546759783,0.0003,0.0001,0.0003,-0.0008,-0.0016,-0.0002,0.001,0.0,0.004,-0.001,0.001,-0.001,0.556,-0.447,9.77,0.065,-0.014,0.013,0.0,0.65,1.571,28,100,2,0,0.7192182,0.24612394,-10.273998,0.013741911,-0.015552861,0.034621093,0.48961425,0.170946,-10.35588,0.0042633996,-0.0053958655,0.020217841,59.3948197,24.6601313,26.626,0.0,0.0,0.0,0.093,-0.042000003,-0.083000004,0.063,0.80300003,1.485,-0.00010575381,0.0004612738,-0.10002646,0.99932534,-0.023998154,-0.027802253,-0.0001281083,0.00032230737,-0.00010696108,0.0020591323,-0.00023301863,0.0023894212,-0.00024831254,1.2899929e-07,1.5494152e-07,1.0288412e-07,1.1621439e-08,8.22888e-09,2.1800403e-08,4.4782914e-06,3.9803995e-06,4.2603e-06,0.11254834,0.16950205,-3.4884868,0.5712344,-8.629827e-05,0.0027440684,-0.82078236,0.00085751823,-0.0023977114,-0.14363585,0.029852754,-0.015682353,0.048015974,0.02995878,0.029958762,0.067575656,2.4854398e-05,2.484957e-05,0.00035515882,0.007022877,0.0070228428,0.008254863,-0.008635172,-0.002524877,0.0018492317,0.0009738726,0.06209306,-0.34573194,-0.003380746,0.0004799465,0.004875554,0.021643372,-0.013684872,-0.36758336,0.0021366146,5.258889e-11,0.002136615,0.0,123.0,109.0,123.0,109.0
592634493.997,-0.15447,0.08879,-9.76258,-0.001,0.00062,0.00288,-0.25924,-0.00838,-9.49621,0.00262,-0.00278,-0.00349,22,592615946627,0.0003,0.0001,0.0003,-0.0008,-0.0016,-0.0002,0.001,0.0,0.004,0.002,0.003,0.0,0.557,-0.447,9.77,0.065,-0.014,0.013,0.0,0.65,1.571,28,100,2,0,0.7192182,0.24612394,-10.273998,0.013741911,-0.015552861,0.034621093,0.48961425,0.170946,-10.35588,0.0042633996,-0.0053958655,0.020217841,59.3948197,24.6601313,26.626,0.0,0.0,0.0,0.093,-0.042000003,-0.083000004,0.063,0.80300003,1.485,-0.00010575381,0.0004612738,-0.10002646,0.99932534,-0.023998154,-0.027802253,-0.0001281083,0.00032230737,-0.00010696108,0.0020591323,-0.00023301863,0.0023894212,-0.00024831254,1.2899929e-07,1.5494152e-07,1.0288412e-07,1.1621439e-08,8.22888e-09,2.1800403e-08,4.4782914e-06,3.9803995e-06,4.2603e-06,0.11254834,0.16950205,-3.4884868,0.5712344,-8.629827e-05,0.0027440684,-0.82078236,0.00085751823,-0.0023977114,-0.14363585,0.029852754,-0.015682353,0.048015974,0.02995878,0.029958762,0.067575656,2.4854398e-05,2.484957e-05,0.00035515882,0.007022877,0.0070228428,0.008254863,-0.008635172,-0.002524877,0.0018492317,0.0009738726,0.06209306,-0.34573194,-0.003380746,0.0004799465,0.004875554,0.021643372,-0.013684872,-0.36758336,0.0021366146,5.258889e-11,0.002136615,0.0,123.0,109.0,123.0,109.0
592734482.997,-0.15447,0.08879,-9.76258,-0.001,0.00062,0.00288,-0.25924,-0.00838,-9.49621,0.00262,-0.00278,-0.00349,26,592748642267,0.0003,0.0001,0.0003,-0.0008,-0.0016,-0.0002,0.001,0.0,0.003,0.0,0.001,0.001,0.557,-0.446,9.77,0.065,-0.014,0.013,0.0,0.65,1.571,28,100,2,0,0.7192182,0.24612394,-10.273998,0.013741911,-0.015552861,0.034621093,0.48961425,0.170946,-10.35588,0.0042633996,-0.0053958655,0.020217841,59.3948197,24.6601313,26.626,0.0,0.0,0.0,0.093,-0.042000003,-0.083000004,0.063,0.80300003,1.485,-0.00010575381,0.0004612738,-0.10002646,0.99932534,-0.023998154,-0.027802253,-0.0001281083,0.00032230737,-0.00010696108,0.0020591323,-0.00023301863,0.0023894212,-0.00024831254,1.2899929e-07,1.5494152e-07,1.0288412e-07,1.1621439e-08,8.22888e-09,2.1800403e-08,4.4782914e-06,3.9803995e-06,4.2603e-06,0.11254834,0.16950205,-3.4884868,0.5712344,-8.629827e-05,0.0027440684,-0.82078236,0.00085751823,-0.0023977114,-0.14363585,0.029852754,-0.015682353,0.048015974,0.02995878,0.029958762,0.067575656,2.4854398e-05,2.484957e-05,0.00035515882,0.007022877,0.0070228428,0.008254863,-0.008635172,-0.002524877,0.0018492317,0.0009738726,0.06209306,-0.34573194,-0.003380746,0.0004799465,0.004875554,0.021643372,-0.013684872,-0.36758336,0.0021366146,5.258889e-11,0.002136615,0.0,123.0,109.0,123.0,109.0
592834458.997,-0.15447,0.08879,-9.76258,-0.001,0.00062,0.00288,-0.25924,-0.00838,-9.49621,0.00262,-0.00278,-0.00349,29,592849279130,0.0003,0.0001,0.0003,-0.0008,-0.0016,-0.0002,0.001,0.0,0.003,-0.001,-0.001,-0.0,0.558,-0.445,9.77,0.065,-0.014,0.013,0.0,0.65,1.571,28,100,2,0,0.7192182,0.24612394,-10.273998,0.013741911,-0.015552861,0.034621093,0.48961425,0.170946,-10.35588,0.0042633996,-0.0053958655,0.020217841,59.3948197,24.6601313,26.626,0.0,0.0,0.0,0.093,-0.042000003,-0.083000004,0.063,0.80300003,1.485,-0.00010575381,0.0004612738,-0.10002646,0.99932534,-0.023998154,-0.027802253,-0.0001281083,0.00032230737,-0.00010696108,0.0020591323,-0.00023301863,0.0023894212,-0.00024831254,1.2899929e-07,1.5494152e-07,1.0288412e-07,1.1621439e-08,8.22888e-09,2.1800403e-08,4.4782914e-06,3.9803995e-06,4.2603e-06,0.11254834,0.16950205,-3.4884868,0.5712344,-8.629827e-05,0.0027440684,-0.82078236,0.00085751823,-0.0023977114,-0.14363585,0.029852754,-0.015682353,0.048015974,0.02995878,0.029958762,0.067575656,2.4854398e-05,2.484957e-05,0.00035515882,0.007022877,0.0070228428,0.008254863,-0.008635172,-0.002524877,0.0018492317,0.0009738726,0.06209306,-0.34573194,-0.003380746,0.0004799465,0.004875554,0.021643372,-0.013684872,-0.36758336,0.0021366146,5.258889e-11,0.002136615,0.0,123.0,109.0,123.0,109.0
592934448.997,-0.15447,0.08879,-9.76258,-0.001,0.00062,0.00288,-0.25924,-0.00838,-9.49621,0.00262,-0.00278,-0.00349,32,592947798972,0.0003,0.0001,0.0003,-0.0008,-0.0016,-0.0002,0.001,0.0,0.003,0.001,0.003,0.0,0.558,-0.444,9.77,0.065,-0.014,0.013,0.0,0.65,1.571,28,100,2,0,0.7192182,0.24612394,-10.273998,0.013741911,-0.015552861,0.034621093,0.48961425,0.170946,-10.35588,0.0042633996,-0.0053958655,0.020217841,59.3948197,24.6601313,26.626,0.0,0.0,0.0,0.093,-0.042000003,-0.083000004,0.063,0.80300003,1.485,-0.00010575381,0.0004612738,-0.10002646,0.99932534,-0.023998154,-0.027802253,-0.0001281083,0.00032230737,-0.00010696108,0.0020591323,-0.00023301863,0.0023894212,-0.00024831254,1.2899929e-07,1.5494152e-07,1.0288412e-07,1.1621439e-08,8.22888e-09,2.1800403e-08,4.4782914e-06,3.9803995e-06,4.2603e-06,0.11254834,0.16950205,-3.4884868,0.5712344,-8.629827e-05,0.0027440684,-0.82078236,0.00085751823,-0.0023977114,-0.14363585,0.029852754,-0.015682353,0.048015974,0.02995878,0.029958762,0.067575656,2.4854398e-05,2.484957e-05,0.00035515882,0.007022877,0.0070228428,0.008254863,-0.008635172,-0.002524877,0.0018492317,0.0009738726,0.06209306,-0.34573194,-0.003380746,0.0004799465,0.004875554,0.021643372,-0.013684872,-0.36758336,0.0021366146,5.258889e-11,0.002136615,0.0,123.0,109.0,123.0,109.0
593034447.997,-0.15447,0.08879,-9.76258,-0.001,0.00062,0.00288,-0.25924,-0.00838,-9.49621,0.00262,-0.00278,-0.00349,35,593047554304,0.0003,0.0001,0.0003,-0.0008,-0.0016,-0.0002,0.001,0.0,0.002,-0.001,-0.002,0.0,0.559,-0.444,9.77,0.065,-0.014,0.013,0.0,0.65,1.571,28,100,2,0,0.7192182,0.24612394,-10.273998,0.013741911,-0.015552861,0.034621093,0.48961425,0.170946,-10.35588,0.0042633996,-0.0053958655,0.020217841,59.3948197,24.6601313,26.626,0.0,0.0,0.0,0.093,-0.042000003,-0.083000004,0.063,0.80300003,1.485,-0.00010575381,0.0004612738,-0.10002646,0.99932534,-0.023998154,-0.027802253,-0.0001281083,0.00032230737,-0.00010696108,0.0020591323,-0.00023301863,0.0023894212,-0.00024831254,1.2899929e-07,1.5494152e-07,1.0288412e-07,1.1621439e-08,8.22888e-09,2.1800403e-08,4.4782914e-06,3.9803995e-06,4.2603e-06,0.11254834,0.16950205,-3.4884868,0.5712344,-8.629827e-05,0.0027440684,-0.82078236,0.00085751823,-0.0023977114,-0.14363585,0.029852754,-0.015682353,0.048015974,0.02995878,0.029958762,0.067575656,2.4854398e-05,2.484957e-05,0.00035515882,0.007022877,0.0070228428,0.008254863,-0.008635172,-0.002524877,0.0018492317,0.0009738726,0.06209306,-0.34573194,-0.003380746,0.0004799465,0.004875554,0.021643372,-0.013684872,-0.36758336,0.0021366146,5.258889e-11,0.002136615,0.0,123.0,109.0,123.0,109.0
593134409.997,-0.15447,0.08879,-9.76258,-0.001,0.00062,0.00288,-0.25924,-0.00838,-9.49621,0.00262,-0.00278,-0.00349,38,593146285565,0.0003,0.0001,0.0003,-0.0008,-0.0016,-0.0002,0.001,0.0,0.002,-0.0,-0.001,-0.0,0.559,-0.443,9.77,0.065,-0.014,0.013,0.0,0.65,1.571,28,100,2,0,0.7192182,0.24612394,-10.273998,0.013741911,-0.015552861,0.034621093,0.48961425,0.170946,-10.35588,0.0042633996,-0.0053958655,0.020217841,59.3948197,24.6601313,26.626,0.0,0.0,0.0,0.093,-0.042000003,-0.083000004,0.063,0.80300003,1.485,-0.00010575381,0.0004612738,-0.10002646,0.99932534,-0.023998154,-0.027802253,-0.0001281083,0.00032230737,-0.00010696108,0.0020591323,-0.00023301863,0.0023894212,-0.00024831254,1.2899929e-07,1.5494152e-07,1.0288412e-07,1.1621439e-08,8.22888e-09,2.1800403e-08,4.4782914e-06,3.9803995e-06,4.2603e-06,0.11254834,0.16950205,-3.4884868,0.5712344,-8.629827e-05,0.0027440684,-0.82078236,0.00085751823,-0.0023977114,-0.14363585,0.029852754,-0.015682353,0.048015974,0.02995878,0.029958762,0.067575656,2.4854398e-05,2.484957e-05,0.00035515882,0.007022877,0.0070228428,0.008254863,-0.008635172,-0.002524877,0.0018492317,0.0009738726,0.06209306,-0.34573194,-0.003380746,0.0004799465,0.004875554,0.021643372,-0.013684872,-0.36758336,0.0021366146,5.258889e-11,0.002136615,0.0,123.0,109.0,123.0,109.0
593234392.997,-0.15447,0.08879,-9.76258,-0.001,0.00062,0.00288,-0.25924,-0.00838,-9.49621,0.00262,-0.00278,-0.00349,40,593215638942,0.0003,0.0001,0.0003,-0.0008,-0.0015,-0.0002,0.001,0.0,0.003,-0.001,-0.002,-0.0,0.559,-0.442,9.77,0.065,-0.014,0.013,0.0,0.65,1.571,28,100,2,0,0.7192182,0.24612394,-10.273998,0.013741911,-0.015552861,0.034621093,0.48961425,0.170946,-10.35588,0.0042633996,-0.0053958655,0.020217841,59.3948197,24.6601313,26.626,0.0,0.0,0.0,0.093,-0.042000003,-0.083000004,0.063,0.80300003,1.485,-0.00010575381,0.0004612738,-0.10002646,0.99932534,-0.023998154,-0.027802253,-0.0001281083,0.00032230737,-0.00010696108,0.0020591323,-0.00023301863,0.0023894212,-0.00024831254,1.2899929e-07,1.5494152e-07,1.0288412e-07,1.1621439e-08,8.22888e-09,2.1800403e-08,4.4782914e-06,3.9803995e-06,4.2603e-06,0.11254834,0.16950205,-3.4884868,0.5712344,-8.629827e-05,0.0027440684,-0.82078236,0.00085751823,-0.0023977114,-0.14363585,0.029852754,-0.015682353,0.048015974,0.02995878,0.029958762,0.067575656,2.4854398e-05,2.484957e-05,0.00035515882,0.007022877,0.0070228428,0.008254863,-0.008635172,-0.002524877,0.0018492317,0.0009738726,0.06209306,-0.34573194,-0.003380746,0.0004799465,0.004875554,0.021643372,-0.013684872,-0.36758336,0.0021366146,5.258889e-11,0.002136615,0.0,123.0,109.0,123.0,109.0
593334384.997,-0.15447,0.08879,-9.76258,-0.001,0.00062,0.00288,-0.25924,-0.00838,-9.49621,0.00262,-0.00278,-0.00349,43,593322216004,0.0003,0.0001,0.0003,-0.0007,-0.0015,-0.0002,0.001,0.0,0.002,0.002,0.005,-0.0,0.559,-0.441,9.77,0.065,-0.014,0.013,0.0,0.65,1.571,28,100,2,0,0.7192182,0.24612394,-10.273998,0.013741911,-0.015552861,0.034621093,0.48961425,0.170946,-10.35588,0.0042633996,-0.0053958655,0.020217841,59.3948197,24.6601313,26.626,0.0,0.0,0.0,0.093,-0.042000003,-0.083000004,0.063,0.80300003,1.485,-0.00010575381,0.0004612738,-0.10002646,0.99932534,-0.023998154,-0.027802253,-0.0001281083,0.00032230737,-0.00010696108,0.0020591323,-0.00023301863,0.0023894212,-0.00024831254,1.2899929e-07,1.5494152e-07,1.0288412e-07,1.1621439e-08,8.22888e-09,2.1800403e-08,4.4782914e-06,3.9803995e-06,4.2603e-06,0.11254834,0.16950205,-3.4884868,0.5712344,-8.629827e-05,0.0027440684,-0.82078236,0.00085751823,-0.0023977114,-0.14363585,0.029852754,-0.015682353,0.048015974,0.02995878,0.029958762,0.067575656,2.4854398e-05,2.484957e-05,0.00035515882,0.007022877,0.0070228428,0.008254863,-0.008635172,-0.002524877,0.0018492317,0.0009738726,0.06209306,-0.34573194,-0.003380746,0.0004799465,0.004875554,0.021643372,-0.013684872,-0.36758336,0.0021366146,5.258889e-11,0.002136615,0.0,123.0,109.0,123.0,109.0
593434374.997,-0.15447,0.08879,-9.76258,-0.001,0.00062,0.00288,-0.25924,-0.00838,-9.49621,0.00262,-0.00278,-0.00349,46,593420753225,0.0003,0.0001,0.0003,-0.0007,-0.0015,-0.0002,0.001,0.0,0.002,0.001,-0.001,-0.0,0.56,-0.441,9.77,0.065,-0.014,0.013,0.0,0.65,1.571,28,100,2,0,0.7192182,0.24612394,-10.273998,0.013741911,-0.015552861,0.034621093,0.48961425,0.170946,-10.35588,0.0042633996,-0.0053958655,0.020217841,59.3948197,24.6601313,26.626,0.0,0.0,0.0,0.093,-0.042000003,-0.083000004,0.063,0.80300003,1.485,-0.00010575381,0.0004612738,-0.10002646,0.99932534,-0.023998154,-0.027802253,-0.0001281083,0.00032230737,-0.00010696108,0.0020591323,-0.00023301863,0.0023894212,-0.00024831254,1.2899929e-07,1.5494152e-07,1.0288412e-07,1.1621439e-08,8.22888e-09,2.1800403e-08,4.4782914e-06,3.9803995e-06,4.2603e-06,0.11254834,0.16950205,-3.4884868,0.5712344,-8.629827e-05,0.0027440684,-0.82078236,0.00085751823,-0.0023977114,-0.14363585,0.029852754,-0.015682353,0.048015974,0.02995878,0.029958762,0.067575656,2.4854398e-05,2.484957e-05,0.00035515882,0.007022877,0.0070228428,0.008254863,-0.008635172,-0.002524877,0.0018492317,0.0009738726,0.06209306,-0.34573194,-0.003380746,0.0004799465,0.004875554,0.021643372,-0.013684872,-0.36758336,0.0021366146,5.258889e-11,0.002136615,0.0,123.0,109.0,123.0,109.0
593534343.997,-0.15447,0.08879,-9.76258,-0.001,0.00062,0.00288,-0.25924,-0.00838,-9.49621,0.00262,-0.00278,-0.00349,50,593548975669,0.0003,0.0001,0.0003,-0.0007,-0.0015,-0.0002,0.0,0.0,0.002,0.002,0.001,0.001,0.56,-0.44,9.77,0.065,-0.014,0.013,0.0,0.65,1.571,28,100,2,0,0.7192182,0.24612394,-10.273998,0.013741911,-0.015552861,0.034621093,0.48961425,0.170946,-10.35588,0.0042633996,-0.0053958655,0.020217841,59.3948197,24.6601313,26.626,0.0,0.0,0.0,0.093,-0.042000003,-0.083000004,0.063,0.80300003,1.485,-0.00010575381,0.0004612738,-0.10002646,0.99932534,-0.023998154,-0.027802253,-0.0001281083,0.00032230737,-0.00010696108,0.0020591323,-0.00023301863,0.0023894212,-0.00024831254,1.2899929e-07,1.5494152e-07,1.0288412e-07,1.1621439e-08,8.22888e-09,2.1800403e-08,4.4782914e-06,3.9803995e-06,4.2603e-06,0.11254834,0.16950205,-3.4884868,0.5712344,-8.629827e-05,0.0027440684,-0.82078236,0.00085751823,-0.0023977114,-0.14363585,0.029852754,-0.015682353,0.048015974,0.02995878,0.029958762,0.067575656,2.4854398e-05,2.484957e-05,0.00035515882,0.007022877,0.0070228428,0.008254863,-0.008635172,-0.002524877,0.0018492317,0.0009738726,0.06209306,-0.34573194,-0.003380746,0.0004799465,0.004875554,0.021643372,-0.013684872,-0.36758336,0.0021366146,5.258889e-11,0.002136615,0.0,123.0,109.0,123.0,109.0
593634321.997,-0.15447,0.08879,-9.76258,-0.001,0.00062,0.00288,-0.25924,-0.00838,-9.49621,0.00262,-0.00278,-0.00349,53,593647699295,0.0003,0.0001,0.0003,-0.0008,-0.0015,-0.0002,0.001,-0.0,0.002,0.001,0.001,0.001,0.56,-0.439,9.77,0.065,-0.014,0.013,0.0,0.65,1.571,28,100,2,0,0.7192182,0.24612394,-10.273998,0.013741911,-0.015552861,0.034621093,0.48961425,0.170946,-10.35588,0.0042633996,-0.0053958655,0.020217841,59.3948197,24.6601313,26.626,0.0,0.0,0.0,0.093,-0.042000003,-0.083000004,0.063,0.80300003,1.485,-0.00010575381,0.0004612738,-0.10002646,0.99932534,-0.023998154,-0.027802253,-0.0001281083,0.00032230737,-0.00010696108,0.0020591323,-0.00023301863,0.0023894212,-0.00024831254,1.2899929e-07,1.5494152e-07,1.0288412e-07,1.1621439e-08,8.22888e-09,2.1800403e-08,4.4782914e-06,3.9803995e-06,4.2603e-06,0.11254834,0.16950205,-3.4884868,0.5712344,-8.629827e-05,0.0027440684,-0.82078236,0.00085751823,-0.0023977114,-0.14363585,0.029852754,-0.015682353,0.048015974,0.02995878,0.029958762,0.067575656,2.4854398e-05,2.484957e-05,0.00035515882,0.007022877,0.0070228428,0.008254863,-0.008635172,-0.002524877,0.0018492317,0.0009738726,0.06209306,-0.34573194,-0.003380746,0.0004799465,0.004875554,0.021643372,-0.013684872,-0.36758336,0.0021366146,5.258889e-11,0.002136615,0.0,123.0,109.0,123.0,109.0
593734305.997,-0.15447,0.08879,-9.76258,-0.001,0.00062,0.00288,-0.25924,-0.00838,-9.49621,0.00262,-0.00278,-0.00349,56,593746471293,0.0003,0.0001,0.0003,-0.0007,-0.0015,-0.0002,0.001,0.0,0.002,-0.002,-0.001,0.0,0.56,-0.439,9.77,0.065,-0.014,0.013,0.0,0.65,1.571,28,100,2,0,0.7192182,0.24612394,-10.273998,0.013741911,-0.015552861,0.034621093,0.48961425,0.170946,-10.35588,0.0042633996,-0.0053958655,0.020217841,59.3948197,24.6601313,26.626,0.0,0.0,0.0,0.093,-0.042000003,-0.083000004,0.063,0.80300003,1.485,-0.00010575381,0.0004612738,-0.10002646,0.99932534,-0.023998154,-0.027802253,-0.0001281083,0.00032230737,-0.00010696108,0.0020591323,-0.00023301863,0.0023894212,-0.00024831254,1.2899929e-07,1.5494152e-07,1.0288412e-07,1.1621439e-08,8.22888e-09,2.1800403e-08,4.4782914e-06,3.9803995e-06,4.2603e-06,0.11254834,0.16950205,-3.4884868,0.5712344,-8.629827e-05,0.0027440684,-0.82078236,0.00085751823,-0.0023977114,-0.14363585,0.029852754,-0.015682353,0.048015974,0.02995878,0.029958762,0.067575656,2.4854398e-05,2.484957e-05,0.00035515882,0.007022877,0.0070228428,0.008254863,-0.008635172,-0.002524877,0.0018492317,0.0009738726,0.06209306,-0.34573194,-0.003380746,0.0004799465,0.004875554,0.021643372,-0.013684872,-0.36758336,0.0021366146,5.258889e-11,0.002136615,0.0,123.0,109.0,123.0,109.0
593834292.997,-0.15447,0.08879,-9.76258,-0.001,0.00062,0.00288,-0.25924,-0.00838,-9.49621,0.00262,-0.00278,-0.00349,58,593815783608,0.0003,0.0001,0.0003,-0.0008,-0.0016,-0.0002,0.001,0.0,0.002,0.0,-0.001,0.001,0.56,-0.438,9.77,0.065,-0.014,0.013,0.0,0.65,1.571,28,100,2,0,0.7192182,0.24612394,-10.273998,0.013741911,-0.015552861,0.034621093,0.48961425,0.170946,-10.35588,0.0042633996,-0.0053958655,0.020217841,59.3948197,24.6601313,26.626,0.0,0.0,0.0,0.093,-0.042000003,-0.083000004,0.063,0.80300003,1.485,-0.00010575381,0.0004612738,-0.10002646,0.99932534,-0.023998154,-0.027802253,-0.0001281083,0.00032230737,-0.00010696108,0.0020591323,-0.00023301863,0.0023894212,-0.00024831254,1.2899929e-07,1.5494152e-07,1.0288412e-07,1.1621439e-08,8.22888e-09,2.1800403e-08,4.4782914e-06,3.9803995e-06,4.2603e-06,0.11254834,0.16950205,-3.4884868,0.5712344,-8.629827e-05,0.0027440684,-0.82078236,0.00085751823,-0.0023977114,-0.14363585,0.029852754,-0.015682353,0.048015974,0.02995878,0.029958762,0.067575656,2.4854398e-05,2.484957e-05,0.00035515882,0.007022877,0.0070228428,0.008254863,-0.008635172,-0.002524877,0.0018492317,0.0009738726,0.06209306,-0.34573194,-0.003380746,0.0004799465,0.004875554,0.021643372,-0.013684872,-0.36758336,0.0021366146,5.258889e-11,0.002136615,0.0,123.0,109.0,123.0,109.0
593934274.997,-0.15447,0.08879,-9.76258,-0.001,0.00062,0.00288,-0.25924,-0.00838,-9.49621,0.00262,-0.00278,-0.00349,61,593914811544,0.0003,0.0001,0.0003,-0.0007,-0.0016,-0.0002,0.001,0.0,0.003,-0.002,-0.004,0.0,0.56,-0.438,9.77,0.065,-0.014,0.013,0.0,0.65,1.571,28,100,2,0,0.7192182,0.24612394,-10.273998,0.013741911,-0.015552861,0.034621093,0.48961425,0.170946,-10.35588,0.0042633996,-0.0053958655,0.020217841,59.3948197,24.6601313,26.626,0.0,0.0,0.0,0.093,-0.042000003,-0.083000004,0.063,0.80300003,1.485,-0.00010575381,0.0004612738,-0.10002646,0.99932534,-0.023998154,-0.027802253,-0.0001281083,0.00032230737,-0.00010696108,0.0020591323,-0.00023301863,0.0023894212,-0.00024831254,1.2899929e-07,1.5494152e-07,1.0288412e-07,1.1621439e-08,8.22888e-09,2.1800403e-08,4.4782914e-06,3.9803995e-06,4.2603e-06,0.11254834,0.16950205,-3.4884868,0.5712344,-8.629827e-05,0.0027440684,-0.82078236,0.00085751823,-0.0023977114,-0.14363585,0.029852754,-0.015682353,0.048015974,0.02995878,0.029958762,0.067575656,2.4854398e-05,2.484957e-05,0.00035515882,0.007022877,0.0070228428,0.008254863,-0.008635172,-0.002524877,0.0018492317,0.0009738726,0.06209306,-0.34573194,-0.003380746,0.0004799465,0.004875554,0.021643372,-0.013684872,-0.36758336,0.0021366146,5.258889e-11,0.002136615,0.0,123.0,109.0,123.0,109.0
594034273.997,-0.15447,0.08879,-9.76258,-0.001,0.00062,0.00288,-0.25924,-0.00838,-9.49621,0.00262,-0.00278,-0.00349,65,594053847236,0.0003,0.0001,0.0003,-0.0008,-0.0015,-0.0002,0.001,0.0,0.003,-0.0,-0.002,-0.001,0.56,-0.438,9.77,0.065,-0.014,0.013,0.0,0.65,1.571,28,100,2,0,0.7192182,0.24612394,-10.273998,0.013741911,-0.015552861,0.034621093,0.48961425,0.170946,-10.35588,0.0042633996,-0.0053958655,0.020217841,59.3948197,24.6601313,26.626,0.0,0.0,0.0,0.093,-0.042000003,-0.083000004,0.063,0.80300003,1.485,-0.00010575381,0.0004612738,-0.10002646,0.99932534,-0.023998154,-0.027802253,-0.0001281083,0.00032230737,-0.00010696108,0.0020591323,-0.00023301863,0.0023894212,-0.00024831254,1.2899929e-07,1.5494152e-07,1.0288412e-07,1.1621439e-08,8.22888e-09,2.1800403e-08,4.4782914e-06,3.9803995e-06,4.2603e-06,0.11254834,0.16950205,-3.4884868,0.5712344,-8.629827e-05,0.0027440684,-0.82078236,0.00085751823,-0.0023977114,-0.14363585,0.029852754,-0.015682353,0.048015974,0.02995878,0.029958762,0.067575656,2.4854398e-05,2.484957e-05,0.00035515882,0.007022877,0.0070228428,0.008254863,-0.008635172,-0.002524877,0.0018492317,0.0009738726,0.06209306,-0.34573194,-0.003380746,0.0004799465,0.004875554,0.021643372,-0.013684872,-0.36758336,0.0021366146,5.258889e-11,0.002136615,0.0,123.0,109.0,123.0,109.0
594134241.997,-0.15447,0.08879,-9.76258,-0.001,0.00062,0.00288,-0.25924,-0.00838,-9.49621,0.00262,-0.00278,-0.00349,68,594148338351,0.0003,0.0001,0.0003,-0.0008,-0.0015,-0.0002,0.001,0.0,0.003,0.0,-0.001,0.001,0.56,-0.438,9.77,0.065,-0.014,0.013,0.0,0.65,1.571,28,100,2,0,0.7192182,0.24612394,-10.273998,0.013741911,-0.015552861,0.034621093,0.48961425,0.170946,-10.35588,0.0042633996,-0.0053958655,0.020217841,59.3948197,24.6601313,26.626,0.0,0.0,0.0,0.093,-0.042000003,-0.083000004,0.063,0.80300003,1.485,-0.00010575381,0.0004612738,-0.10002646,0.99932534,-0.023998154,-0.027802253,-0.0001281083,0.00032230737,-0.00010696108,0.0020591323,-0.00023301863,0.0023894212,-0.00024831254,1.2899929e-07,1.5494152e-07,1.0288412e-07,1.1621439e-08,8.22888e-09,2.1800403e-08,4.4782914e-06,3.9803995e-06,4.2603e-06,0.11254834,0.16950205,-3.4884868,0.5712344,-8.629827e-05,0.0027440684,-0.82078236,0.00085751823,-0.0023977114,-0.14363585,0.029852754,-0.015682353,0.048015974,0.02995878,0.029958762,0.067575656,2.4854398e-05,2.484957e-05,0.00035515882,0.007022877,0.0070228428,0.008254863,-0.008635172,-0.002524877,0.0018492317,0.0009738726,0.06209306,-0.34573194,-0.003380746,0.0004799465,0.004875554,0.021643372,-0.013684872,-0.36758336,0.0021366146,5.258889e-11,0.002136615,0.0,123.0,109.0,123.0,109.0
594234223.997,-0.15447,0.08879,-9.76258,-0.001,0.00062,0.00288,-0.25924,-0.00838,-9.49621,0.00262,-0.00278,-0.00349,71,594247330684,0.0003,0.0001,0.0003,-0.0008,-0.0015,-0.0002,0.0,-0.0,0.003,0.0,0.001,-0.0,0.56,-0.437,9.77,0.065,-0.014,0.013,0.0,0.65,1.571,28,100,2,0,0.7192182,0.24612394,-10.273998,0.013741911,-0.015552861,0.034621093,0.48961425,0.170946,-10.35588,0.0042633996,-0.0053958655,0.020217841,59.3948197,24.6601313,26.626,0.0,0.0,0.0,0.093,-0.042000003,-0.083000004,0.063,0.80300003,1.485,-0.00010575381,0.0004612738,-0.10002646,0.99932534,-0.023998154,-0.027802253,-0.0001281083,0.00032230737,-0.00010696108,0.0020591323,-0.00023301863,0.0023894212,-0.00024831254,1.2899929e-07,1.5494152e-07,1.0288412e-07,1.1621439e-08,8.22888e-09,2.1800403e-08,4.4782914e-06,3.9803995e-06,4.2603e-06,0.11254834,0.16950205,-3.4884868,0.5712344,-8.629827e-05,0.0027440684,-0.82078236,0.00085751823,-0.0023977114,-0.14363585,0.029852754,-0.015682353,0.048015974,0.02995878,0.029958762,0.067575656,2.4854398e-05,2.484957e-05,0.00035515882,0.007022877,0.0070228428,0.008254863,-0.008635172,-0.002524877,0.0018492317,0.0009738726,0.06209306,-0.34573194,-0.003380746,0.0004799465,0.004875554,0.021643372,-0.013684872,-0.36758336,0.0021366146,5.258889e-11,0.002136615,0.0,123.0,109.0,123.0,109.0
594334207.997,-0.15447,0.08879,-9.76258,-0.001,0.00062,0.00288,-0.25924,-0.00838,-9.49621,0.00262,-0.00278,-0.00349,73,594321812083,0.0003,0.0001,0.0003,-0.0007,-0.0015,-0.0002,0.001,-0.0,0.003,0.003,0.004,-0.0,0.56,-0.437,9.77,0.065,-0.014,0.013,0.0,0.65,1.571,28,100,2,0,0.7192182,0.24612394,-10.273998,0.013741911,-0.015552861,0.034621093,0.48961425,0.170946,-10.35588,0.0042633996,-0.0053958655,0.020217841,59.3948197,24.6601313,26.626,0.0,0.0,0.0,0.093,-0.042000003,-0.083000004,0.063,0.80300003,1.485,-0.00010575381,0.0004612738,-0.10002646,0.99932534,-0.023998154,-0.027802253,-0.0001281083,0.00032230737,-0.00010696108,0.0020591323,-0.00023301863,0.0023894212,-0.00024831254,1.2899929e-07,1.5494152e-07,1.0288412e-07,1.1621439e-08,8.22888e-09,2.1800403e-08,4.4782914e-06,3.9803995e-06,4.2603e-06,0.11254834,0.16950205,-3.4884868,0.5712344,-8.629827e-05,0.0027440684,-0.82078236,0.00085751823,-0.0023977114,-0.14363585,0.029852754,-0.015682353,0.048015974,0.02995878,0.029958762,0.067575656,2.4854398e-05,2.484957e-05,0.00035515882,0.007022877,0.0070228428,0.008254863,-0.008635172,-0.002524877,0.0018492317,0.0009738726,0.06209306,-0.34573194,-0.003380746,0.0004799465,0.004875554,0.021643372,-0.013684872,-0.36758336,0.0021366146,5.258889e-11,0.002136615,0.0,123.0,109.0,123.0,109.0
594434189.997,-0.15447,0.08879,-9.76258,-0.001,0.00062,0.00288,-0.25924,-0.00838,-9.49621,0.00262,-0.00278,-0.00349,76,594420701383,0.0003,0.0001,0.0003,-0.0008,-0.0015,-0.0002,0.001,0.0,0.003,0.003,0.004,0.0,0.56,-0.437,9.77,0.065,-0.014,0.013,0.0,0.65,1.571,28,100,2,0,0.7192182,0.24612394,-10.273998,0.013741911,-0.015552861,0.034621093,0.48961425,0.170946,-10.35588,0.0042633996,-0.0053958655,0.020217841,59.3948197,24.6601313,26.626,0.0,0.0,0.0,0.093,-0.042000003,-0.083000004,0.063,0.80300003,1.485,-0.00010575381,0.0004612738,-0.10002646,0.99932534,-0.023998154,-0.027802253,-0.0001281083,0.00032230737,-0.00010696108,0.0020591323,-0.00023301863,0.0023894212,-0.00024831254,1.2899929e-07,1.5494152e-07,1.0288412e-07,1.1621439e-08,8.22888e-09,2.1800403e-08,4.4782914e-06,3.9803995e-06,4.2603e-06,0.11254834,0.16950205,-3.4884868,0.5712344,-8.629827e-05,0.0027440684,-0.82078236,0.00085751823,-0.0023977114,-0.14363585,0.029852754,-0.015682353,0.048015974,0.02995878,0.029958762,0.067575656,2.4854398e-05,2.484957e-05,0.00035515882,0.007022877,0.0070228428,0.008254863,-0.008635172,-0.002524877,0.0018492317,0.0009738726,0.06209306,-0.34573194,-0.003380746,0.0004799465,0.004875554,0.021643372,-0.013684872,-0.36758336,0.0021366146,5.258889e-11,0.002136615,0.0,123.0,109.0,123.0,109.0
594534174.997,-0.15447,0.08879,-9.76258,-0.001,0.00062,0.00288,-0.25924,-0.00838,-9.49621,0.00262,-0.00278,-0.00349,79,594519693178,0.0003,0.0001,0.0003,-0.0008,-0.0014,-0.0002,0.001,0.0,0.003,-0.002,0.001,0.0,0.56,-0.438,9.77,0.065,-0.014,0.013,0.0,0.65,1.571,28,100,2,0,0.7192182,0.24612394,-10.273998,0.013741911,-0.015552861,0.034621093,0.48961425,0.170946,-10.35588,0.0042633996,-0.0053958655,0.020217841,59.3948197,24.6601313,26.626,0.0,0.0,0.0,0.093,-0.042000003,-0.083000004,0.063,0.80300003,1.485,-0.00010575381,0.0004612738,-0.10002646,0.99932534,-0.023998154,-0.027802253,-0.0001281083,0.00032230737,-0.00010696108,0.0020591323,-0.00023301863,0.0023894212,-0.00024831254,1.2899929e-07,1.5494152e-07,1.0288412e-07,1.1621439e-08,8.22888e-09,2.1800403e-08,4.4782914e-06,3.9803995e-06,4.2603e-06,0.11254834,0.16950205,-3.4884868,0.5712344,-8.629827e-05,0.0027440684,-0.82078236,0.00085751823,-0.0023977114,-0.14363585,0.029852754,-0.015682353,0.048015974,0.02995878,0.029958762,0.067575656,2.4854398e-05,2.484957e-05,0.00035515882,0.007022877,0.0070228428,0.008254863,-0.008635172,-0.002524877,0.0018492317,0.0009738726,0.06209306,-0.34573194,-0.003380746,0.0004799465,0.004875554,0.021643372,-0.013684872,-0.36758336,0.0021366146,5.258889e-11,0.002136615,0.0,123.0,109.0,123.0,109.0
594634184.997,-0.15447,0.08879,-9.76258,-0.001,0.00062,0.00288,-0.25924,-0.00838,-9.49621,0.00262,-0.00278,-0.00349,83,594648328205,0.0003,0.0001,0.0003,-0.0008,-0.0014,-0.0002,0.001,0.0,0.003,-0.0,0.001,0.001,0.559,-0.438,9.77,0.065,-0.014,0.013,0.0,0.65,1.571,28,100,2,0,0.7192182,0.24612394,-10.273998,0.013741911,-0.015552861,0.034621093,0.48961425,0.170946,-10.35588,0.0042633996,-0.0053958655,0.020217841,59.3948197,24.6601313,26.626,0.0,0.0,0.0,0.093,-0.042000003,-0.083000004,0.063,0.80300003,1.485,-0.00010575381,0.0004612738,-0.10002646,0.99932534,-0.023998154,-0.027802253,-0.0001281083,0.00032230737,-0.00010696108,0.0020591323,-0.00023301863,0.0023894212,-0.00024831254,1.2899929e-07,1.5494152e-07,1.0288412e-07,1.1621439e-08,8.22888e-09,2.1800403e-08,4.4782914e-06,3.9803995e-06,4.2603e-06,0.11254834,0.16950205,-3.4884868,0.5712344,-8.629827e-05,0.0027440684,-0.82078236,0.00085751823,-0.0023977114,-0.14363585,0.029852754,-0.015682353,0.048015974,0.02995878,0.029958762,0.067575656,2.4854398e-05,2.484957e-05,0.00035515882,0.007022877,0.0070228428,0.008254863,-0.008635172,-0.002524877,0.0018492317,0.0009738726,0.06209306,-0.34573194,-0.003380746,0.0004799465,0.004875554,0.021643372,-0.013684872,-0.36758336,0.0021366146,5.258889e-11,0.002136615,0.0,123.0,109.0,123.0,109.0
594734154.997,-0.15447,0.08879,-9.76258,-0.001,0.00062,0.00288,-0.25924,-0.00838,-9.49621,0.00262,-0.00278,-0.00349,86,594747381841,0.0003,0.0001,0.0003,-0.0008,-0.0014,-0.0002,0.0,0.0,0.002,0.001,0.006,0.0,0.559,-0.438,9.77,0.065,-0.014,0.013,0.0,0.65,1.571,28,100,2,0,0.7192182,0.24612394,-10.273998,0.013741911,-0.015552861,0.034621093,0.48961425,0.170946,-10.35588,0.0042633996,-0.0053958655,0.020217841,59.3948197,24.6601313,26.626,0.0,0.0,0.0,0.093,-0.042000003,-0.083000004,0.063,0.80300003,1.485,-0.00010575381,0.0004612738,-0.10002646,0.99932534,-0.023998154,-0.027802253,-0.0001281083,0.00032230737,-0.00010696108,0.0020591323,-0.00023301863,0.0023894212,-0.00024831254,1.2899929e-07,1.5494152e-07,1.0288412e-07,1.1621439e-08,8.22888e-09,2.1800403e-08,4.4782914e-06,3.9803995e-06,4.2603e-06,0.11254834,0.16950205,-3.4884868,0.5712344,-8.629827e-05,0.0027440684,-0.82078236,0.00085751823,-0.0023977114,-0.14363585,0.029852754,-0.015682353,0.048015974,0.02995878,0.029958762,0.067575656,2.4854398e-05,2.484957e-05,0.00035515882,0.007022877,0.0070228428,0.008254863,-0.008635172,-0.002524877,0.0018492317,0.0009738726,0.06209306,-0.34573194,-0.003380746,0.0004799465,0.004875554,0.021643372,-0.013684872,-0.36758336,0.0021366146,5.258889e-11,0.002136615,0.0,123.0,109.0,123.0,109.0
594834161.997,-0.15447,0.08879,-9.76258,-0.001,0.00062,0.00288,-0.25924,-0.00838,-9.49621,0.00262,-0.00278,-0.00349,89,594846428917,0.0003,0.0001,0.0003,-0.0008,-0.0014,-0.0002,0.001,0.0,0.002,0.001,-0.005,-0.001,0.559,-0.439,9.77,0.065,-0.014,0.013,0.0,0.65,1.571,28,100,2,0,0.7192182,0.24612394,-10.273998,0.013741911,-0.015552861,0.034621093,0.48961425,0.170946,-10.35588,0.0042633996,-0.0053958655,0.020217841,59.3948197,24.6601313,26.626,0.0,0.0,0.0,0.093,-0.042000003,-0.083000004,0.063,0.80300003,1.485,-0.00010575381,0.0004612738,-0.10002646,0.99932534,-0.023998154,-0.027802253,-0.0001281083,0.00032230737,-0.00010696108,0.0020591323,-0.00023301863,0.0023894212,-0.00024831254,1.2899929e-07,1.5494152e-07,1.0288412e-07,1.1621439e-08,8.22888e-09,2.1800403e-08,4.4782914e-06,3.9803995e-06,4.2603e-06,0.11254834,0.16950205,-3.4884868,0.5712344,-8.629827e-05,0.0027440684,-0.82078236,0.00085751823,-0.0023977114,-0.14363585,0.029852754,-0.015682353,0.048015974,0.02995878,0.029958762,0.067575656,2.4854398e-05,2.484957e-05,0.00035515882,0.007022877,0.0070228428,0.008254863,-0.008635172,-0.002524877,0.0018492317,0.0009738726,0.06209306,-0.34573194,-0.003380746,0.0004799465,0.004875554,0.021643372,-0.013684872,-0.36758336,0.0021366146,5.258889e-11,0.002136615,0.0,123.0,109.0,123.0,109.0
594934125.997,-0.15447,0.08879,-9.76258,-0.001,0.00062,0.00288,-0.25924,-0.00838,-9.49621,0.00262,-0.00278,-0.00349,92,594947742490,0.0003,0.0001,0.0003,-0.0008,-0.0015,-0.0002,0.0,0.0,0.002,-0.001,0.002,0.0,0.558,-0.439,9.77,0.065,-0.014,0.013,0.0,0.65,1.571,28,100,2,0,0.7192182,0.24612394,-10.273998,0.013741911,-0.015552861,0.034621093,0.48961425,0.170946,-10.35588,0.0042633996,-0.0053958655,0.020217841,59.3948197,24.6601313,26.626,0.0,0.0,0.0,0.093,-0.042000003,-0.083000004,0.063,0.80300003,1.485,-0.00010575381,0.0004612738,-0.10002646,0.99932534,-0.023998154,-0.027802253,-0.0001281083,0.00032230737,-0.00010696108,0.0020591323,-0.00023301863,0.0023894212,-0.00024831254,1.2899929e-07,1.5494152e-07,1.0288412e-07,1.1621439e-08,8.22888e-09,2.1800403e-08,4.4782914e-06,3.9803995e-06,4.2603e-06,0.11254834,0.16950205,-3.4884868,0.5712344,-8.629827e-05,0.0027440684,-0.82078236,0.00085751823,-0.0023977114,-0.14363585,0.029852754,-0.015682353,0.048015974,0.02995878,0.029958762,0.067575656,2.4854398e-05,2.484957e-05,0.00035515882,0.007022877,0.0070228428,0.008254863,-0.008635172,-0.002524877,0.0018492317,0.0009738726,0.06209306,-0.34573194,-0.003380746,0.0004799465,0.004875554,0.021643372,-0.013684872,-0.36758336,0.0021366146,5.258889e-11,0.002136615,0.0,123.0,109.0,123.0,109.0
595034103.997,-0.15447,0.08879,-9.76258,-0.001,0.00062,0.00288,-0.25924,-0.00838,-9.49621,0.00262,-0.00278,-0.00349,95,595046699761,0.0003,0.0001,0.0003,-0.0008,-0.0014,-0.0002,0.0,0.0,0.002,-0.0,0.006,0.001,0.558,-0.439,9.77,0.065,-0.014,0.013,0.0,0.65,1.571,28,100,2,0,0.7192182,0.24612394,-10.273998,0.013741911,-0.015552861,0.034621093,0.48961425,0.170946,-10.35588,0.0042633996,-0.0053958655,0.020217841,59.3948197,24.6601313,26.626,0.0,0.0,0.0,0.093,-0.042000003,-0.083000004,0.063,0.80300003,1.485,-0.00010575381,0.0004612738,-0.10002646,0.99932534,-0.023998154,-0.027802253,-0.0001281083,0.00032230737,-0.00010696108,0.0020591323,-0.00023301863,0.0023894212,-0.00024831254,1.2899929e-07,1.5494152e-07,1.0288412e-07,1.1621439e-08,8.22888e-09,2.1800403e-08,4.4782914e-06,3.9803995e-06,4.2603e-06,0.11254834,0.16950205,-3.4884868,0.5712344,-8.629827e-05,0.0027440684,-0.82078236,0.00085751823,-0.0023977114,-0.14363585,0.029852754,-0.015682353,0.048015974,0.02995878,0.029958762,0.067575656,2.4854398e-05,2.484957e-05,0.00035515882,0.007022877,0.0070228428,0.008254863,-0.008635172,-0.002524877,0.0018492317,0.0009738726,0.06209306,-0.34573194,-0.003380746,0.0004799465,0.004875554,0.021643372,-0.013684872,-0.36758336,0.0021366146,5.258889e-11,0.002136615,0.0,123.0,109.0,123.0,109.0
595134083.997,-0.15447,0.08879,-9.76258,-0.001,0.00062,0.00288,-0.25924,-0.00838,-9.49621,0.00262,-0.00278,-0.00349,98,595145791427,0.0003,0.0001,0.0003,-0.0008,-0.0014,-0.0002,0.001,0.0,0.002,0.001,0.001,0.0,0.558,-0.439,9.77,0.065,-0.014,0.013,0.0,0.65,1.571,28,100,2,0,0.7192182,0.24612394,-10.273998,0.013741911,-0.015552861,0.034621093,0.48961425,0.170946,-10.35588,0.0042633996,-0.0053958655,0.020217841,59.3948197,24.6601313,26.626,0.0,0.0,0.0,0.093,-0.042000003,-0.083000004,0.063,0.80300003,1.485,-0.00010575381,0.0004612738,-0.10002646,0.99932534,-0.023998154,-0.027802253,-0.0001281083,0.00032230737,-0.00010696108,0.0020591323,-0.00023301863,0.0023894212,-0.00024831254,1.2899929e-07,1.5494152e-07,1.0288412e-07,1.1621439e-08,8.22888e-09,2.1800403e-08,4.4782914e-06,3.9803995e-06,4.2603e-06,0.11254834,0.16950205,-3.4884868,0.5712344,-8.629827e-05,0.0027440684,-0.82078236,0.00085751823,-0.0023977114,-0.14363585,0.029852754,-0.015682353,0.048015974,0.02995878,0.029958762,0.067575656,2.4854398e-05,2.484957e-05,0.00035515882,0.007022877,0.0070228428,0.008254863,-0.008635172,-0.002524877,0.0018492317,0.0009738726,0.06209306,-0.34573194,-0.003380746,0.0004799465,0.004875554,0.021643372,-0.013684872,-0.36758336,0.0021366146,5.258889e-11,0.002136615,0.0,123.0,109.0,123.0,109.0
595234071.997,-0.15447,0.08879,-9.76258,-0.001,0.00062,0.00288,-0.25924,-0.00838,-9.49621,0.00262,-0.00278,-0.00349,99,595185459035,0.0003,0.0001,0.0003,-0.0008,-0.0014,-0.0002,0.0,0.0,0.003,-0.0,0.003,0.0,0.558,-0.439,9.77,0.065,-0.014,0.013,0.0,0.65,1.571,28,100,2,0,0.7192182,0.24612394,-10.273998,0.013741911,-0.015552861,0.034621093,0.48961425,0.170946,-10.35588,0.0042633996,-0.0053958655,0.020217841,59.3948197,24.6601313,26.626,0.0,0.0,0.0,0.093,-0.042000003,-0.083000004,0.063,0.80300003,1.485,-0.00010575381,0.0004612738,-0.10002646,0.99932534,-0.023998154,-0.027802253,-0.0001281083,0.00032230737,-0.00010696108,0.0020591323,-0.00023301863,0.0023894212,-0.00024831254,1.2899929e-07,1.5494152e-07,1.0288412e-07,1.1621439e-08,8.22888e-09,2.1800403e-08,4.4782914e-06,3.9803995e-06,4.2603e-06,0.11254834,0.16950205,-3.4884868,0.5712344,-8.629827e-05,0.0027440684,-0.82078236,0.00085751823,-0.0023977114,-0.14363585,0.029852754,-0.015682353,0.048015974,0.02995878,0.029958762,0.067575656,2.4854398e-05,2.484957e-05,0.00035515882,0.007022877,0.0070228428,0.008254863,-0.008635172,-0.002524877,0.0018492317,0.0009738726,0.06209306,-0.34573194,-0.003380746,0.0004799465,0.004875554,0.021643372,-0.013684872,-0.36758336,0.0021366146,5.258889e-11,0.002136615,0.0,123.0,109.0,123.0,109.0
595334046.997,-0.15447,0.08879,-9.76258,-0.001,0.00062,0.00288,-0.25924,-0.00838,-9.49621,0.00262,-0.00278,-0.00349,99,595185459035,0.0003,0.0001,0.0003,-0.0008,-0.0014,-0.0002,0.0,0.0,0.003,-0.0,0.003,0.0,0.558,-0.439,9.77,0.065,-0.014,0.013,0.0,0.65,1.571,28,100,2,0,0.7192182,0.24612394,-10.273998,0.013741911,-0.015552861,0.034621093,0.48961425,0.170946,-10.35588,0.0042633996,-0.0053958655,0.020217841,59.3948197,24.6601313,26.626,0.0,0.0,0.0,0.093,-0.042000003,-0.083000004,0.063,0.80300003,1.485,-0.00010575381,0.0004612738,-0.10002646,0.99932534,-0.023998154,-0.027802253,-0.0001281083,0.00032230737,-0.00010696108,0.0020591323,-0.00023301863,0.0023894212,-0.00024831254,1.2899929e-07,1.5494152e-07,1.0288412e-07,1.1621439e-08,8.22888e-09,2.1800403e-08,4.4782914e-06,3.9803995e-06,4.2603e-06,0.11254834,0.16950205,-3.4884868,0.5712344,-8.629827e-05,0.0027440684,-0.82078236,0.00085751823,-0.0023977114,-0.14363585,0.029852754,-0.015682353,0.048015974,0.02995878,0.029958762,0.067575656,2.4854398e-05,2.484957e-05,0.00035515882,0.007022877,0.0070228428,0.008254863,-0.008635172,-0.002524877,0.0018492317,0.0009738726,0.06209306,-0.34573194,-0.003380746,0.0004799465,0.004875554,0.021643372,-0.013684872,-0.36758336,0.0021366146,5.258889e-11,0.002136615,0.0,123.0,109.0,123.0,109.0
595434027.997,-0.15447,0.08879,-9.76258,-0.001,0.00062,0.00288,-0.25924,-0.00838,-9.49621,0.00262,-0.00278,-0.00349,99,595185459035,0.0003,0.0001,0.0003,-0.0008,-0.0014,-0.0002,0.0,0.0,0.003,-0.0,0.003,0.0,0.558,-0.439,9.77,0.065,-0.014,0.013,0.0,0.65,1.571,28,100,2,0,0.7192182,0.24612394,-10.273998,0.013741911,-0.015552861,0.034621093,0.48961425,0.170946,-10.35588,0.0042633996,-0.0053958655,0.020217841,59.3948197,24.6601313,26.626,0.0,0.0,0.0,0.093,-0.042000003,-0.083000004,0.063,0.80300003,1.485,-0.00010575381,0.0004612738,-0.10002646,0.99932534,-0.023998154,-0.027802253,-0.0001281083,0.00032230737,-0.00010696108,0.0020591323,-0.00023301863,0.0023894212,-0.00024831254,1.2899929e-07,1.5494152e-07,1.0288412e-07,1.1621439e-08,8.22888e-09,2.1800403e-08,4.4782914e-06,3.9803995e-06,4.2603e-06,0.11254834,0.16950205,-3.4884868,0.5712344,-8.629827e-05,0.0027440684,-0.82078236,0.00085751823,-0.0023977114,-0.14363585,0.029852754,-0.015682353,0.048015974,0.02995878,0.029958762,0.067575656,2.4854398e-05,2.484957e-05,0.00035515882,0.007022877,0.0070228428,0.008254863,-0.008635172,-0.002524877,0.0018492317,0.0009738726,0.06209306,-0.34573194,-0.003380746,0.0004799465,0.004875554,0.021643372,-0.013684872,-0.36758336,0.0021366146,5.258889e-11,0.002136615,0.0,123.0,109.0,123.0,109.0
595534029.997,-0.15447,0.08879,-9.76258,-0.001,0.00062,0.00288,-0.25924,-0.00838,-9.49621,0.00262,-0.00278,-0.00349,99,595185459035,0.0003,0.0001,0.0003,-0.0008,-0.0014,-0.0002,0.0,0.0,0.003,-0.0,0.003,0.0,0.558,-0.439,9.77,0.065,-0.014,0.013,0.0,0.65,1.571,28,100,2,0,0.7192182,0.24612394,-10.273998,0.013741911,-0.015552861,0.034621093,0.48961425,0.170946,-10.35588,0.0042633996,-0.0053958655,0.020217841,59.3948197,24.6601313,26.626,0.0,0.0,0.0,0.093,-0.042000003,-0.083000004,0.063,0.80300003,1.485,-0.00010575381,0.0004612738,-0.10002646,0.99932534,-0.023998154,-0.027802253,-0.0001281083,0.00032230737,-0.00010696108,0.0020591323,-0.00023301863,0.0023894212,-0.00024831254,1.2899929e-07,1.5494152e-07,1.0288412e-07,1.1621439e-08,8.22888e-09,2.1800403e-08,4.4782914e-06,3.9803995e-06,4.2603e-06,0.11254834,0.16950205,-3.4884868,0.5712344,-8.629827e-05,0.0027440684,-0.82078236,0.00085751823,-0.0023977114,-0.14363585,0.029852754,-0.015682353,0.048015974,0.02995878,0.029958762,0.067575656,2.4854398e-05,2.484957e-05,0.00035515882,0.007022877,0.0070228428,0.008254863,-0.008635172,-0.002524877,0.0018492317,0.0009738726,0.06209306,-0.34573194,-0.003380746,0.0004799465,0.004875554,0.021643372,-0.013684872,-0.36758336,0.0021366146,5.258889e-11,0.002136615,0.0,123.0,109.0,123.0,109.0
595634041.997,-0.15447,0.08879,-9.76258,-0.001,0.00062,0.00288,-0.25924,-0.00838,-9.49621,0.00262,-0.00278,-0.00349,99,595185459035,0.0003,0.0001,0.0003,-0.0008,-0.0014,-0.0002,0.0,0.0,0.003,-0.0,0.003,0.0,0.558,-0.439,9.77,0.065,-0.014,0.013,0.0,0.65,1.571,28,100,2,0,0.7192182,0.24612394,-10.273998,0.013741911,-0.015552861,0.034621093,0.48961425,0.170946,-10.35588,0.0042633996,-0.0053958655,0.020217841,59.3948197,24.6601313,26.626,0.0,0.0,0.0,0.093,-0.042000003,-0.083000004,0.063,0.80300003,1.485,-0.00010575381,0.0004612738,-0.10002646,0.99932534,-0.023998154,-0.027802253,-0.0001281083,0.00032230737,-0.00010696108,0.0020591323,-0.00023301863,0.0023894212,-0.00024831254,1.2899929e-07,1.5494152e-07,1.0288412e-07,1.1621439e-08,8.22888e-09,2.1800403e-08,4.4782914e-06,3.9803995e-06,4.2603e-06,0.11254834,0.16950205,-3.4884868,0.5712344,-8.629827e-05,0.0027440684,-0.82078236,0.00085751823,-0.0023977114,-0.14363585,0.029852754,-0.015682353,0.048015974,0.02995878,0.029958762,0.067575656,2.4854398e-05,2.484957e-05,0.00035515882,0.007022877,0.0070228428,0.008254863,-0.008635172,-0.002524877,0.0018492317,0.0009738726,0.06209306,-0.34573194,-0.003380746,0.0004799465,0.004875554,0.021643372,-0.013684872,-0.36758336,0.0021366146,5.258889e-11,0.002136615,0.0,123.0,109.0,123.0,109.0
595733982.997,-0.15447,0.08879,-9.76258,-0.001,0.00062,0.00288,-0.25924,-0.00838,-9.49621,0.00262,-0.00278,-0.00349,99,595185459035,0.0003,0.0001,0.0003,-0.0008,-0.0014,-0.0002,0.0,0.0,0.003,-0.0,0.003,0.0,0.558,-0.439,9.77,0.065,-0.014,0.013,0.0,0.65,1.571,28,100,2,0,0.7192182,0.24612394,-10.273998,0.013741911,-0.015552861,0.034621093,0.48961425,0.170946,-10.35588,0.0042633996,-0.0053958655,0.020217841,59.3948197,24.6601313,26.626,0.0,0.0,0.0,0.093,-0.042000003,-0.083000004,0.063,0.80300003,1.485,-0.00010575381,0.0004612738,-0.10002646,0.99932534,-0.023998154,-0.027802253,-0.0001281083,0.00032230737,-0.00010696108,0.0020591323,-0.00023301863,0.0023894212,-0.00024831254,1.2899929e-07,1.5494152e-07,1.0288412e-07,1.1621439e-08,8.22888e-09,2.1800403e-08,4.4782914e-06,3.9803995e-06,4.2603e-06,0.11254834,0.16950205,-3.4884868,0.5712344,-8.629827e-05,0.0027440684,-0.82078236,0.00085751823,-0.0023977114,-0.14363585,0.029852754,-0.015682353,0.048015974,0.02995878,0.029958762,0.067575656,2.4854398e-05,2.484957e-05,0.00035515882,0.007022877,0.0070228428,0.008254863,-0.008635172,-0.002524877,0.0018492317,0.0009738726,0.06209306,-0.34573194,-0.003380746,0.0004799465,0.004875554,0.021643372,-0.013684872,-0.36758336,0.0021366146,5.258889e-11,0.002136615,0.0,123.0,109.0,123.0,109.0
595833968.997,-0.15447,0.08879,-9.76258,-0.001,0.00062,0.00288,-0.25924,-0.00838,-9.49621,0.00262,-0.00278,-0.00349,99,595185459035,0.0003,0.0001,0.0003,-0.0008,-0.0014,-0.0002,0.0,0.0,0.003,-0.0,0.003,0.0,0.558,-0.439,9.77,0.065,-0.014,0.013,0.0,0.65,1.571,28,100,2,0,0.7192182,0.24612394,-10.273998,0.013741911,-0.015552861,0.034621093,0.48961425,0.170946,-10.35588,0.0042633996,-0.0053958655,0.020217841,59.3948197,24.6601313,26.626,0.0,0.0,0.0,0.093,-0.042000003,-0.083000004,0.063,0.80300003,1.485,-0.00010575381,0.0004612738,-0.10002646,0.99932534,-0.023998154,-0.027802253,-0.0001281083,0.00032230737,-0.00010696108,0.0020591323,-0.00023301863,0.0023894212,-0.00024831254,1.2899929e-07,1.5494152e-07,1.0288412e-07,1.1621439e-08,8.22888e-09,2.1800403e-08,4.4782914e-06,3.9803995e-06,4.2603e-06,0.11254834,0.16950205,-3.4884868,0.5712344,-8.629827e-05,0.0027440684,-0.82078236,0.00085751823,-0.0023977114,-0.14363585,0.029852754,-0.015682353,0.048015974,0.02995878,0.029958762,0.067575656,2.4854398e-05,2.484957e-05,0.00035515882,0.007022877,0.0070228428,0.008254863,-0.008635172,-0.002524877,0.0018492317,0.0009738726,0.06209306,-0.34573194,-0.003380746,0.0004799465,0.004875554,0.021643372,-0.013684872,-0.36758336,0.0021366146,5.258889e-11,0.002136615,0.0,123.0,109.0,123.0,109.0
595933943.997,-0.15447,0.08879,-9.76258,-0.001,0.00062,0.00288,-0.25924,-0.00838,-9.49621,0.00262,-0.00278,-0.00349,99,595185459035,0.0003,0.0001,0.0003,-0.0008,-0.0014,-0.0002,0.0,0.0,0.003,-0.0,0.003,0.0,0.558,-0.439,9.77,0.065,-0.014,0.013,0.0,0.65,1.571,28,100,2,0,0.7192182,0.24612394,-10.273998,0.013741911,-0.015552861,0.034621093,0.48961425,0.170946,-10.35588,0.0042633996,-0.0053958655,0.020217841,59.3948197,24.6601313,26.626,0.0,0.0,0.0,0.093,-0.042000003,-0.083000004,0.063,0.80300003,1.485,-0.00010575381,0.0004612738,-0.10002646,0.99932534,-0.023998154,-0.027802253,-0.0001281083,0.00032230737,-0.00010696108,0.0020591323,-0.00023301863,0.0023894212,-0.00024831254,1.2899929e-07,1.5494152e-07,1.0288412e-07,1.1621439e-08,8.22888e-09,2.1800403e-08,4.4782914e-06,3.9803995e-06,4.2603e-06,0.11254834,0.16950205,-3.4884868,0.5712344,-8.629827e-05,0.0027440684,-0.82078236,0.00085751823,-0.0023977114,-0.14363585,0.029852754,-0.015682353,0.048015974,0.02995878,0.029958762,0.067575656,2.4854398e-05,2.484957e-05,0.00035515882,0.007022877,0.0070228428,0.008254863,-0.008635172,-0.002524877,0.0018492317,0.0009738726,0.06209306,-0.34573194,-0.003380746,0.0004799465,0.004875554,0.021643372,-0.013684872,-0.36758336,0.0021366146,5.258889e-11,0.002136615,0.0,123.0,109.0,123.0,109.0
596033939.997,-0.15447,0.08879,-9.76258,-0.001,0.00062,0.00288,-0.25924,-0.00838,-9.49621,0.00262,-0.00278,-0.00349,99,595185459035,0.0003,0.0001,0.0003,-0.0008,-0.0014,-0.0002,0.0,0.0,0.003,-0.0,0.003,0.0,0.558,-0.439,9.77,0.065,-0.014,0.013,0.0,0.65,1.571,28,100,2,0,0.7192182,0.24612394,-10.273998,0.013741911,-0.015552861,0.034621093,0.48961425,0.170946,-10.35588,0.0042633996,-0.0053958655,0.020217841,59.3948197,24.6601313,26.626,0.0,0.0,0.0,0.093,-0.042000003,-0.083000004,0.063,0.80300003,1.485,-0.00010575381,0.0004612738,-0.10002646,0.99932534,-0.023998154,-0.027802253,-0.0001281083,0.00032230737,-0.00010696108,0.0020591323,-0.00023301863,0.0023894212,-0.00024831254,1.2899929e-07,1.5494152e-07,1.0288412e-07,1.1621439e-08,8.22888e-09,2.1800403e-08,4.4782914e-06,3.9803995e-06,4.2603e-06,0.11254834,0.16950205,-3.4884868,0.5712344,-8.629827e-05,0.0027440684,-0.82078236,0.00085751823,-0.0023977114,-0.14363585,0.029852754,-0.015682353,0.048015974,0.02995878,0.029958762,0.067575656,2.4854398e-05,2.484957e-05,0.00035515882,0.007022877,0.0070228428,0.008254863,-0.008635172,-0.002524877,0.0018492317,0.0009738726,0.06209306,-0.34573194,-0.003380746,0.0004799465,0.004875554,0.021643372,-0.013684872,-0.36758336,0.0021366146,5.258889e-11,0.002136615,0.0,123.0,109.0,123.0,109.0
596133928.997,-0.15447,0.08879,-9.76258,-0.001,0.00062,0.00288,-0.25924,-0.00838,-9.49621,0.00262,-0.00278,-0.00349,99,595185459035,0.0003,0.0001,0.0003,-0.0008,-0.0014,-0.0002,0.0,0.0,0.003,-0.0,0.003,0.0,0.558,-0.439,9.77,0.065,-0.014,0.013,0.0,0.65,1.571,28,100,2,0,0.7192182,0.24612394,-10.273998,0.013741911,-0.015552861,0.034621093,0.48961425,0.170946,-10.35588,0.0042633996,-0.0053958655,0.020217841,59.3948197,24.6601313,26.626,0.0,0.0,0.0,0.093,-0.042000003,-0.083000004,0.063,0.80300003,1.485,-0.00010575381,0.0004612738,-0.10002646,0.99932534,-0.023998154,-0.027802253,-0.0001281083,0.00032230737,-0.00010696108,0.0020591323,-0.00023301863,0.0023894212,-0.00024831254,1.2899929e-07,1.5494152e-07,1.0288412e-07,1.1621439e-08,8.22888e-09,2.1800403e-08,4.4782914e-06,3.9803995e-06,4.2603e-06,0.11254834,0.16950205,-3.4884868,0.5712344,-8.629827e-05,0.0027440684,-0.82078236,0.00085751823,-0.0023977114,-0.14363585,0.029852754,-0.015682353,0.048015974,0.02995878,0.029958762,0.067575656,2.4854398e-05,2.484957e-05,0.00035515882,0.007022877,0.0070228428,0.008254863,-0.008635172,-0.002524877,0.0018492317,0.0009738726,0.06209306,-0.34573194,-0.003380746,0.0004799465,0.004875554,0.021643372,-0.013684872,-0.36758336,0.0021366146,5.258889e-11,0.002136615,0.0,123.0,109.0,123.0,109.0
596233943.997,-0.15447,0.08879,-9.76258,-0.001,0.00062,0.00288,-0.25924,-0.00838,-9.49621,0.00262,-0.00278,-0.00349,99,595185459035,0.0003,0.0001,0.0003,-0.0008,-0.0014,-0.0002,0.0,0.0,0.003,-0.0,0.003,0.0,0.558,-0.439,9.77,0.065,-0.014,0.013,0.0,0.65,1.571,28,100,2,0,0.7192182,0.24612394,-10.273998,0.013741911,-0.015552861,0.034621093,0.48961425,0.170946,-10.35588,0.0042633996,-0.0053958655,0.020217841,59.3948197,24.6601313,26.626,0.0,0.0,0.0,0.093,-0.042000003,-0.083000004,0.063,0.80300003,1.485,-0.00010575381,0.0004612738,-0.10002646,0.99932534,-0.023998154,-0.027802253,-0.0001281083,0.00032230737,-0.00010696108,0.0020591323,-0.00023301863,0.0023894212,-0.00024831254,1.2899929e-07,1.5494152e-07,1.0288412e-07,1.1621439e-08,8.22888e-09,2.1800403e-08,4.4782914e-06,3.9803995e-06,4.2603e-06,0.11254834,0.16950205,-3.4884868,0.5712344,-8.629827e-05,0.0027440684,-0.82078236,0.00085751823,-0.0023977114,-0.14363585,0.029852754,-0.015682353,0.048015974,0.02995878,0.029958762,0.067575656,2.4854398e-05,2.484957e-05,0.00035515882,0.007022877,0.0070228428,0.008254863,-0.008635172,-0.002524877,0.0018492317,0.0009738726,0.06209306,-0.34573194,-0.003380746,0.0004799465,0.004875554,0.021643372,-0.013684872,-0.36758336,0.0021366146,5.258889e-11,0.002136615,0.0,123.0,109.0,123.0,109.0
