timestamp,timestamp_sample,position[0],position[1],position[2],q[0],q[1],q[2],q[3],velocity[0],velocity[1],velocity[2],angular_velocity[0],angular_velocity[1],angular_velocity[2],position_variance[0],position_variance[1],position_variance[2],orientation_variance[0],orientation_variance[1],orientation_variance[2],velocity_variance[0],velocity_variance[1],velocity_variance[2],pose_frame,velocity_frame,reset_counter,quality
603055326,603054198,0.11254834,0.16950205,-3.4884868,0.5712344,-8.629827e-05,0.0027440684,-0.82078236,0.00085751823,-0.0023977114,-0.14363585,0.029852754,-0.015682353,0.048015974,0.02995878,0.029958762,0.067575656,2.4854398e-05,2.484957e-05,0.00035515882,0.007022877,0.0070228428,0.008254863,1,1,14,0
603066183,603064079,0.11289458,0.16902749,-3.4883637,0.5713309,-4.2102205e-05,0.0027632443,-0.8207152,0.0002428785,-0.0011971445,-0.143878,-0.004282687,0.01301544,0.015415782,0.028033499,0.028033484,0.06482749,2.4288505e-05,2.4283574e-05,0.00035533472,0.006455878,0.0064558485,0.0078698015,1,1,14,0
603075731,603073961,0.113216706,0.1685657,-3.488303,0.57113296,2.2387107e-05,0.002882496,-0.8208526,-0.00062332896,-0.005271742,-0.14441939,-0.018361209,0.0169737,-0.071114376,0.028191375,0.02819136,0.06511592,2.4338182e-05,2.4333236e-05,0.00035551144,0.0065038144,0.0065037855,0.007905688,1,1,14,0
603084926,603083843,0.11353339,0.16811681,-3.4883096,0.57101077,5.7677084e-05,0.0029988259,-0.82093716,0.001316009,-0.0042927284,-0.14409988,-0.010135116,0.02596321,-0.010244789,0.028350774,0.02835076,0.065406196,2.438793e-05,2.4382964e-05,0.00035568833,0.006551911,0.0065518823,0.007941675,1,1,14,0
603095624,603093724,0.11387206,0.16767286,-3.4883552,0.57116634,-1.794941e-05,0.002905031,-0.8208292,0.0029339902,-0.003772514,-0.14383507,0.008688197,-0.027176496,0.040781014,0.02851171,0.028511696,0.06569831,2.4437724e-05,2.4432737e-05,0.00035586525,0.006600311,0.0066002817,0.007977761,1,1,14,0
603105605,603103605,0.11417802,0.16724315,-3.488283,0.5711699,-8.3182924e-05,0.0028925405,-0.82082677,-0.0010360483,-0.004683898,-0.14418484,0.0049128276,-0.014555259,-0.018563634,0.028674196,0.028674182,0.06563868,2.4486702e-05,2.4481722e-05,0.00035471946,0.0066491636,0.0066491333,0.007995851,1,1,14,0
603115335,603113487,0.11446185,0.16682471,-3.4882796,0.57103467,-0.00012945267,0.0028730445,-0.820921,-0.00018910566,-0.0049925568,-0.1455347,-0.008965297,-0.009032031,-0.029504005,0.028838247,0.028838232,0.06593292,2.4536579e-05,2.4531602e-05,0.000354896,0.0066983136,0.0066982834,0.008032101,1,1,14,0
603125192,603123368,0.11475328,0.16643122,-3.4883235,0.57108766,-0.000106323154,0.0028016986,-0.82088435,0.0023137862,-0.0032887144,-0.14536026,0.020362664,0.0010924259,0.02643421,0.029003875,0.02900386,0.06622903,2.4586503e-05,2.4581537e-05,0.00035507252,0.006747591,0.0067475596,0.008068451,1,1,14,0
603135129,603133250,0.11504633,0.16604985,-3.4884267,0.57116234,-0.00010978314,0.002787494,-0.82083243,0.00242083,-0.003388841,-0.14365381,0.00045225225,-0.0017800662,0.008046207,0.029171096,0.02917108,0.06652702,2.4637451e-05,2.4632476e-05,0.00035525113,0.006797183,0.0067971516,0.0081049,1,1,14,0
603145133,603143142,0.11531632,0.16568922,-3.4885895,0.5710817,-3.0305993e-05,0.00288991,-0.8208882,0.00051617995,-0.0035259922,-0.14599809,-0.011532009,0.030533053,-0.026165918,0.02933992,0.029339902,0.06682689,2.4687959e-05,2.4682957e-05,0.00035542887,0.0068467204,0.006846691,0.0081414515,1,1,14,0
603155184,603153013,0.11558912,0.16534239,-3.488801,0.5710781,4.6379115e-05,0.0029333215,-0.8208904,0.0036427313,-0.0040847217,-0.14644498,-0.0041307225,0.018270355,0.006464952,0.029510362,0.029510342,0.06712865,2.4734429e-05,2.4729665e-05,0.0003555988,0.0068975436,0.0068975156,0.008178102,1,1,14,0
603164877,603162894,0.11586475,0.16499254,-3.4890704,0.57114834,-3.454945e-05,0.0029100243,-0.8208417,0.0036087253,-0.004274831,-0.14513631,-0.0033969225,-0.021110082,0.009204164,0.029682439,0.029682418,0.067432314,2.4782605e-05,2.4777706e-05,0.00035577142,0.0069475938,0.0069475714,0.008214854,1,1,14,0
603175034,603172776,0.11612079,0.164658,-3.4891734,0.571106,-2.2640517e-05,0.002935739,-0.8208711,0.0007536068,-0.0054532425,-0.1471022,-0.002952394,0.0058213295,-0.018113293,0.029856158,0.029856138,0.067365386,2.4836403e-05,2.4831172e-05,0.0003546358,0.0069983657,0.006998331,0.0082321465,1,1,14,0
603184480,603182657,0.11634616,0.16433258,-3.4893272,0.57106876,-2.5615936e-05,0.0028156342,-0.82089746,5.2650546e-05,-0.0034539802,-0.14589256,0.02057531,-0.008536492,-0.0043464755,0.03003154,0.030031517,0.0676712,2.4889418e-05,2.4883884e-05,0.00035481728,0.0070491214,0.007049089,0.008269056,1,1,14,0
603193543,603192539,0.11659995,0.16403086,-3.4895277,0.5711308,-4.411117e-06,0.002807244,-0.8208543,0.004999998,-0.003654318,-0.14555614,-0.0060788137,0.0049186074,0.013237245,0.030208591,0.030208569,0.06797895,2.493612e-05,2.4930914e-05,0.00035498713,0.0071007432,0.0071007097,0.008306066,1,1,14,0
603203492,603202420,0.11684826,0.16371739,-3.489794,0.57109946,-0.0001117856,0.0028517635,-0.820876,0.0031684628,-0.006091121,-0.14691587,-0.020527553,-0.01700431,-0.017285908,0.030387335,0.03038731,0.06828863,2.4986215e-05,2.498116e-05,0.00035516347,0.0071521867,0.0071521522,0.008343177,1,1,14,0
603215320,603212301,0.116782516,0.16297649,-3.489852,0.57103896,-9.4067786e-05,0.0029123784,-0.82091784,0.0016626434,-0.004951028,-0.14858446,-0.003819897,0.012122131,-0.010235946,0.02839127,0.028391253,0.065473035,2.4400906e-05,2.4396006e-05,0.00035534654,0.0065630833,0.006563053,0.007948783,1,1,14,0
603223271,603222187,0.11671605,0.16226943,-3.4899633,0.5711047,-5.79266e-05,0.0028533463,-0.82087225,0.0027918199,-0.0024805823,-0.1464376,0.01821841,0.0050723394,0.020265587,0.028552515,0.028552499,0.0657655,2.4449442e-05,2.4444616e-05,0.00035552104,0.006611725,0.0066116997,0.007984888,1,1,14,0
603233442,603232064,0.1166572,0.16158706,-3.4901202,0.5711334,-1.332962e-07,0.002888396,-0.82085216,0.0017252668,-0.0042882157,-0.14573577,-0.0009018927,0.016423501,-0.005366674,0.028715312,0.028715296,0.06605982,2.4497675e-05,2.4492876e-05,0.00035569462,0.0066598505,0.006659826,0.008021092,1,1,14,0
603243602,603241946,0.11658411,0.160912,-3.4901094,0.571064,3.1555814e-05,0.0028873375,-0.82090044,0.0015395554,-0.0056857537,-0.1460915,-0.0023520687,0.0035843463,-0.01996098,0.028879672,0.028879654,0.0659985,2.454878e-05,2.4543642e-05,0.00035455634,0.0067095687,0.0067095445,0.008039027,1,1,14,0
603252903,603251828,0.11652218,0.16025168,-3.4901607,0.57107157,-1.5634781e-05,0.002857952,-0.8208953,0.0026139799,-0.0057137385,-0.14648393,0.0035133937,-0.017524028,0.01107633,0.02904562,0.0290456,0.06629496,2.45989e-05,2.4593526e-05,0.00035473265,0.006759207,0.0067591807,0.008075392,1,1,14,0
603262777,603261709,0.11646807,0.15962076,-3.490277,0.57114124,-5.3997177e-05,0.002854903,-0.82084686,0.002151598,-0.0040888716,-0.14728479,-0.0028138028,-0.0016869452,0.013271459,0.02921316,0.02921314,0.0665933,2.4647241e-05,2.4642075e-05,0.00035490608,0.006808633,0.006808604,0.008111858,1,1,14,0
603272732,603271590,0.11639814,0.15900072,-3.4904468,0.57109034,-6.233109e-05,0.0028401385,-0.82088244,0.000241248,-0.007123842,-0.14737652,-0.00076066965,-0.0096820425,-0.02456616,0.029382305,0.029382285,0.06689352,2.4698144e-05,2.4692901e-05,0.00035508425,0.006859066,0.0068590324,0.008148426,1,1,14,0
603282551,603281472,0.116336055,0.15839075,-3.490665,0.5710198,-0.00011987674,0.0028720472,-0.8209312,0.0031839046,-0.00655363,-0.14670697,-0.016984204,0.0015273833,-0.011028978,0.029553076,0.029553056,0.06719563,2.4748704e-05,2.4743686e-05,0.00035526272,0.006908968,0.006908942,0.008185096,1,1,14,0
603292696,603291354,0.116279304,0.15780391,-3.4909396,0.57108396,-0.00015037526,0.0028324826,-0.8208868,0.0008719539,-0.0055906717,-0.14760281,0.014835087,-0.013119269,0.02198645,0.029725479,0.029725458,0.06749965,2.4797517e-05,2.4792473e-05,0.00035543667,0.006958935,0.0069589093,0.00822186,1,1,14,0
603302593,603301235,0.11619643,0.15724796,-3.4910355,0.5711239,-5.8393038e-05,0.0027724593,-0.8208592,-0.0006574749,-0.0040516686,-0.14859149,0.017427415,0.012305218,0.0028955692,0.029899526,0.029899506,0.06743234,2.4848296e-05,2.4843383e-05,0.0003556147,0.0070102075,0.0070101703,0.008239129,1,1,14,0
603313047,603311117,0.11634349,0.15670003,-3.4909573,0.57104594,1.6916787e-06,0.0028049822,-0.82091343,0.0014445671,-0.00720332,-0.14762856,-0.005173574,0.005681388,-0.021807665,0.027980717,0.0279807,0.06469787,2.4284176e-05,2.4279043e-05,0.00035447002,0.006445827,0.0064457995,0.007855809,1,1,14,0
603322055,603320998,0.116516575,0.1561524,-3.4909332,0.5710426,-6.8862486e-05,0.0028913312,-0.82091546,0.0046194997,-0.007783041,-0.14775106,-0.025711218,-0.0006257292,0.0061927205,0.028138077,0.02813806,0.06498547,2.4332356e-05,2.432725e-05,0.00035464356,0.0064932527,0.0064932317,0.007891663,1,1,14,0
603331930,603330879,0.11667104,0.15562694,-3.490976,0.57109535,-0.00011611697,0.0029111684,-0.8208787,-0.00023715859,-0.0063560065,-0.14950773,0.0019331452,-0.0030703794,0.009085376,0.028296953,0.028296936,0.065274894,2.4381552e-05,2.4376252e-05,0.00035481853,0.0065410454,0.0065410207,0.007927614,1,1,14,0
603341977,603340777,0.116792955,0.15513004,-3.491084,0.5710716,-5.3761905e-05,0.002880332,-0.82089514,-0.0010707993,-0.006086865,-0.14897487,0.015161328,0.004660344,-0.013313217,0.028457362,0.028457344,0.06556615,2.4432686e-05,2.4427314e-05,0.00035499796,0.006589808,0.006589779,0.007963665,1,1,14,0
603352016,603350643,0.1169229,0.15463595,-3.4912317,0.5710183,-5.268433e-05,0.0028339112,-0.82093245,0.002805501,-0.0074707703,-0.14769566,0.00064026215,-0.0057056937,-0.008518409,0.02861932,0.0286193,0.065859266,2.4482188e-05,2.4476945e-05,0.0003551742,0.006638936,0.0066389064,0.007999816,1,1,14,0
603361590,603360524,0.1170735,0.15415081,-3.4914334,0.57106507,-0.00013884726,0.002831705,-0.8208999,0.0026870836,-0.00733372,-0.14876057,-0.008324329,-0.017473714,0.014540188,0.02878284,0.028782822,0.06615424,2.4530525e-05,2.4525352e-05,0.00035534785,0.0066880872,0.0066880635,0.0080360705,1,1,14,0
603371560,603370405,0.11719373,0.15369685,-3.4914773,0.5710723,-9.554874e-05,0.0028147225,-0.82089496,-0.0013965197,-0.0052619544,-0.15017322,0.011517696,0.012118002,-0.0065202327,0.028947936,0.028947918,0.06609256,2.4581397e-05,2.4576251e-05,0.00035552675,0.0067374776,0.0067374445,0.008053969,1,1,14,0
603381342,603380286,0.11729689,0.15325898,-3.4915757,0.5710187,-3.9900824e-05,0.0028122617,-0.82093227,0.0009863102,-0.0072224326,-0.14878061,-0.001321641,0.006967133,-0.015132435,0.02911462,0.029114602,0.066389665,2.4632755e-05,2.462765e-05,0.00035570643,0.0067865397,0.0067865113,0.008090382,1,1,14,0
603391329,603390168,0.11743772,0.15281698,-3.4917166,0.57104474,-0.0001220615,0.0028587866,-0.82091403,0.0048169484,-0.008139655,-0.14819027,-0.02073679,-0.012202727,0.010012383,0.029282903,0.029282885,0.06668866,2.4680487e-05,2.4675512e-05,0.00035455907,0.00683696,0.0068369326,0.0081269,1,1,14,0
603401080,603400049,0.11757181,0.15239708,-3.4919248,0.57107335,-0.00014907056,0.0029409782,-0.8208938,0.0005277789,-0.0060688425,-0.15082325,-0.011128709,0.0136425095,-0.0005156537,0.029452804,0.029452786,0.06698953,2.4729627e-05,2.4724564e-05,0.00035473378,0.0068871784,0.0068871574,0.008163517,1,1,14,0
603411039,603409932,0.11765572,0.15200302,-3.4922001,0.5710045,-4.574732e-05,0.0028940002,-0.82094187,-0.0015943062,-0.006008221,-0.15135081,0.025163619,0.00894417,-0.019666363,0.029624334,0.029624315,0.0672923,2.4781413e-05,2.4776162e-05,0.00035491347,0.006937089,0.006937058,0.008200226,1,1,14,0
603420878,603419813,0.11775548,0.15161511,-3.4925163,0.571007,-1.7068622e-05,0.0028215642,-0.8209404,0.0030339335,-0.007935582,-0.14910513,0.010337634,-0.00762559,0.0074858526,0.029797504,0.029797485,0.06759699,2.483172e-05,2.4826437e-05,0.00035509,0.006987672,0.0069876416,0.008237039,1,1,14,0
603430860,603429694,0.117880836,0.15122668,-3.4926155,0.5710778,-0.00010863912,0.0028121416,-0.8208912,0.0033281697,-0.007195688,-0.14988698,-0.016885478,-0.009907171,0.013515112,0.029972328,0.02997231,0.06752927,2.488079e-05,2.4875557e-05,0.00035526423,0.007039421,0.0070393924,0.008254276,1,1,14,0
603441863,603439575,0.117595404,0.15057181,-3.4924698,0.5710256,-0.00010854126,0.002870284,-0.8209272,-0.00065351557,-0.0063670985,-0.15057145,-0.003081464,0.0069972756,-0.02196199,0.028041549,0.028041534,0.06478542,2.4311423e-05,2.430617e-05,0.00035544258,0.0064696693,0.0064696465,0.007869437,1,1,14,0
603450588,603449457,0.11729994,0.1499418,-3.492391,0.5709762,-7.7675984e-05,0.0028494305,-0.82096165,0.0007939786,-0.0072956784,-0.14970417,0.007749256,-0.00022873988,-0.004509409,0.02819955,0.028199533,0.06507362,2.4362029e-05,2.4356854e-05,0.00035562168,0.006517289,0.006517262,0.007905329,1,1,14,0
603460496,603459338,0.1170427,0.14932449,-3.492366,0.5710483,-0.00014932116,0.0028211062,-0.8209116,0.0039061992,-0.0074531916,-0.14912327,-0.0077887117,-0.016957548,0.02153461,0.028359072,0.028359056,0.06536364,2.4409896e-05,2.44049e-05,0.00035447584,0.0065661217,0.0065660933,0.007941323,1,1,14,0
603470516,603469220,0.11678753,0.1487353,-3.4924006,0.57104844,-0.0001336155,0.0029227487,-0.8209113,3.1751e-05,-0.006582367,-0.15004529,-0.013833826,0.02509944,-0.013745138,0.028520139,0.028520122,0.06565551,2.4459468e-05,2.4454414e-05,0.00035465183,0.0066151856,0.006615165,0.007977423,1,1,14,0
603480203,603479107,0.116494484,0.14816369,-3.4924927,0.57095677,-6.469736e-05,0.0028702794,-0.82097524,-0.0021619243,-0.006531412,-0.14926861,0.0258326,0.004120884,-0.020419735,0.028682763,0.028682744,0.065949224,2.4510367e-05,2.4505209e-05,0.0003548305,0.006663532,0.0066635036,0.0080136135,1,1,14,0
603490180,603488996,0.116228245,0.14760426,-3.4926364,0.5709994,-3.474316e-05,0.0027885502,-0.82094586,0.0010392581,-0.008551575,-0.14947957,0.01618737,-0.015393025,0.019002503,0.02884695,0.02884693,0.066244796,2.4559653e-05,2.455458e-05,0.00035500573,0.0067124995,0.006712471,0.008049904,1,1,14,0
603500539,603498864,0.11598763,0.14705431,-3.4926696,0.5710651,-0.00011351079,0.0028405273,-0.8208999,0.0017581767,-0.0071677873,-0.15019189,-0.027383357,0.00588734,0.0062663024,0.029012717,0.029012697,0.06618274,2.4609097e-05,2.4603925e-05,0.00035518088,0.006762747,0.0067627225,0.008067777,1,1,14,0
603510389,603508746,0.11572827,0.14652644,-3.492767,0.5709768,-0.00011054008,0.0028896364,-0.8209612,-0.0028078835,-0.0074714315,-0.15075877,0.00094303186,0.0008325713,-0.029093072,0.029180083,0.029180063,0.06648045,2.4660454e-05,2.4655157e-05,0.00035536065,0.006812863,0.00681284,0.008104236,1,1,14,0
603519907,603518627,0.11546312,0.14601381,-3.4929187,0.5709547,-0.00010256521,0.0028663112,-0.8209767,-0.0011532505,-0.0083480645,-0.1501118,0.0071475995,-0.004481285,0.0027966218,0.02934906,0.02934904,0.06678005,2.4710258e-05,2.4705043e-05,0.0003555374,0.006861933,0.006861902,0.0081407875,1,1,14,0
603529855,603528509,0.11522544,0.14551203,-3.4931169,0.5710354,-0.0001706007,0.0028602802,-0.8209204,0.0011583909,-0.007243448,-0.14937873,-0.01611195,-0.00479128,0.01832843,0.029519653,0.029519632,0.06708154,2.4758407e-05,2.4753395e-05,0.0003544049,0.006912252,0.0069122235,0.008177445,1,1,14,0
603539766,603538390,0.11497551,0.14503391,-3.4933705,0.5709979,-0.00012858931,0.002932186,-0.8209463,-0.0034628992,-0.007676388,-0.15067956,0.0054237302,0.011595626,-0.020799913,0.02969188,0.02969186,0.067384936,2.4809673e-05,2.4804562e-05,0.00035458323,0.0069629704,0.006962945,0.0082142055,1,1,14,0
603549917,603548271,0.114711866,0.14457016,-3.493676,0.57093954,-6.074659e-05,0.002853054,-0.8209872,-0.0026028855,-0.007559252,-0.14971736,0.024459513,-0.0019615765,-0.0071034417,0.02986576,0.02986574,0.067690246,2.4860803e-05,2.4855663e-05,0.00035476178,0.00701352,0.0070134914,0.008251061,1,1,14,0
603559270,603558153,0.11447599,0.14411597,-3.4940305,0.5709973,-9.149575e-05,0.0027988157,-0.8209471,0.00047243334,-0.008699411,-0.15063304,-0.0052813473,-0.0125894025,0.019393027,0.0300413,0.03004128,0.06799748,2.490933e-05,2.4904379e-05,0.0003549351,0.007064341,0.007064314,0.008288016,1,1,14,0
603570256,603568035,0.11462027,0.1436123,-3.4940271,0.57100606,-0.00016017158,0.0029031404,-0.8209408,-0.0008612655,-0.007803785,-0.15106934,-0.021960331,0.005060563,-0.006807166,0.028099336,0.028099319,0.06486783,2.4335368e-05,2.4330098e-05,0.0003551108,0.006490522,0.0064905006,0.007881823,1,1,14,0
603578901,603577916,0.11473073,0.14313011,-3.4940789,0.5709389,-0.000115361094,0.002934937,-0.82098734,-0.003652156,-0.008104114,-0.15028708,0.010145077,0.0065121935,-0.0141167175,0.028257918,0.0282579,0.065156564,2.4386842e-05,2.4381532e-05,0.00035529162,0.0065389257,0.0065389043,0.007917756,1,1,14,0
603588942,603587803,0.11484268,0.14265816,-3.494178,0.57096255,-0.000117001284,0.0028662009,-0.82097113,-0.000675183,-0.008818112,-0.14943966,0.0058173235,-0.010697688,0.011024912,0.028418036,0.028418018,0.06544714,2.4435523e-05,2.4430301e-05,0.0003554665,0.0065876637,0.0065876343,0.007953784,1,1,14,0
603598847,603597679,0.1149687,0.14220074,-3.4943295,0.5710024,-0.00016748997,0.0028892497,-0.8209433,-0.0002625789,-0.007977777,-0.14972857,-0.016743444,0.005334891,0.0018633017,0.028579703,0.028579684,0.06573956,2.4483048e-05,2.4477888e-05,0.00035431664,0.006636228,0.0066362056,0.007989919,1,1,14,0
603608828,603607561,0.11506301,0.14176765,-3.4945416,0.5709337,-9.922445e-05,0.0029335727,-0.8209909,-0.004274667,-0.0070194565,-0.1502834,0.01374151,0.013504971,-0.020907959,0.028742926,0.028742908,0.066033825,2.4534751e-05,2.452949e-05,0.00035449662,0.0066856826,0.0066856584,0.008026154,1,1,14,0
603618550,603617443,0.11514521,0.14134528,-3.4947994,0.5709303,-5.9906215e-05,0.0028157795,-0.8209938,-0.0019586005,-0.0082121575,-0.1489073,0.020474289,-0.010534888,0.006169222,0.028907726,0.028907707,0.06632996,2.4584997e-05,2.4579755e-05,0.00035467386,0.006734789,0.0067347605,0.008062484,1,1,14,0
603628536,603627323,0.11525647,0.14092797,-3.4948914,0.57099533,-0.00012765876,0.0028373108,-0.82094836,0.002043337,-0.008722108,-0.14835533,-0.026697364,-0.0050470647,0.013394458,0.02907411,0.029074091,0.06626754,2.4633131e-05,2.4628032e-05,0.0003548468,0.006783882,0.006783859,0.0080803195,1,1,14,0
603639041,603637205,0.11536386,0.1405288,-3.495041,0.5709543,-0.00015633895,0.0029618193,-0.8209765,-0.0030804828,-0.007592356,-0.14889483,-0.008022278,0.007694633,-0.017789198,0.02924209,0.029242072,0.06656582,2.468404e-05,2.4678722e-05,0.00035502473,0.00683415,0.006834125,0.008116816,1,1,14,0
603648410,603647086,0.11542959,0.14015093,-3.4952483,0.5709118,-0.00010323673,0.00289696,-0.82100624,-0.003424379,-0.007672952,-0.1490961,0.021446662,-0.0036364521,-0.0046752095,0.029411688,0.02941167,0.06686597,2.4735125e-05,2.4729814e-05,0.00035520393,0.0068840133,0.0068839877,0.008153411,1,1,14,0
603657991,603656968,0.11552137,0.13978437,-3.4954927,0.57096434,-0.00011261462,0.0028116994,-0.8209702,0.0015066918,-0.0076059746,-0.14731428,0.0019995372,-0.00833427,0.012970876,0.029582912,0.029582893,0.06716803,2.478382e-05,2.4778661e-05,0.00035537806,0.006934553,0.0069345245,0.008190102,1,1,14,0
603668744,603666850,0.11562394,0.13943088,-3.4957848,0.57096076,-0.00013830834,0.0029232544,-0.82097226,-0.0012817752,-0.0070488835,-0.14748694,-0.016283289,0.015542648,-0.0074803997,0.029755779,0.02975576,0.06747199,2.4832934e-05,2.482772e-05,0.0003542305,0.0069850776,0.006985052,0.0082268985,1,1,14,0
603678008,603676731,0.115679815,0.1390934,-3.4961302,0.57090646,-6.836448e-05,0.002884299,-0.82101005,-0.004938492,-0.007356335,-0.14807706,0.022266941,-0.003280381,-0.014949231,0.029930301,0.02993028,0.067777865,2.488456e-05,2.4879202e-05,0.0003544094,0.0070358077,0.007035781,0.008263795,1,1,14,0
603688542,603686612,0.1154922,0.13866155,-3.4962122,0.5709288,-5.7937625e-05,0.0027891102,-0.82099485,-0.0012841816,-0.0087560695,-0.14701736,0.00752947,-0.012662304,0.008533089,0.028005471,0.028005457,0.06501412,2.4314151e-05,2.4308942e-05,0.0003545852,0.0064668525,0.0064668274,0.007877651,1,1,14,0
603697663,603696494,0.11534717,0.1382337,-3.496135,0.5709624,-0.00014726669,0.0029078107,-0.8209711,0.0013226311,-0.007947204,-0.14759015,-0.03675471,0.008928114,0.002691999,0.028163206,0.02816319,0.064956896,2.4362911e-05,2.4357763e-05,0.00035475972,0.006514827,0.006514805,0.007896067,1,1,14,0
603707521,603706375,0.115168355,0.13783005,-3.4961247,0.5709268,-0.000111342815,0.0029521512,-0.8209957,-0.0056821257,-0.007191995,-0.1490717,0.008710839,0.0052780206,-0.014131908,0.028322466,0.02832245,0.06524625,2.4414147e-05,2.4408782e-05,0.00035493902,0.006563538,0.006563519,0.007932047,1,1,14,0
603717318,603716257,0.11497733,0.13744242,-3.4961677,0.570906,-7.979004e-05,0.0028591636,-0.82101053,-0.0033329197,-0.0075396793,-0.14700623,0.016832659,-0.0066532143,-0.0017732136,0.028483268,0.028483253,0.06553743,2.4463714e-05,2.4458493e-05,0.00035511586,0.006611891,0.0066118664,0.007968122,1,1,14,0
603727297,603726138,0.11482547,0.13705881,-3.4962544,0.57094413,-0.00016638997,0.002872198,-0.8209838,0.00090362463,-0.007876423,-0.14611183,-0.025095014,-0.0116972495,0.01068452,0.028645622,0.028645607,0.06583047,2.4512112e-05,2.450699e-05,0.00035528958,0.006660249,0.006660227,0.008004297,1,1,14,0
603737238,603736020,0.11466761,0.1367025,-3.496398,0.57093596,-0.000111746675,0.0029485328,-0.82098925,-0.004392642,-0.0065944316,-0.1478631,0.0059670443,0.015358652,-0.008202578,0.028809536,0.028809521,0.06612537,2.4562116e-05,2.4556834e-05,0.00035414586,0.006709602,0.0067095803,0.008040578,1,1,14,0
603747053,603745901,0.11448196,0.13635775,-3.4965987,0.5708991,-6.150883e-05,0.0028507828,-0.8210153,-0.0041483776,-0.0067229555,-0.14641306,0.022683466,-0.007221075,-0.008821389,0.028975032,0.028975017,0.066422135,2.4612757e-05,2.460749e-05,0.0003543239,0.0067593367,0.0067593134,0.008076955,1,1,14,0
603756873,603755782,0.114328675,0.1360175,-3.4966176,0.57091373,-0.00010058499,0.002836927,-0.8210052,1.1772645e-05,-0.007892346,-0.14643048,-0.012149808,-0.011462665,0.008550193,0.029142125,0.02914211,0.06635934,2.4661378e-05,2.4656289e-05,0.00035449796,0.0068082027,0.006808181,0.008094752,1,1,14,0
603766657,603765664,0.11419107,0.13569582,-3.4966967,0.5709418,-0.00013126523,0.0029527133,-0.82098526,-0.0033222234,-0.0058719264,-0.14718665,-0.015116335,0.011193568,0.0016235547,0.029310819,0.029310804,0.06665824,2.4711613e-05,2.4706374e-05,0.00035467427,0.0068578417,0.006857819,0.008131294,1,1,14,0
603776623,603775546,0.11401303,0.13538893,-3.4968362,0.5708955,-9.751452e-05,0.002932347,-0.8210175,-0.005369825,-0.006936311,-0.1473035,0.013098725,-0.0033255557,-0.012486423,0.02948113,0.029481115,0.06695904,2.4762763e-05,2.4757459e-05,0.00035485308,0.006908596,0.0069085737,0.008167935,1,1,14,0
603786501,603785427,0.11384902,0.13508773,-3.4970229,0.5708909,-0.00010688015,0.0028868015,-0.8210209,-0.0026625239,-0.007227733,-0.14690511,-0.0018968321,-0.005569531,0.0014011165,0.029653078,0.029653063,0.06726173,2.4812187e-05,2.4807045e-05,0.0003550288,0.00695864,0.0069586104,0.008204669,1,1,14,0
603796528,603795309,0.113710836,0.13479324,-3.4972603,0.57093614,-0.00015413768,0.0029488544,-0.8209892,-0.0023299046,-0.0074126814,-0.14640896,-0.0136471735,0.00032666448,0.008192084,0.02982667,0.029826656,0.067566335,2.4861776e-05,2.4856598e-05,0.0003552037,0.0070091495,0.007009126,0.008241507,1,1,14,0
603806478,603805190,0.113541216,0.13451993,-3.4975543,0.57090116,-9.6413234e-05,0.0029427225,-0.8210135,-0.006502527,-0.0060767615,-0.14818597,0.009243307,0.013629256,-0.01668015,0.030001923,0.030001909,0.06787285,2.4912091e-05,2.4906773e-05,0.000354065,0.007061051,0.007061029,0.008278451,1,1,14,0
603817189,603815072,0.11341471,0.133785,-3.4976547,0.5708635,-8.0097634e-05,0.00284592,-0.8210401,-0.0043510054,-0.007943598,-0.14634533,0.013318064,-0.015353299,-0.007049581,0.028068524,0.02806851,0.06509988,2.4338442e-05,2.4333209e-05,0.00035424205,0.0064876885,0.0064876657,0.00789083,1,1,14,0
603826262,603824953,0.11332993,0.13306478,-3.4976153,0.57091373,-0.00014096925,0.002894538,-0.821005,-0.00010015798,-0.0076201707,-0.14598301,-0.02419628,0.0043741376,0.013460516,0.028226884,0.02822687,0.065042324,2.4387218e-05,2.4382138e-05,0.00035441655,0.006535414,0.0065353927,0.00790921,1,1,14,0
603836989,603834834,0.11323079,0.13237086,-3.4976346,0.5709143,-0.00012288497,0.0029677053,-0.82100433,-0.0062363297,-0.0074691945,-0.14777002,-0.0028323042,0.009658538,-0.009305481,0.028386774,0.028386757,0.06533225,2.443728e-05,2.4431949e-05,0.000354593,0.0065845465,0.006584526,0.007945232,1,1,14,0
603846453,603844716,0.11309848,0.13170005,-3.497714,0.5708558,-9.0648726e-05,0.0029008728,-0.8210453,-0.006229074,-0.0075480086,-0.14607246,0.020706603,-0.004492438,-0.01428783,0.028548213,0.028548196,0.06562401,2.4487636e-05,2.4482397e-05,0.0003547713,0.006633028,0.0066330056,0.007981348,1,1,14,0
603856595,603854597,0.11299864,0.13104402,-3.4978344,0.57088226,-0.00012955842,0.0028804855,-0.821027,-0.0016995326,-0.008352949,-0.145007,-0.009894693,-0.0066267466,0.013633695,0.02871121,0.028711192,0.06591763,2.453707e-05,2.4531933e-05,0.00035494726,0.0066818814,0.006681857,0.0080175605,1,1,14,0
603866810,603864479,0.112908214,0.1304077,-3.4980037,0.57091177,-0.00015896097,0.002949165,-0.8210062,-0.0041651884,-0.0073183216,-0.14588171,-0.011868598,0.0046740402,-0.0020308876,0.028875776,0.028875759,0.066213116,2.458657e-05,2.4581286e-05,0.00035512232,0.006731229,0.006731207,0.008053882,1,1,14,0
603876461,603874360,0.11278378,0.1297994,-3.4982293,0.5708522,-0.00011347024,0.0029054817,-0.8210477,-0.007050656,-0.0071901223,-0.14604753,0.020861546,0.0010315364,-0.01963234,0.02904193,0.029041912,0.06651047,2.4636436e-05,2.4631136e-05,0.00035397743,0.006781079,0.0067810547,0.008090299,1,1,14,0
603886254,603884242,0.11266935,0.1292046,-3.4982722,0.57084596,-0.00011638744,0.0028499428,-0.8210523,-0.0032355662,-0.007905048,-0.1459702,0.0047212085,-0.007490961,0.0056362543,0.029209685,0.029209668,0.0664473,2.4686376e-05,2.4681176e-05,0.0003541539,0.0068306094,0.006830583,0.008108063,1,1,14,0
603895962,603894123,0.11259323,0.12862638,-3.4983733,0.57091886,-0.00015880197,0.002894225,-0.82100147,-0.0013526091,-0.007949041,-0.14705157,-0.020178476,0.0021874653,0.011648293,0.029379051,0.029379034,0.0667468,2.4735516e-05,2.4730298e-05,0.000354328,0.006880302,0.0068802754,0.00814464,1,1,14,0
603906085,603904005,0.11248799,0.1280669,-3.498538,0.57087415,-0.000146163,0.0029330088,-0.8210324,-0.006838644,-0.007561446,-0.14781673,0.006271458,0.008737251,-0.018904971,0.02955004,0.029550023,0.06704819,2.4786323e-05,2.4781004e-05,0.00035450573,0.006931284,0.006931262,0.008181323,1,1,14,0
603915710,603913886,0.11236172,0.12752396,-3.4987583,0.57081497,-0.00011943359,0.0028797092,-0.82107365,-0.0057305684,-0.007709668,-0.1471424,0.012040647,-0.0024364314,-0.008457245,0.029722674,0.029722657,0.06735148,2.483703e-05,2.4831865e-05,0.00035468393,0.0069814185,0.006981389,0.008218098,1,1,14,0
603925604,603923768,0.11227468,0.1269962,-3.4990203,0.5708901,-0.00012416429,0.002891498,-0.8210213,-0.0012119168,-0.008517713,-0.14719287,-0.016206054,0.0034531648,0.019897336,0.029896958,0.029896941,0.06765669,2.4886205e-05,2.4881065e-05,0.00035485814,0.007031734,0.00703171,0.008254975,1,1,14,0
603935888,603933649,0.11218654,0.12648083,-3.4993434,0.5709018,-0.00013821622,0.002951785,-0.82101315,-0.0056420835,-0.0078036804,-0.14861295,-0.00481975,0.0061959764,-0.009400179,0.030072905,0.030072888,0.067963816,2.4936588e-05,2.4931265e-05,0.0003550345,0.0070836484,0.0070836223,0.008291958,1,1,14,0
603946820,603943531,0.11211768,0.12594162,-3.4994771,0.5708094,-9.117535e-05,0.0028935284,-0.82107747,-0.0071187126,-0.008113978,-0.14894103,0.016995175,0.002238703,-0.023960453,0.028128225,0.02812821,0.065182075,2.435877e-05,2.4353469e-05,0.00035388465,0.0065066554,0.0065066325,0.007902968,1,1,14,0
603954486,603953412,0.11207434,0.125418,-3.4994628,0.57085055,-0.00010078454,0.0028185747,-0.82104915,-0.0017353867,-0.009169008,-0.14748159,0.0017343631,-0.015055282,0.01678678,0.02828716,0.028287144,0.065124184,2.4407815e-05,2.4402616e-05,0.0003540596,0.0065544536,0.00655443,0.0079213185,1,1,14,0
603964311,603963293,0.112057105,0.124904245,-3.4995067,0.5709043,-0.00018602601,0.0029323557,-0.82101136,-0.0037811538,-0.008733824,-0.14873171,-0.027548742,0.00316802,0.0032866609,0.028447628,0.028447613,0.06541465,2.4457042e-05,2.4451767e-05,0.00035423433,0.006603282,0.0066032596,0.007957374,1,1,14,0
603974251,603973175,0.11199294,0.12441402,-3.4996147,0.570826,-0.00019399534,0.0029178176,-0.82106596,-0.0076426277,-0.007271104,-0.14891826,0.009063522,0.0015583851,-0.025221214,0.028609648,0.028609633,0.06570697,2.4507965e-05,2.4502675e-05,0.0003544133,0.0066524134,0.0066523924,0.007993529,1,1,14,0
603984193,603983056,0.111927904,0.123950765,-3.4997742,0.5708237,-0.00011370602,0.0028162212,-0.8210679,-0.004174926,-0.007767886,-0.1486267,0.027119868,-0.0056251585,0.010166117,0.028773235,0.02877322,0.06600114,2.4557821e-05,2.4552632e-05,0.00035458992,0.0067014755,0.0067014517,0.008029778,1,1,14,0
603994256,603992938,0.111909136,0.123494394,-3.499987,0.57089907,-0.0001514267,0.002895475,-0.82101524,-0.0015927698,-0.008714396,-0.14847578,-0.025292043,0.0051208376,0.015121437,0.0289384,0.028938385,0.06629717,2.4606275e-05,2.4601077e-05,0.0003547632,0.0067510246,0.006751003,0.008066129,1,1,14,0
604003903,604002819,0.111861005,0.123051494,-3.5002582,0.57085663,-0.00015204475,0.0029538325,-0.82104456,-0.007579624,-0.0068010837,-0.15027538,0.00032761,0.00871159,-0.020776937,0.029105155,0.02910514,0.06659508,2.4657234e-05,2.4651927e-05,0.0003549416,0.0068010394,0.0068010176,0.008102586,1,1,14,0
604013861,604012701,0.111778915,0.12263745,-3.500582,0.5708044,-3.479314e-05,0.0028364926,-0.82108116,-0.007615289,-0.007503812,-0.1500297,0.03415959,0.0013475487,-0.008680655,0.02927352,0.029273503,0.066894874,2.4707506e-05,2.4702245e-05,0.00035380226,0.0068507614,0.0068507385,0.008139137,1,1,14,0
604023651,604022582,0.11174002,0.12221864,-3.5007336,0.5708647,-0.00010997049,0.0028400258,-0.82103926,-0.00028082193,-0.009419982,-0.14878637,-0.0314864,-0.010718807,0.016024828,0.029443499,0.029443482,0.066829965,2.4756013e-05,2.475073e-05,0.00035397508,0.0069006723,0.0069006504,0.008156728,1,1,14,0
604034233,604032464,0.11171491,0.12180738,-3.500946,0.5708775,-0.00021445162,0.0029752038,-0.8210299,-0.004685534,-0.00822096,-0.15129218,-0.023828331,0.0013017515,-0.005031827,0.029615108,0.029615091,0.0671319,2.4805955e-05,2.4800582e-05,0.00035415057,0.0069516366,0.0069516134,0.008193445,1,1,14,0
