timestamp,timestamp_sample,gps_hvel[0],gps_hvel[1],gps_vvel,gps_hpos[0],gps_hpos[1],gps_vpos,ev_hvel[0],ev_hvel[1],ev_vvel,ev_hpos[0],ev_hpos[1],ev_vpos,rng_vpos,baro_vpos,aux_hvel[0],aux_hvel[1],aux_vvel,flow[0],flow[1],terr_flow[0],terr_flow[1],heading,mag_field[0],mag_field[1],mag_field[2],gravity[0],gravity[1],gravity[2],drag[0],drag[1],airspeed,beta,hagl,hagl_rate
603054059,602953039,0.042881843,0.059577312,-0.29137203,-0.026001945,0.1112324,0.079598665,-0.0019314832,-0.029347058,-0.21908785,0.008529291,-0.02817884,-3.3456511,0.0,-0.9068935,0.0,0.0,,0.0,0.0,0.0,0.0,-0.027704597,0.09491762,-0.19103813,0.22318256,0.00072493206,-0.0036523272,-4.27323e-06,0.0,0.0,0.0,0.0,0.0,0.0
603064713,602963055,-0.0791789,-0.0909589,-0.23832716,-0.04035338,0.09918162,0.10880971,-0.0019314832,-0.029347058,-0.21908785,0.008529291,-0.02817884,-3.3456511,0.0,-0.9068935,0.0,0.0,,0.0,0.0,0.0,0.0,-0.027704597,0.09491762,-0.19103813,0.22318256,-0.008629721,0.0134433275,-2.3853796e-05,0.0,0.0,0.0,0.0,0.0,0.0
603073869,602973071,-0.0791789,-0.0909589,-0.23832716,-0.04035338,0.09918162,0.10880971,-0.0019314832,-0.029347058,-0.21908785,0.008529291,-0.02817884,-3.3456511,0.0,-0.9068935,0.0,0.0,,0.0,0.0,0.0,0.0,-0.027704597,0.09491762,-0.19103813,0.22318256,0.014583129,-0.0027701217,2.9811965e-05,0.0,0.0,0.0,0.0,0.0,0.0
603083899,602983087,-0.0791789,-0.0909589,-0.23832716,-0.04035338,0.09918162,0.10880971,-0.0019314832,-0.029347058,-0.21908785,0.008529291,-0.02817884,-3.3456511,0.0,-0.9068935,0.0,0.0,,0.0,0.0,0.0,0.0,-0.027704597,0.09491762,-0.19103813,0.22318256,-0.0055496357,0.007322134,-1.4412919e-05,0.0,0.0,0.0,0.0,0.0,0.0
603094402,602993103,-0.0791789,-0.0909589,-0.23832716,-0.04035338,0.09918162,0.10880971,-0.0019314832,-0.029347058,-0.21908785,0.008529291,-0.02817884,-3.3456511,0.0,-0.9068935,0.0,0.0,,0.0,0.0,0.0,0.0,-0.027704597,0.09491762,-0.19103813,0.22318256,-0.02198403,0.0064499085,-8.827878e-05,0.0,0.0,0.0,0.0,0.0,0.0
603104366,603003119,-0.0791789,-0.0909589,-0.23832716,-0.04035338,0.09918162,0.10880971,-0.0019314832,-0.029347058,-0.21908785,0.008529291,-0.02817884,-3.3456511,0.0,-0.9068935,0.0,0.0,,0.0,0.0,0.0,0.0,-0.023059249,0.09746632,-0.19239704,0.22634745,-0.025843432,-0.017862296,-0.00015176933,0.0,0.0,0.0,0.0,0.0,0.0
603114342,603013134,-0.0791789,-0.0909589,-0.23832716,-0.04035338,0.09918162,0.10880971,-0.0019314832,-0.029347058,-0.21908785,0.008529291,-0.02817884,-3.3456511,0.0,-0.8337815,0.0,0.0,,0.0,0.0,0.0,0.0,-0.023059249,0.09746632,-0.19239704,0.22634745,-0.015432705,-0.013515852,-8.5382744e-05,0.0,0.0,0.0,0.0,0.0,0.0
603124214,603023150,-0.0791789,-0.0909589,-0.23832716,-0.04035338,0.09918162,0.10880971,-0.0019314832,-0.029347058,-0.21908785,0.008529291,-0.02817884,-3.3456511,0.0,-0.8337815,0.0,0.0,,0.0,0.0,0.0,0.0,-0.023059249,0.09746632,-0.19239704,0.22634745,-0.031816363,0.011932363,-0.00014352737,0.0,0.0,0.0,0.0,0.0,0.0
603134086,603033174,-0.0791789,-0.0909589,-0.23832716,-0.04035338,0.09918162,0.10880971,-0.0019314832,-0.029347058,-0.21908785,0.008529291,-0.02817884,-3.3456511,0.0,-0.8337815,0.0,0.0,,0.0,0.0,0.0,0.0,-0.023059249,0.09746632,-0.19239704,0.22634745,-0.08835479,-0.106083766,-0.0013693783,0.0,0.0,0.0,0.0,0.0,0.0
603144173,603043182,-0.0791789,-0.0909589,-0.23832716,-0.04035338,0.09918162,0.10880971,0.0044455095,-0.026094638,-0.22143897,0.017461948,-0.025745168,-3.3454838,0.0,-0.8337815,0.0,0.0,,0.0,0.0,0.0,0.0,-0.023059249,0.09746632,-0.19239704,0.22634745,0.1361439,0.12691933,-0.0011951727,0.0,0.0,0.0,0.0,0.0,0.0
603154148,603053198,-0.0791789,-0.0909589,-0.23832716,-0.04035338,0.09918162,0.10880971,0.0044455095,-0.026094638,-0.22143897,0.017461948,-0.025745168,-3.3454838,0.0,-0.8337815,0.0,0.0,,0.0,0.0,0.0,0.0,-0.023059249,0.09746632,-0.19239704,0.22634745,0.0034396586,0.08783696,-0.00030020773,0.0,0.0,0.0,0.0,0.0,0.0
603164113,603063213,-0.0791789,-0.0909589,-0.23832716,-0.04035338,0.09918162,0.10880971,0.0044455095,-0.026094638,-0.22143897,0.017461948,-0.025745168,-3.3454838,0.0,-0.8337815,0.0,0.0,,0.0,0.0,0.0,0.0,-0.023059249,0.09746632,-0.19239704,0.22634745,0.1446019,-0.11088531,-0.0013441062,0.0,0.0,0.0,0.0,0.0,0.0
603174443,603073230,-0.0791789,-0.0909589,-0.23832716,-0.04035338,0.09918162,0.10880971,0.0044455095,-0.026094638,-0.22143897,0.017461948,-0.025745168,-3.3454838,0.0,-0.9719832,0.0,0.0,,0.0,0.0,0.0,0.0,-0.021718979,0.09595576,-0.1886632,0.22161481,-0.3973049,-0.0852653,-0.009801345,0.0,0.0,0.0,0.0,0.0,0.0
603184341,603083245,-0.0791789,-0.0909589,-0.23832716,-0.04035338,0.09918162,0.10880971,0.004842455,-0.028019566,-0.2264823,0.016810313,-0.025556281,-3.3490565,0.0,-0.9719832,0.0,0.0,,0.0,0.0,0.0,0.0,-0.021718979,0.09595576,-0.1886632,0.22161481,0.19076039,-0.0045514796,-0.0012224718,0.0,0.0,0.0,0.0,0.0,0.0
603194346,603093261,-0.0791789,-0.0909589,-0.23832716,-0.04035338,0.09918162,0.10880971,0.004842455,-0.028019566,-0.2264823,0.016810313,-0.025556281,-3.3490565,0.0,-0.9719832,0.0,0.0,,0.0,0.0,0.0,0.0,-0.021718979,0.09595576,-0.1886632,0.22161481,-0.021386726,0.020948118,-9.145442e-05,0.0,0.0,0.0,0.0,0.0,0.0
603204370,603103278,-0.0791789,-0.0909589,-0.23832716,-0.04035338,0.09918162,0.10880971,0.004842455,-0.028019566,-0.2264823,0.016810313,-0.025556281,-3.3490565,0.0,-0.9719832,0.0,0.0,,0.0,0.0,0.0,0.0,-0.021718979,0.09595576,-0.1886632,0.22161481,-0.18869685,0.24938229,-0.00527117,0.0,0.0,0.0,0.0,0.0,0.0
603214765,603113293,0.07938924,0.035964556,-0.24201155,-0.008482441,0.116454326,0.11046815,-0.0044422457,-0.03143332,-0.22310352,0.008935995,-0.033581153,-3.340936,0.0,-0.9719832,0.0,0.0,,0.0,0.0,0.0,0.0,-0.021718979,0.09595576,-0.1886632,0.22161481,0.015747024,-0.06644508,-0.00028803875,0.0,0.0,0.0,0.0,0.0,0.0
603224204,603123308,0.07938924,0.035964556,-0.24201155,-0.008482441,0.116454326,0.11046815,-0.0044422457,-0.03143332,-0.22310352,0.008935995,-0.033581153,-3.340936,0.0,-0.9719832,0.0,0.0,,0.0,0.0,0.0,0.0,-0.021718979,0.09595576,-0.1886632,0.22161481,0.17047763,-0.011499328,-0.0010322611,0.0,0.0,0.0,0.0,0.0,0.0
603234463,603133324,0.07938924,0.035964556,-0.24201155,-0.008482441,0.116454326,0.11046815,-0.0044422457,-0.03143332,-0.22310352,0.008935995,-0.033581153,-3.340936,0.0,-0.9719832,0.0,0.0,,0.0,0.0,0.0,0.0,-0.021718979,0.09595576,-0.1886632,0.22161481,-0.0070006363,-0.081898026,-0.0004648127,0.0,0.0,0.0,0.0,0.0,0.0
603244463,603143343,0.07938924,0.035964556,-0.24201155,-0.008482441,0.116454326,0.11046815,-0.0031082781,-0.030775025,-0.2249324,0.008408926,-0.03283742,-3.3424313,0.0,-0.9568541,0.0,0.0,,0.0,0.0,0.0,0.0,-0.019709468,0.097614326,-0.19017401,0.22356579,0.047224805,0.12813993,-0.000641471,0.0,0.0,0.0,0.0,0.0,0.0
603254271,603153356,0.07938924,0.035964556,-0.24201155,-0.008482441,0.116454326,0.11046815,-0.0031082781,-0.030775025,-0.2249324,0.008408926,-0.03283742,-3.3424313,0.0,-0.9568541,0.0,0.0,,0.0,0.0,0.0,0.0,-0.019709468,0.097614326,-0.19017401,0.22356579,-0.08234683,-0.19015612,-0.0026988075,0.0,0.0,0.0,0.0,0.0,0.0
603264171,603163372,0.07938924,0.035964556,-0.24201155,-0.008482441,0.116454326,0.11046815,-0.0031082781,-0.030775025,-0.2249324,0.008408926,-0.03283742,-3.3424313,0.0,-0.9568541,0.0,0.0,,0.0,0.0,0.0,0.0,-0.019709468,0.097614326,-0.19017401,0.22356579,-0.022518808,0.06821719,-0.00024049862,0.0,0.0,0.0,0.0,0.0,0.0
603274637,603173388,0.07938924,0.035964556,-0.24201155,-0.008482441,0.116454326,0.11046815,-0.002240996,-0.03101095,-0.22868744,0.007902406,-0.032176584,-3.3491716,0.0,-0.9568541,0.0,0.0,,0.0,0.0,0.0,0.0,-0.019709468,0.097614326,-0.19017401,0.22356579,-0.18359417,0.14653178,-0.003176074,0.0,0.0,0.0,0.0,0.0,0.0
603284432,603183404,0.07938924,0.035964556,-0.24201155,-0.008482441,0.116454326,0.11046815,-0.002240996,-0.03101095,-0.22868744,0.007902406,-0.032176584,-3.3491716,0.0,-0.9568541,0.0,0.0,,0.0,0.0,0.0,0.0,-0.019709468,0.097614326,-0.19017401,0.22356579,0.1294432,-0.050572213,-0.0006697626,0.0,0.0,0.0,0.0,0.0,0.0
603294453,603193420,0.07938924,0.035964556,-0.24201155,-0.008482441,0.116454326,0.11046815,-0.002240996,-0.03101095,-0.22868744,0.007902406,-0.032176584,-3.3491716,0.0,-0.9568541,0.0,0.0,,0.0,0.0,0.0,0.0,-0.019709468,0.097614326,-0.19017401,0.22356579,0.05098831,-0.14170106,-0.0011749245,0.0,0.0,0.0,0.0,0.0,0.0
603304511,603203435,0.07938924,0.035964556,-0.24201155,-0.008482441,0.116454326,0.11046815,-0.002240996,-0.03101095,-0.22868744,0.007902406,-0.032176584,-3.3491716,0.0,-1.0683272,0.0,0.0,,0.0,0.0,0.0,0.0,-0.019709468,0.097614326,-0.19017401,0.22356579,-0.100742646,0.046789505,-0.0008458564,0.0,0.0,0.0,0.0,0.0,0.0
603315393,603213451,-0.051114496,-0.08264439,-0.24354813,-0.027044713,0.11618139,0.14338946,0.001376478,-0.027133467,-0.2242434,0.013302021,-0.029306754,-3.3385937,0.0,-1.0683272,0.0,0.0,,0.0,0.0,0.0,0.0,-0.025460362,0.09506764,-0.18954957,0.22586206,-0.011538298,-0.0002031643,-4.455238e-05,0.0,0.0,0.0,0.0,0.0,0.0
603324289,603223467,-0.051114496,-0.08264439,-0.24354813,-0.027044713,0.11618139,0.14338946,0.001376478,-0.027133467,-0.2242434,0.013302021,-0.029306754,-3.3385937,0.0,-1.0683272,0.0,0.0,,0.0,0.0,0.0,0.0,-0.025460362,0.09506764,-0.18954957,0.22586206,0.204281,0.034973778,-0.0015028585,0.0,0.0,0.0,0.0,0.0,0.0
603334533,603233492,-0.051114496,-0.08264439,-0.24354813,-0.027044713,0.11618139,0.14338946,0.001376478,-0.027133467,-0.2242434,0.013302021,-0.029306754,-3.3385937,0.0,-1.0683272,0.0,0.0,,0.0,0.0,0.0,0.0,-0.025460362,0.09506764,-0.18954957,0.22586206,-0.11055987,-0.021092217,-0.0010421578,0.0,0.0,0.0,0.0,0.0,0.0
603344337,603243504,-0.051114496,-0.08264439,-0.24354813,-0.027044713,0.11618139,0.14338946,0.00021780792,-0.02660356,-0.22675472,0.01269567,-0.028726846,-3.345264,0.0,-1.0683272,0.0,0.0,,0.0,0.0,0.0,0.0,-0.025460362,0.09506764,-0.18954957,0.22586206,-0.11462056,0.029071953,-0.0010537596,0.0,0.0,0.0,0.0,0.0,0.0
603354285,603253514,-0.051114496,-0.08264439,-0.24354813,-0.027044713,0.11618139,0.14338946,0.00021780792,-0.02660356,-0.22675472,0.01269567,-0.028726846,-3.345264,0.0,-1.0683272,0.0,0.0,,0.0,0.0,0.0,0.0,-0.025460362,0.09506764,-0.18954957,0.22586206,-0.06552763,0.023751153,-0.0004283897,0.0,0.0,0.0,0.0,0.0,0.0
603364342,603263530,-0.051114496,-0.08264439,-0.24354813,-0.027044713,0.11618139,0.14338946,0.00021780792,-0.02660356,-0.22675472,0.01269567,-0.028726846,-3.345264,0.0,-1.0683272,0.0,0.0,,0.0,0.0,0.0,0.0,-0.025460362,0.09506764,-0.18954957,0.22586206,0.17468922,-0.044949207,-0.0011568156,0.0,0.0,0.0,0.0,0.0,0.0
603374724,603273547,-0.051114496,-0.08264439,-0.24354813,-0.027044713,0.11618139,0.14338946,0.00021780792,-0.02660356,-0.22675472,0.01269567,-0.028726846,-3.345264,0.0,-1.0194552,0.0,0.0,,0.0,0.0,0.0,0.0,-0.025460362,0.09506764,-0.18954957,0.22586206,-0.20223123,-0.09311929,-0.003269423,0.0,0.0,0.0,0.0,0.0,0.0
603384758,603283563,-0.051114496,-0.08264439,-0.24354813,-0.027044713,0.11618139,0.14338946,0.00084518024,-0.027326971,-0.23046519,0.012129672,-0.028447554,-3.3488414,0.0,-1.0194552,0.0,0.0,,0.0,0.0,0.0,0.0,-0.02280128,0.0943161,-0.18630421,0.22329128,0.037779618,-0.035809502,-7.478522e-05,0.0,0.0,0.0,0.0,0.0,0.0
603394769,603293578,-0.051114496,-0.08264439,-0.24354813,-0.027044713,0.11618139,0.14338946,0.00084518024,-0.027326971,-0.23046519,0.012129672,-0.028447554,-3.3488414,0.0,-1.0194552,0.0,0.0,,0.0,0.0,0.0,0.0,-0.02280128,0.0943161,-0.18630421,0.22329128,0.07118178,0.2196763,-0.0022379463,0.0,0.0,0.0,0.0,0.0,0.0
603404774,603303593,-0.051114496,-0.08264439,-0.24354813,-0.027044713,0.11618139,0.14338946,0.00084518024,-0.027326971,-0.23046519,0.012129672,-0.028447554,-3.3488414,0.0,-1.0194552,0.0,0.0,,0.0,0.0,0.0,0.0,-0.02280128,0.0943161,-0.18630421,0.22329128,0.058096774,0.04889388,-5.6371573e-05,0.0,0.0,0.0,0.0,0.0,0.0
603414699,603313609,-0.051114496,-0.08264439,-0.24354813,-0.027044713,0.11618139,0.14338946,-0.00020762184,-0.027423734,-0.23185576,0.011561289,-0.027921066,-3.3557234,0.0,-1.0194552,0.0,0.0,,0.0,0.0,0.0,0.0,-0.02280128,0.0943161,-0.18630421,0.22329128,-0.11869494,-0.3411219,-0.007414971,0.0,0.0,0.0,0.0,0.0,0.0
603424478,603323625,-0.051114496,-0.08264439,-0.24354813,-0.027044713,0.11618139,0.14338946,-0.00020762184,-0.027423734,-0.23185576,0.011561289,-0.027921066,-3.3557234,0.0,-1.0194552,0.0,0.0,,0.0,0.0,0.0,0.0,-0.02280128,0.0943161,-0.18630421,0.22329128,-0.0042742295,0.03936683,-3.9462422e-05,0.0,0.0,0.0,0.0,0.0,0.0
603434524,603333641,-0.051114496,-0.08264439,-0.24354813,-0.027044713,0.11618139,0.14338946,-0.00020762184,-0.027423734,-0.23185576,0.011561289,-0.027921066,-3.3557234,0.0,-1.1624894,0.0,0.0,,0.0,0.0,0.0,0.0,-0.02280128,0.0943161,-0.18630421,0.22329128,0.10850054,0.3304543,-0.0054026595,0.0,0.0,0.0,0.0,0.0,0.0
603445324,603343657,0.1020146,-0.0072481036,-0.26611882,0.0012032762,0.12091604,0.13501716,-0.00020762184,-0.027423734,-0.23185576,0.011561289,-0.027921066,-3.3557234,0.0,-1.1624894,0.0,0.0,,0.0,0.0,0.0,0.0,-0.02280128,0.0943161,-0.18630421,0.22329128,-0.21162178,-0.08503652,-0.0034216624,0.0,0.0,0.0,0.0,0.0,0.0
603454881,603353672,0.1020146,-0.0072481036,-0.26611882,0.0012032762,0.12091604,0.13501716,-0.008096319,-0.028618535,-0.22457728,0.001455389,-0.032341808,-3.3426776,0.0,-1.1624894,0.0,0.0,,0.0,0.0,0.0,0.0,-0.02233231,0.096139014,-0.18930253,0.22456086,-0.010633921,-0.29310706,-0.0048271753,0.0,0.0,0.0,0.0,0.0,0.0
603464877,603363694,0.1020146,-0.0072481036,-0.26611882,0.0012032762,0.12091604,0.13501716,-0.008096319,-0.028618535,-0.22457728,0.001455389,-0.032341808,-3.3426776,0.0,-1.1624894,0.0,0.0,,0.0,0.0,0.0,0.0,-0.02233231,0.096139014,-0.18930253,0.22456086,0.11826884,0.14737643,-0.0012647599,0.0,0.0,0.0,0.0,0.0,0.0
603474790,603373705,0.1020146,-0.0072481036,-0.26611882,0.0012032762,0.12091604,0.13501716,-0.008096319,-0.028618535,-0.22457728,0.001455389,-0.032341808,-3.3426776,0.0,-1.1624894,0.0,0.0,,0.0,0.0,0.0,0.0,-0.02233231,0.096139014,-0.18930253,0.22456086,-0.009656705,0.25641918,-0.0030550458,0.0,0.0,0.0,0.0,0.0,0.0
603484811,603383720,0.1020146,-0.0072481036,-0.26611882,0.0012032762,0.12091604,0.13501716,-0.008019002,-0.029091049,-0.2279522,0.0011895746,-0.031702623,-3.3493934,0.0,-1.1624894,0.0,0.0,,0.0,0.0,0.0,0.0,-0.02233231,0.096139014,-0.18930253,0.22456086,-0.10405388,-0.38413915,-0.008913336,0.0,0.0,0.0,0.0,0.0,0.0
603494815,603393736,0.1020146,-0.0072481036,-0.26611882,0.0012032762,0.12091604,0.13501716,-0.008019002,-0.029091049,-0.2279522,0.0011895746,-0.031702623,-3.3493934,0.0,-1.1624894,0.0,0.0,,0.0,0.0,0.0,0.0,-0.02233231,0.096139014,-0.18930253,0.22456086,0.024989668,-0.035686053,-7.829977e-05,0.0,0.0,0.0,0.0,0.0,0.0
603504878,603403756,0.1020146,-0.0072481036,-0.26611882,0.0012032762,0.12091604,0.13501716,-0.008019002,-0.029091049,-0.2279522,0.0011895746,-0.031702623,-3.3493934,0.0,-0.75181174,0.0,0.0,,0.0,0.0,0.0,0.0,-0.02233231,0.096139014,-0.18930253,0.22456086,-0.0050027478,0.425415,-0.008577483,0.0,0.0,0.0,0.0,0.0,0.0
603514718,603413767,0.1020146,-0.0072481036,-0.26611882,0.0012032762,0.12091604,0.13501716,-0.007577562,-0.02938398,-0.2265887,0.0009196028,-0.03112021,-3.3521028,0.0,-0.75181174,0.0,0.0,,0.0,0.0,0.0,0.0,-0.02233231,0.096139014,-0.18930253,0.22456086,0.0006916826,-0.082056955,-0.00045479118,0.0,0.0,0.0,0.0,0.0,0.0
603524667,603423783,0.1020146,-0.0072481036,-0.26611882,0.0012032762,0.12091604,0.13501716,-0.007577562,-0.02938398,-0.2265887,0.0009196028,-0.03112021,-3.3521028,0.0,-0.75181174,0.0,0.0,,0.0,0.0,0.0,0.0,-0.007553816,0.09821762,-0.18275374,0.22229072,-0.10944837,-0.3423528,-0.007362533,0.0,0.0,0.0,0.0,0.0,0.0
603534808,603433799,0.1020146,-0.0072481036,-0.26611882,0.0012032762,0.12091604,0.13501716,-0.007577562,-0.02938398,-0.2265887,0.0009196028,-0.03112021,-3.3521028,0.0,-0.75181174,0.0,0.0,,0.0,0.0,0.0,0.0,-0.007553816,0.09821762,-0.18275374,0.22229072,0.06905946,0.124088205,-0.00064332597,0.0,0.0,0.0,0.0,0.0,0.0
603544708,603443815,0.1020146,-0.0072481036,-0.26611882,0.0012032762,0.12091604,0.13501716,-0.0070647905,-0.030194143,-0.22638892,0.00065898895,-0.030584946,-3.3588676,0.0,-0.75181174,0.0,0.0,,0.0,0.0,0.0,0.0,-0.007553816,0.09821762,-0.18275374,0.22229072,-0.027145533,0.24545245,-0.0028349499,0.0,0.0,0.0,0.0,0.0,0.0
603554979,603453831,0.1020146,-0.0072481036,-0.26611882,0.0012032762,0.12091604,0.13501716,-0.0070647905,-0.030194143,-0.22638892,0.00065898895,-0.030584946,-3.3588676,0.0,-0.75181174,0.0,0.0,,0.0,0.0,0.0,0.0,-0.007553816,0.09821762,-0.18275374,0.22229072,-0.035568055,-0.2999189,-0.005169263,0.0,0.0,0.0,0.0,0.0,0.0
603565401,603463847,-0.084996074,-0.06390375,-0.21679384,-0.03141272,0.11276424,0.13675284,-0.0070647905,-0.030194143,-0.22638892,0.00065898895,-0.030584946,-3.3588676,0.0,-1.0226994,0.0,0.0,,0.0,0.0,0.0,0.0,-0.007553816,0.09821762,-0.18275374,0.22229072,0.18988512,-0.017154675,-0.0012909158,0.0,0.0,0.0,0.0,0.0,0.0
603574919,603473862,-0.084996074,-0.06390375,-0.21679384,-0.03141272,0.11276424,0.13675284,-0.0070647905,-0.030194143,-0.22638892,0.00065898895,-0.030584946,-3.3588676,0.0,-1.0226994,0.0,0.0,,0.0,0.0,0.0,0.0,-0.007553816,0.09821762,-0.18275374,0.22229072,-0.27919453,0.43655735,-0.013978739,0.0,0.0,0.0,0.0,0.0,0.0
603584963,603483878,-0.084996074,-0.06390375,-0.21679384,-0.03141272,0.11276424,0.13675284,-0.0043622004,-0.026020024,-0.21725988,0.009649172,-0.029332146,-3.3500383,0.0,-1.0226994,0.0,0.0,,0.0,0.0,0.0,0.0,-0.007553816,0.09821762,-0.18275374,0.22229072,0.050649293,-0.25450912,-0.0035674092,0.0,0.0,0.0,0.0,0.0,0.0
603594987,603493894,-0.084996074,-0.06390375,-0.21679384,-0.03141272,0.11276424,0.13675284,-0.0043622004,-0.026020024,-0.21725988,0.009649172,-0.029332146,-3.3500383,0.0,-1.0226994,0.0,0.0,,0.0,0.0,0.0,0.0,-0.026502132,0.09468691,-0.18958718,0.22397333,-0.014620837,-0.22030206,-0.0027751226,0.0,0.0,0.0,0.0,0.0,0.0
603604874,603503910,-0.084996074,-0.06390375,-0.21679384,-0.03141272,0.11276424,0.13675284,-0.00114815,-0.028758485,-0.2190847,0.0092148855,-0.028544873,-3.3543558,0.0,-1.0226994,0.0,0.0,,0.0,0.0,0.0,0.0,-0.026502132,0.09468691,-0.18958718,0.22397333,-0.101865925,0.22918926,-0.0032251424,0.0,0.0,0.0,0.0,0.0,0.0
603614843,603513927,-0.084996074,-0.06390375,-0.21679384,-0.03141272,0.11276424,0.13675284,-0.00114815,-0.028758485,-0.2190847,0.0092148855,-0.028544873,-3.3543558,0.0,-1.0226994,0.0,0.0,,0.0,0.0,0.0,0.0,-0.026502132,0.09468691,-0.18958718,0.22397333,0.05167125,-0.021702804,-3.03371e-05,0.0,0.0,0.0,0.0,0.0,0.0
603624737,603523941,-0.084996074,-0.06390375,-0.21679384,-0.03141272,0.11276424,0.13675284,-0.00114815,-0.028758485,-0.2190847,0.0092148855,-0.028544873,-3.3543558,0.0,-1.0226994,0.0,0.0,,0.0,0.0,0.0,0.0,-0.026502132,0.09468691,-0.18958718,0.22397333,-0.11474602,-0.18448828,-0.0029917124,0.0,0.0,0.0,0.0,0.0,0.0
603635299,603533957,-0.084996074,-0.06390375,-0.21679384,-0.03141272,0.11276424,0.13675284,-0.00114815,-0.028758485,-0.2190847,0.0092148855,-0.028544873,-3.3543558,0.0,-0.925282,0.0,0.0,,0.0,0.0,0.0,0.0,-0.026502132,0.09468691,-0.18958718,0.22397333,0.09042065,0.13967024,-0.0009305412,0.0,0.0,0.0,0.0,0.0,0.0
603645112,603543973,-0.084996074,-0.06390375,-0.21679384,-0.03141272,0.11276424,0.13675284,-0.0052752485,-0.027716566,-0.21964699,0.008746192,-0.0284179,-3.3580801,0.0,-0.925282,0.0,0.0,,0.0,0.0,0.0,0.0,-0.026502132,0.09468691,-0.18958718,0.22397333,-0.040286012,0.24728657,-0.0030224929,0.0,0.0,0.0,0.0,0.0,0.0
603655278,603553989,-0.084996074,-0.06390375,-0.21679384,-0.03141272,0.11276424,0.13675284,-0.0052752485,-0.027716566,-0.21964699,0.008746192,-0.0284179,-3.3580801,0.0,-0.925282,0.0,0.0,,0.0,0.0,0.0,0.0,-0.026502132,0.09468691,-0.18958718,0.22397333,0.005098968,-0.31890377,-0.005508074,0.0,0.0,0.0,0.0,0.0,0.0
603665122,603564005,-0.084996074,-0.06390375,-0.21679384,-0.03141272,0.11276424,0.13675284,-0.0052752485,-0.027716566,-0.21964699,0.008746192,-0.0284179,-3.3580801,0.0,-0.925282,0.0,0.0,,0.0,0.0,0.0,0.0,-0.02714169,0.09572994,-0.19199544,0.2240654,0.08724413,-0.15557854,-0.0015477046,0.0,0.0,0.0,0.0,0.0,0.0
603675307,603574021,-0.084996074,-0.06390375,-0.21679384,-0.03141272,0.11276424,0.13675284,-0.003424421,-0.028980838,-0.2197887,0.0083088875,-0.02798368,-3.3645902,0.0,-0.925282,0.0,0.0,,0.0,0.0,0.0,0.0,-0.02714169,0.09572994,-0.19199544,0.2240654,-0.16202988,0.41187125,-0.009937132,0.0,0.0,0.0,0.0,0.0,0.0
603684965,603584046,-0.084996074,-0.06390375,-0.21679384,-0.03141272,0.11276424,0.13675284,-0.003424421,-0.028980838,-0.2197887,0.0083088875,-0.02798368,-3.3645902,0.0,-0.925282,0.0,0.0,,0.0,0.0,0.0,0.0,-0.02714169,0.09572994,-0.19199544,0.2240654,-0.078221425,-0.17048974,-0.0022467994,0.0,0.0,0.0,0.0,0.0,0.0
603695840,603594052,0.07076436,-0.055707883,-0.24646063,-0.011263408,0.11574183,0.1312604,-0.003424421,-0.028980838,-0.2197887,0.0083088875,-0.02798368,-3.3645902,0.0,-1.0048783,0.0,0.0,,0.0,0.0,0.0,0.0,-0.02714169,0.09572994,-0.19199544,0.2240654,0.06343631,-0.13419113,-0.0011236805,0.0,0.0,0.0,0.0,0.0,0.0
603704910,603604068,0.07076436,-0.055707883,-0.24646063,-0.011263408,0.11574183,0.1312604,-0.0053022807,-0.026769172,-0.2081093,0.0017576814,-0.027491614,-3.3509994,0.0,-1.0048783,0.0,0.0,,0.0,0.0,0.0,0.0,-0.02714169,0.09572994,-0.19199544,0.2240654,0.03498618,0.21468987,-0.0019638164,0.0,0.0,0.0,0.0,0.0,0.0
603715009,603614085,0.07076436,-0.055707883,-0.24646063,-0.011263408,0.11574183,0.1312604,-0.0053022807,-0.026769172,-0.2081093,0.0017576814,-0.027491614,-3.3509994,0.0,-1.0048783,0.0,0.0,,0.0,0.0,0.0,0.0,-0.02714169,0.09572994,-0.19199544,0.2240654,-0.13785969,0.02620731,-0.0014087877,0.0,0.0,0.0,0.0,0.0,0.0
603725017,603624100,0.07076436,-0.055707883,-0.24646063,-0.011263408,0.11574183,0.1312604,-0.0053022807,-0.026769172,-0.2081093,0.0017576814,-0.027491614,-3.3509994,0.0,-1.0048783,0.0,0.0,,0.0,0.0,0.0,0.0,-0.02714169,0.09572994,-0.19199544,0.2240654,0.048556633,-0.41211715,-0.009157996,0.0,0.0,0.0,0.0,0.0,0.0
603735492,603634116,0.07076436,-0.055707883,-0.24646063,-0.011263408,0.11574183,0.1312604,-0.0053022807,-0.026769172,-0.2081093,0.0017576814,-0.027491614,-3.3509994,0.0,-1.0048783,0.0,0.0,,0.0,0.0,0.0,0.0,-0.025874019,0.094292045,-0.18843633,0.2205908,-0.004736658,0.15590614,-0.0010065504,0.0,0.0,0.0,0.0,0.0,0.0
603745242,603644132,0.07076436,-0.055707883,-0.24646063,-0.011263408,0.11574183,0.1312604,-0.009971356,-0.026803434,-0.20824401,0.0013931468,-0.027348012,-3.359264,0.0,-1.0048783,0.0,0.0,,0.0,0.0,0.0,0.0,-0.025874019,0.094292045,-0.18843633,0.2205908,-0.035507318,0.36810967,-0.0065254173,0.0,0.0,0.0,0.0,0.0,0.0
603755166,603654157,0.07076436,-0.055707883,-0.24646063,-0.011263408,0.11574183,0.1312604,-0.009971356,-0.026803434,-0.20824401,0.0013931468,-0.027348012,-3.359264,0.0,-1.0048783,0.0,0.0,,0.0,0.0,0.0,0.0,-0.025874019,0.094292045,-0.18843633,0.2205908,-0.09508699,-0.30265933,-0.005831086,0.0,0.0,0.0,0.0,0.0,0.0
603765222,603664163,0.07076436,-0.055707883,-0.24646063,-0.011263408,0.11574183,0.1312604,-0.009971356,-0.026803434,-0.20824401,0.0013931468,-0.027348012,-3.359264,0.0,-1.0096729,0.0,0.0,,0.0,0.0,0.0,0.0,-0.025874019,0.094292045,-0.18843633,0.2205908,0.10671889,-0.046029933,-0.00042879378,0.0,0.0,0.0,0.0,0.0,0.0
603775382,603674179,0.07076436,-0.055707883,-0.24646063,-0.011263408,0.11574183,0.1312604,-0.010385396,-0.028688962,-0.20788959,0.0011030287,-0.0269745,-3.3599522,0.0,-1.0096729,0.0,0.0,,0.0,0.0,0.0,0.0,-0.025874019,0.094292045,-0.18843633,0.2205908,-0.16059598,0.43418336,-0.010808016,0.0,0.0,0.0,0.0,0.0,0.0
603784999,603684195,0.07076436,-0.055707883,-0.24646063,-0.011263408,0.11574183,0.1312604,-0.010385396,-0.028688962,-0.20788959,0.0011030287,-0.0269745,-3.3599522,0.0,-1.0096729,0.0,0.0,,0.0,0.0,0.0,0.0,-0.025874019,0.094292045,-0.18843633,0.2205908,0.012178365,-0.41537294,-0.009298227,0.0,0.0,0.0,0.0,0.0,0.0
603795209,603694212,0.07076436,-0.055707883,-0.24646063,-0.011263408,0.11574183,0.1312604,-0.010385396,-0.028688962,-0.20788959,0.0011030287,-0.0269745,-3.3599522,0.0,-1.0096729,0.0,0.0,,0.0,0.0,0.0,0.0,-0.025874019,0.094292045,-0.18843633,0.2205908,0.12349571,-0.19812073,-0.002703022,0.0,0.0,0.0,0.0,0.0,0.0
603805243,603704227,0.07076436,-0.055707883,-0.24646063,-0.011263408,0.11574183,0.1312604,-0.008798247,-0.028626481,-0.20832053,0.0008259192,-0.026610121,-3.3661134,0.0,-1.0096729,0.0,0.0,,0.0,0.0,0.0,0.0,-0.020975351,0.096013784,-0.18810128,0.22194642,-0.16412413,0.56571627,-0.017303515,0.0,0.0,0.0,0.0,0.0,0.0
603815742,603714244,-0.014547982,0.031573027,-0.22603898,-0.0071480274,0.1408123,0.1530478,-0.008798247,-0.028626481,-0.20832053,0.0008259192,-0.026610121,-3.3661134,0.0,-1.0096729,0.0,0.0,,0.0,0.0,0.0,0.0,-0.020975351,0.096013784,-0.18810128,0.22194642,0.044133812,-0.14745419,-0.0012769026,0.0,0.0,0.0,0.0,0.0,0.0
603825404,603724259,-0.014547982,0.031573027,-0.22603898,-0.0071480274,0.1408123,0.1530478,-0.008798247,-0.028626481,-0.20832053,0.0008259192,-0.026610121,-3.3661134,0.0,-0.8614311,0.0,0.0,,0.0,0.0,0.0,0.0,-0.020975351,0.096013784,-0.18810128,0.22194642,-0.005877615,-0.39003482,-0.00832287,0.0,0.0,0.0,0.0,0.0,0.0
603835617,603734274,-0.014547982,0.031573027,-0.22603898,-0.0071480274,0.1408123,0.1530478,-0.008798247,-0.028626481,-0.20832053,0.0008259192,-0.026610121,-3.3661134,0.0,-0.8614311,0.0,0.0,,0.0,0.0,0.0,0.0,-0.020975351,0.096013784,-0.18810128,0.22194642,-0.0028685718,0.37280038,-0.006536087,0.0,0.0,0.0,0.0,0.0,0.0
603845418,603744290,-0.014547982,0.031573027,-0.22603898,-0.0071480274,0.1408123,0.1530478,-0.009696967,-0.03284257,-0.20029454,0.0021245629,-0.03576286,-3.3572388,0.0,-0.8614311,0.0,0.0,,0.0,0.0,0.0,0.0,-0.020975351,0.096013784,-0.18810128,0.22194642,-0.098040044,0.010189379,-0.00077681325,0.0,0.0,0.0,0.0,0.0,0.0
603855528,603754306,-0.014547982,0.031573027,-0.22603898,-0.0071480274,0.1408123,0.1530478,-0.009696967,-0.03284257,-0.20029454,0.0021245629,-0.03576286,-3.3572388,0.0,-0.8614311,0.0,0.0,,0.0,0.0,0.0,0.0,-0.020975351,0.096013784,-0.18810128,0.22194642,-0.013503434,-0.30324903,-0.005121982,0.0,0.0,0.0,0.0,0.0,0.0
603865521,603764322,-0.014547982,0.031573027,-0.22603898,-0.0071480274,0.1408123,0.1530478,-0.009696967,-0.03284257,-0.20029454,0.0021245629,-0.03576286,-3.3572388,0.0,-0.8614311,0.0,0.0,,0.0,0.0,0.0,0.0,-0.020975351,0.096013784,-0.18810128,0.22194642,0.09861229,0.13606426,-0.00094554434,0.0,0.0,0.0,0.0,0.0,0.0
603875343,603774341,-0.014547982,0.031573027,-0.22603898,-0.0071480274,0.1408123,0.1530478,-0.010051605,-0.033537224,-0.2018936,0.0018243268,-0.035161987,-3.363218,0.0,-0.8614311,0.0,0.0,,0.0,0.0,0.0,0.0,-0.028823495,0.09422321,-0.19025312,0.22341302,-0.18603767,0.32430434,-0.0072147395,0.0,0.0,0.0,0.0,0.0,0.0
603885258,603784353,-0.014547982,0.031573027,-0.22603898,-0.0071480274,0.1408123,0.1530478,-0.010051605,-0.033537224,-0.2018936,0.0018243268,-0.035161987,-3.363218,0.0,-1.0696409,0.0,0.0,,0.0,0.0,0.0,0.0,-0.028823495,0.09422321,-0.19025312,0.22341302,0.049592413,-0.42800605,-0.00991101,0.0,0.0,0.0,0.0,0.0,0.0
603895187,603794370,-0.014547982,0.031573027,-0.22603898,-0.0071480274,0.1408123,0.1530478,-0.010051605,-0.033537224,-0.2018936,0.0018243268,-0.035161987,-3.363218,0.0,-1.0696409,0.0,0.0,,0.0,0.0,0.0,0.0,-0.028823495,0.09422321,-0.19025312,0.22341302,0.011049594,-0.004078586,1.7579674e-05,0.0,0.0,0.0,0.0,0.0,0.0
603905273,603804385,-0.014547982,0.031573027,-0.22603898,-0.0071480274,0.1408123,0.1530478,-0.00830274,-0.033970915,-0.20115837,0.0015056208,-0.034637153,-3.3634102,0.0,-1.0696409,0.0,0.0,,0.0,0.0,0.0,0.0,-0.028823495,0.09422321,-0.19025312,0.22341302,-0.043205727,0.39354593,-0.007567694,0.0,0.0,0.0,0.0,0.0,0.0
603915225,603814401,-0.014547982,0.031573027,-0.22603898,-0.0071480274,0.1408123,0.1530478,-0.00830274,-0.033970915,-0.20115837,0.0015056208,-0.034637153,-3.3634102,0.0,-1.0696409,0.0,0.0,,0.0,0.0,0.0,0.0,-0.028823495,0.09422321,-0.19025312,0.22341302,-0.10920703,-0.23377241,-0.003998332,0.0,0.0,0.0,0.0,0.0,0.0
603925464,603824417,-0.014547982,0.031573027,-0.22603898,-0.0071480274,0.1408123,0.1530478,-0.00830274,-0.033970915,-0.20115837,0.0015056208,-0.034637153,-3.3634102,0.0,-1.0696409,0.0,0.0,,0.0,0.0,0.0,0.0,-0.028823495,0.09422321,-0.19025312,0.22341302,0.13838306,-0.31732693,-0.006163115,0.0,0.0,0.0,0.0,0.0,0.0
603935665,603834433,-0.014547982,0.031573027,-0.22603898,-0.0071480274,0.1408123,0.1530478,-0.00830274,-0.033970915,-0.20115837,0.0015056208,-0.034637153,-3.3634102,0.0,-1.0696409,0.0,0.0,,0.0,0.0,0.0,0.0,-0.028823495,0.09422321,-0.19025312,0.22341302,-0.15115874,0.5052342,-0.013892062,0.0,0.0,0.0,0.0,0.0,0.0
603946086,603844449,-0.017060105,-0.08077339,-0.22086895,-0.0064776167,0.12729059,0.14889312,-0.009936501,-0.030914718,-0.19450085,0.002985403,-0.032547757,-3.3593276,0.0,-1.0696409,0.0,0.0,,0.0,0.0,0.0,0.0,-0.035170436,0.09329639,-0.19300802,0.21936777,-0.030469706,-0.06306357,-0.00042882797,0.0,0.0,0.0,0.0,0.0,0.0
603955503,603854464,-0.017060105,-0.08077339,-0.22086895,-0.0064776167,0.12729059,0.14889312,-0.009936501,-0.030914718,-0.19450085,0.002985403,-0.032547757,-3.3593276,0.0,-0.89126515,0.0,0.0,,0.0,0.0,0.0,0.0,-0.035170436,0.09329639,-0.19300802,0.21936777,0.13045639,-0.34057197,-0.0068588,0.0,0.0,0.0,0.0,0.0,0.0
603965357,603864491,-0.017060105,-0.08077339,-0.22086895,-0.0064776167,0.12729059,0.14889312,-0.009936501,-0.030914718,-0.19450085,0.002985403,-0.032547757,-3.3593276,0.0,-0.89126515,0.0,0.0,,0.0,0.0,0.0,0.0,-0.035170436,0.09329639,-0.19300802,0.21936777,-0.08497622,0.23965155,-0.0031900732,0.0,0.0,0.0,0.0,0.0,0.0
603975399,603874496,-0.017060105,-0.08077339,-0.22086895,-0.0064776167,0.12729059,0.14889312,-0.008525886,-0.031153636,-0.19525085,0.0026497915,-0.0320334,-3.3603818,0.0,-0.89126515,0.0,0.0,,0.0,0.0,0.0,0.0,-0.035170436,0.09329639,-0.19300802,0.21936777,-0.04574669,0.109819315,-0.000707445,0.0,0.0,0.0,0.0,0.0,0.0
603985379,603884512,-0.017060105,-0.08077339,-0.22086895,-0.0064776167,0.12729059,0.14889312,-0.008525886,-0.031153636,-0.19525085,0.0026497915,-0.0320334,-3.3603818,0.0,-0.89126515,0.0,0.0,,0.0,0.0,0.0,0.0,-0.035170436,0.09329639,-0.19300802,0.21936777,0.044977874,-0.25726113,-0.0036810318,0.0,0.0,0.0,0.0,0.0,0.0
603995302,603894528,-0.017060105,-0.08077339,-0.22086895,-0.0064776167,0.12729059,0.14889312,-0.008525886,-0.031153636,-0.19525085,0.0026497915,-0.0320334,-3.3603818,0.0,-0.89126515,0.0,0.0,,0.0,0.0,0.0,0.0,-0.035170436,0.09329639,-0.19300802,0.21936777,-0.021997629,-0.038631923,-0.00022337981,0.0,0.0,0.0,0.0,0.0,0.0
604005378,603904544,-0.017060105,-0.08077339,-0.22086895,-0.0064776167,0.12729059,0.14889312,-0.008525886,-0.031153636,-0.19525085,0.0026497915,-0.0320334,-3.3603818,0.0,-0.89126515,0.0,0.0,,0.0,0.0,0.0,0.0,-0.035170436,0.09329639,-0.19300802,0.21936777,-0.059939787,0.36672702,-0.0066749384,0.0,0.0,0.0,0.0,0.0,0.0
604015762,603914560,-0.017060105,-0.08077339,-0.22086895,-0.0064776167,0.12729059,0.14889312,-0.009634601,-0.03198826,-0.19708191,0.0022307932,-0.031875774,-3.3629498,0.0,-0.97220445,0.0,0.0,,0.0,0.0,0.0,0.0,-0.024581075,0.09534669,-0.18924993,0.22167173,0.041485358,-0.20640978,-0.002419352,0.0,0.0,0.0,0.0,0.0,0.0
604025574,603924575,-0.017060105,-0.08077339,-0.22086895,-0.0064776167,0.12729059,0.14889312,-0.009634601,-0.03198826,-0.19708191,0.0022307932,-0.031875774,-3.3629498,0.0,-0.97220445,0.0,0.0,,0.0,0.0,0.0,0.0,-0.024581075,0.09534669,-0.18924993,0.22167173,0.007857425,-0.21153033,-0.0025579575,0.0,0.0,0.0,0.0,0.0,0.0
604035880,603934591,-0.017060105,-0.08077339,-0.22086895,-0.0064776167,0.12729059,0.14889312,-0.0063165827,-0.03228624,-0.19986983,0.002019927,-0.031107947,-3.3668833,0.0,-0.97220445,0.0,0.0,,0.0,0.0,0.0,0.0,-0.024581075,0.09534669,-0.18924993,0.22167173,-0.06265779,0.36617377,-0.006689786,0.0,0.0,0.0,0.0,0.0,0.0
604045602,603944607,-0.017060105,-0.08077339,-0.22086895,-0.0064776167,0.12729059,0.14889312,-0.0063165827,-0.03228624,-0.19986983,0.002019927,-0.031107947,-3.3668833,0.0,-0.97220445,0.0,0.0,,0.0,0.0,0.0,0.0,-0.024581075,0.09534669,-0.18924993,0.22167173,-0.004302959,-0.05019667,-0.00021166491,0.0,0.0,0.0,0.0,0.0,0.0
