timestamp,timestamp_sample,ref_timestamp,ref_lat,ref_lon,x,y,z,delta_xy[0],delta_xy[1],delta_z,vx,vy,vz,z_deriv,delta_vxy[0],delta_vxy[1],delta_vz,ax,ay,az,heading,delta_heading,ref_alt,dist_bottom,eph,epv,evh,evv,vxy_max,vz_max,hagl_min,hagl_max,xy_valid,z_valid,v_xy_valid,v_z_valid,xy_reset_counter,z_reset_counter,vxy_reset_counter,vz_reset_counter,heading_reset_counter,heading_good_for_control,xy_global,z_global,dist_bottom_valid,dist_bottom_sensor_bitfield,dead_reckoning
603055310,603054198,168057400,59.3948185,24.6601304,0.11254834,0.16950205,-3.4884868,-0.050271273,0.0026445389,0.2936716,0.00085751823,-0.0023977114,-0.14363585,-0.003074451,-0.09392912,0.05679685,0.20339692,-0.026523184,0.37107247,-0.08504858,-1.9255763,0.0009012222,25.939417,0.1,0.2447806,0.25995317,0.11851464,0.09085628,inf,inf,inf,inf,1,1,1,1,7,7,7,7,8,0,1,1,0,0,0
603066167,603064079,168057400,59.3948185,24.6601304,0.11289458,0.16902749,-3.4883637,-0.050271273,0.0026445389,0.2936716,0.0002428785,-0.0011971445,-0.143878,-0.0031287144,-0.09392912,0.05679685,0.20339692,-0.20502593,0.46899232,-0.09128499,-1.9253412,0.0009012222,25.939417,0.1,0.23678468,0.25461242,0.11362977,0.0887119,inf,inf,inf,inf,1,1,1,1,7,7,7,7,8,0,1,1,0,0,0
603075711,603073961,168057400,59.3948185,24.6601304,0.113216706,0.1685657,-3.488303,-0.050271273,0.0026445389,0.2936716,-0.00062332896,-0.005271742,-0.14441939,-0.0035484342,-0.09392912,0.05679685,0.20339692,-0.0072230403,-0.48466784,-0.21370567,-1.9258239,0.0009012222,25.939417,0.1,0.2374505,0.2551782,0.114050865,0.08891394,inf,inf,inf,inf,1,1,1,1,7,7,7,7,8,0,1,1,0,0,0
603084905,603083843,168057400,59.3948185,24.6601304,0.11353339,0.16811681,-3.4883096,-0.050271273,0.0026445389,0.2936716,0.001316009,-0.0042927284,-0.14409988,-0.0031707014,-0.09392912,0.05679685,0.20339692,0.25840393,-0.44346508,0.2650827,-1.9261218,0.0009012222,25.939417,0.1,0.23812084,0.25574636,0.1144718,0.08911608,inf,inf,inf,inf,1,1,1,1,7,7,7,7,8,0,1,1,0,0,0
603095607,603093724,168057400,59.3948185,24.6601304,0.11387206,0.16767286,-3.4883552,-0.050271273,0.0026445389,0.2936716,0.0029339902,-0.003772514,-0.14383507,-0.0029084475,-0.09392912,0.05679685,0.20339692,-0.23626961,0.3177328,-0.23444395,-1.9257425,0.0009012222,25.939417,0.1,0.23879574,0.2563168,0.11489383,0.08931831,inf,inf,inf,inf,1,1,1,1,7,7,7,7,8,0,1,1,0,0,0
603105588,603103605,168057400,59.3948185,24.6601304,0.11417802,0.16724315,-3.488283,-0.050271273,0.0026445389,0.2936716,-0.0010360483,-0.004683898,-0.14418484,-0.0031308103,-0.09392912,0.05679685,0.20339692,-0.37818995,0.051332865,-0.042705633,-1.9257336,0.0009012222,25.939417,0.1,0.23947522,0.25620046,0.115318246,0.08941952,inf,inf,inf,inf,1,1,1,1,7,7,7,7,8,0,1,1,0,0,0
603115319,603113487,168057400,59.3948185,24.6601304,0.11446185,0.16682471,-3.4882796,-0.050271273,0.0026445389,0.2936716,-0.00018910566,-0.0049925568,-0.1455347,-0.0044170697,-0.09392912,0.05679685,0.20339692,-0.16691668,-0.0048903804,0.05590174,-1.9260631,0.0009012222,25.939417,0.1,0.24015927,0.25677407,0.11574367,0.08962199,inf,inf,inf,inf,1,1,1,1,7,7,7,7,8,0,1,1,0,0,0
603125176,603123368,168057400,59.3948185,24.6601304,0.11475328,0.16643122,-3.4883235,-0.050271273,0.0026445389,0.2936716,0.0023137862,-0.0032887144,-0.14536026,-0.004240173,-0.09392912,0.05679685,0.20339692,0.06831676,0.061023418,-0.3929893,-1.925934,0.0009012222,25.939417,0.1,0.24084795,0.25735003,0.11616863,0.08982456,inf,inf,inf,inf,1,1,1,1,7,7,7,7,8,0,1,1,0,0,0
603135114,603133250,168057400,59.3948185,24.6601304,0.11504633,0.16604985,-3.4884267,-0.050271273,0.0026445389,0.2936716,0.00242083,-0.003388841,-0.14365381,-0.0025898283,-0.09392912,0.05679685,0.20339692,-0.012509775,0.25753486,0.26418775,-1.9257518,0.0009012222,25.939417,0.1,0.24154125,0.2579283,0.11659475,0.09002722,inf,inf,inf,inf,1,1,1,1,7,7,7,7,8,0,1,1,0,0,0
603145117,603143142,168057400,59.3948185,24.6601304,0.11531632,0.16568922,-3.4885895,-0.050271273,0.0026445389,0.2936716,0.00051617995,-0.0035259922,-0.14599809,-0.005046243,-0.09392912,0.05679685,0.20339692,-0.0813455,-0.13284653,-0.08760303,-1.9259487,0.0009012222,25.939417,0.1,0.24223919,0.25850898,0.11701885,0.090229996,inf,inf,inf,inf,1,1,1,1,7,7,7,7,8,0,1,1,0,0,0
603155168,603153013,168057400,59.3948185,24.6601304,0.11558912,0.16534239,-3.488801,-0.050271273,0.0026445389,0.2936716,0.0036427313,-0.0040847217,-0.14644498,-0.005658866,-0.09392912,0.05679685,0.20339692,0.23552187,-0.3065577,-0.35394427,-1.9259576,0.0009012222,25.939417,0.1,0.24294177,0.25909197,0.11745237,0.09043286,inf,inf,inf,inf,1,1,1,1,7,7,7,7,8,0,1,1,0,0,0
603164862,603162894,168057400,59.3948185,24.6601304,0.11586475,0.16499254,-3.4890704,-0.050271273,0.0026445389,0.2936716,0.0036087253,-0.004274831,-0.14513631,-0.004567165,-0.09392912,0.05679685,0.20339692,0.20262897,0.2382452,0.2228371,-1.9257864,0.0009012222,25.939417,0.1,0.24364904,0.25967732,0.11787775,0.09063583,inf,inf,inf,inf,1,1,1,1,7,7,7,7,8,0,1,1,0,0,0
603175018,603172776,168057400,59.3948185,24.6601304,0.11612079,0.164658,-3.4891734,-0.050271273,0.0026445389,0.2936716,0.0007536068,-0.0054532425,-0.1471022,-0.0065760133,-0.09392912,0.05679685,0.20339692,-0.28368515,-0.33211976,-0.17445554,-1.9258896,0.0009012222,25.939417,0.1,0.244361,0.25954843,0.118307635,0.090731174,inf,inf,inf,inf,1,1,1,1,7,7,7,7,8,0,1,1,0,0,0
603184459,603182657,168057400,59.3948185,24.6601304,0.11634616,0.16433258,-3.4893272,-0.050271273,0.0026445389,0.2936716,5.2650546e-05,-0.0034539802,-0.14589256,-0.0054658465,-0.09392912,0.05679685,0.20339692,0.14775379,0.2794687,0.021053202,-1.9259802,0.0009012222,25.939417,0.1,0.24507765,0.2601369,0.11873589,0.09093435,inf,inf,inf,inf,1,1,1,1,7,7,7,7,8,0,1,1,0,0,0
603193527,603192539,168057400,59.3948185,24.6601304,0.11659995,0.16403086,-3.4895277,-0.050271273,0.0026445389,0.2936716,0.004999998,-0.003654318,-0.14555614,-0.0052829185,-0.09392912,0.05679685,0.20339692,0.17614748,-0.085561626,-0.111175366,-1.9258289,0.0009012222,25.939417,0.1,0.24579902,0.26072773,0.119169846,0.09113762,inf,inf,inf,inf,1,1,1,1,7,7,7,7,8,0,1,1,0,0,0
603203473,603202420,168057400,59.3948185,24.6601304,0.11684826,0.16371739,-3.489794,-0.050271273,0.0026445389,0.2936716,0.0031684628,-0.006091121,-0.14691587,-0.0068477783,-0.09392912,0.05679685,0.20339692,0.02249696,0.07012434,0.090592705,-1.9259052,0.0009012222,25.939417,0.1,0.24652514,0.26132095,0.11960075,0.09134099,inf,inf,inf,inf,1,1,1,1,7,7,7,7,8,0,1,1,0,0,0
603215304,603212301,168057400,59.3948185,24.6601304,0.116782516,0.16297649,-3.489852,-0.050271273,0.0026445389,0.2936716,0.0016626434,-0.004951028,-0.14858446,-0.008487414,-0.09392912,0.05679685,0.20339692,-0.13782054,-0.20894064,-0.3366621,-1.9260527,0.0009012222,25.939417,0.1,0.23829083,0.255877,0.11456935,0.08915595,inf,inf,inf,inf,1,1,1,1,7,7,7,7,8,0,1,1,0,0,0
603223255,603222187,168057400,59.3948185,24.6601304,0.11671605,0.16226943,-3.4899633,-0.050271273,0.0026445389,0.2936716,0.0027918199,-0.0024805823,-0.1464376,-0.0063708033,-0.09392912,0.05679685,0.20339692,0.21370213,0.29572064,0.11303155,-1.9258925,0.0009012222,25.939417,0.1,0.23896655,0.25644785,0.11499315,0.0893582,inf,inf,inf,inf,1,1,1,1,7,7,7,7,8,0,1,1,0,0,0
603233414,603232064,168057400,59.3948185,24.6601304,0.1166572,0.16158706,-3.4901202,-0.050271273,0.0026445389,0.2936716,0.0017252668,-0.0042882157,-0.14573577,-0.005755919,-0.09392912,0.05679685,0.20339692,-0.2271172,-0.08610554,0.19955538,-1.9258229,0.0009012222,25.939417,0.1,0.23964684,0.25702104,0.1154109,0.089560546,inf,inf,inf,inf,1,1,1,1,7,7,7,7,8,0,1,1,0,0,0
603243585,603241946,168057400,59.3948185,24.6601304,0.11658411,0.160912,-3.4901094,-0.050271273,0.0026445389,0.2936716,0.0015395554,-0.0056857537,-0.1460915,-0.006037331,-0.09392912,0.05679685,0.20339692,0.15026179,-0.10819905,-0.107155934,-1.9259919,0.0009012222,25.939417,0.1,0.2403317,0.25690174,0.1158409,0.08966062,inf,inf,inf,inf,1,1,1,1,7,7,7,7,8,0,1,1,0,0,0
603252886,603251828,168057400,59.3948185,24.6601304,0.11652218,0.16025168,-3.4901607,-0.050271273,0.0026445389,0.2936716,0.0026139799,-0.0057137385,-0.14648393,-0.006416419,-0.09392912,0.05679685,0.20339692,0.058077358,-0.0048738634,-0.19430716,-1.9259733,0.0009012222,25.939417,0.1,0.2410212,0.2574781,0.1162686,0.08986318,inf,inf,inf,inf,1,1,1,1,7,7,7,7,8,0,1,1,0,0,0
603262760,603261709,168057400,59.3948185,24.6601304,0.11646807,0.15962076,-3.490277,-0.050271273,0.0026445389,0.2936716,0.002151598,-0.0040888716,-0.14728479,-0.007262555,-0.09392912,0.05679685,0.20339692,-0.18169743,0.16085193,-0.04482962,-1.9258035,0.0009012222,25.939417,0.1,0.24171533,0.25805676,0.116692916,0.09006585,inf,inf,inf,inf,1,1,1,1,7,7,7,7,8,0,1,1,0,0,0
603272716,603271590,168057400,59.3948185,24.6601304,0.11639814,0.15900072,-3.4904468,-0.050271273,0.0026445389,0.2936716,0.000241248,-0.007123842,-0.14737652,-0.007455663,-0.09392912,0.05679685,0.20339692,-0.16689856,-0.2550669,-0.20578411,-1.9259276,0.0009012222,25.939417,0.1,0.24241409,0.25863782,0.11712429,0.090268634,inf,inf,inf,inf,1,1,1,1,7,7,7,7,8,0,1,1,0,0,0
603282484,603281472,168057400,59.3948185,24.6601304,0.116336055,0.15839075,-3.490665,-0.050271273,0.0026445389,0.2936716,0.0031839046,-0.00655363,-0.14670697,-0.006941101,-0.09392912,0.05679685,0.20339692,0.21526864,0.00038520904,-0.08359721,-1.9260992,0.0009012222,25.939417,0.1,0.24311753,0.2592212,0.117549606,0.09047152,inf,inf,inf,inf,1,1,1,1,7,7,7,7,8,0,1,1,0,0,0
603292679,603291354,168057400,59.3948185,24.6601304,0.116279304,0.15780391,-3.4909396,-0.050271273,0.0026445389,0.2936716,0.0008719539,-0.0055906717,-0.14760281,-0.008043229,-0.09392912,0.05679685,0.20339692,-0.3259351,0.15409918,-0.12452091,-1.9259428,0.0009012222,25.939417,0.1,0.24382563,0.25980696,0.117973916,0.090674475,inf,inf,inf,inf,1,1,1,1,7,7,7,7,8,0,1,1,0,0,0
603302520,603301235,168057400,59.3948185,24.6601304,0.11619643,0.15724796,-3.4910355,-0.050271273,0.0026445389,0.2936716,-0.0006574749,-0.0040516686,-0.14859149,-0.00904319,-0.09392912,0.05679685,0.20339692,0.055882707,0.20127523,0.0056393533,-1.9258456,0.0009012222,25.939417,0.1,0.2445384,0.25967738,0.118407674,0.09076965,inf,inf,inf,inf,1,1,1,1,7,7,7,7,8,0,1,1,0,0,0
603313031,603311117,168057400,59.3948185,24.6601304,0.11634349,0.15670003,-3.4909573,-0.050271273,0.0026445389,0.2936716,0.0014445671,-0.00720332,-0.14762856,-0.007903149,-0.09392912,0.05679685,0.20339692,0.22184026,-0.37223098,0.008344543,-1.9260359,0.0009012222,25.939417,0.10016394,0.23656166,0.25435776,0.1135413,0.088633,inf,inf,inf,inf,1,1,1,1,7,7,7,7,8,0,1,1,0,0,0
603322039,603320998,168057400,59.3948185,24.6601304,0.116516575,0.1561524,-3.4909332,-0.050271273,0.0026445389,0.2936716,0.0046194997,-0.007783041,-0.14775106,-0.007913992,-0.09392912,0.05679685,0.20339692,0.15515013,-0.11000096,-0.083000086,-1.926044,0.0009012222,25.939417,0.1,0.23722592,0.25492248,0.11395826,0.08883503,inf,inf,inf,inf,1,1,1,1,7,7,7,7,8,0,1,1,0,0,0
603331909,603330879,168057400,59.3948185,24.6601304,0.11667104,0.15562694,-3.490976,-0.050271273,0.0026445389,0.2936716,-0.00023715859,-0.0063560065,-0.14950773,-0.009621536,-0.09392912,0.05679685,0.20339692,-0.4183519,0.08863188,-0.27766138,-1.9259154,0.0009012222,25.939417,0.1,0.2378947,0.25548953,0.114376865,0.08903715,inf,inf,inf,inf,1,1,1,1,7,7,7,7,8,0,1,1,0,0,0
603341961,603340777,168057400,59.3948185,24.6601304,0.116792955,0.15513004,-3.491084,-0.050271273,0.0026445389,0.2936716,-0.0010707993,-0.006086865,-0.14897487,-0.009099546,-0.09392912,0.05679685,0.20339692,-0.08990165,-0.1911705,-0.05572438,-1.925973,0.0009012222,25.939417,0.1,0.23856804,0.25605887,0.11480238,0.08923937,inf,inf,inf,inf,1,1,1,1,7,7,7,7,8,0,1,1,0,0,0
603351997,603350643,168057400,59.3948185,24.6601304,0.1169229,0.15463595,-3.4912317,-0.050271273,0.0026445389,0.2936716,0.002805501,-0.0074707703,-0.14769566,-0.007888648,-0.09392912,0.05679685,0.20339692,0.40995646,-0.012620014,0.06560005,-1.926103,0.0009012222,25.939417,0.1,0.23924594,0.2566306,0.115229525,0.08944169,inf,inf,inf,inf,1,1,1,1,7,7,7,7,8,0,1,1,0,0,0
603361574,603360524,168057400,59.3948185,24.6601304,0.1170735,0.15415081,-3.4914334,-0.050271273,0.0026445389,0.2936716,0.0026870836,-0.00733372,-0.14876057,-0.00907679,-0.09392912,0.05679685,0.20339692,-0.2021162,0.17326394,-0.22272976,-1.9259888,0.0009012222,25.939417,0.1,0.23992845,0.25720468,0.11565531,0.089644134,inf,inf,inf,inf,1,1,1,1,7,7,7,7,8,0,1,1,0,0,0
603371545,603370405,168057400,59.3948185,24.6601304,0.11719373,0.15369685,-3.4914773,-0.050271273,0.0026445389,0.2936716,-0.0013965197,-0.0052619544,-0.15017322,-0.01043625,-0.09392912,0.05679685,0.20339692,-0.41383874,0.17711595,-0.10499218,-1.9259714,0.0009012222,25.939417,0.1,0.24061558,0.25708473,0.116081536,0.089743905,inf,inf,inf,inf,1,1,1,1,7,7,7,7,8,0,1,1,0,0,0
603381321,603380286,168057400,59.3948185,24.6601304,0.11729689,0.15325898,-3.4915757,-0.050271273,0.0026445389,0.2936716,0.0009863102,-0.0072224326,-0.14878061,-0.009050659,-0.09392912,0.05679685,0.20339692,0.36827657,-0.2644461,0.11376133,-1.926102,0.0009012222,25.939417,0.1,0.24130732,0.2576619,0.11650343,0.08994655,inf,inf,inf,inf,1,1,1,1,7,7,7,7,8,0,1,1,0,0,0
603391313,603390168,168057400,59.3948185,24.6601304,0.11743772,0.15281698,-3.4917166,-0.050271273,0.0026445389,0.2936716,0.0048169484,-0.008139655,-0.14819027,-0.008524942,-0.09392912,0.05679685,0.20339692,0.106483445,0.0335976,-0.10861117,-1.9260385,0.0009012222,25.939417,0.1,0.2420037,0.25824147,0.11693542,0.09014932,inf,inf,inf,inf,1,1,1,1,7,7,7,7,8,0,1,1,0,0,0
603401064,603400049,168057400,59.3948185,24.6601304,0.11757181,0.15239708,-3.4919248,-0.050271273,0.0026445389,0.2936716,0.0005277789,-0.0060688425,-0.15082325,-0.011277646,-0.09392912,0.05679685,0.20339692,-0.6647395,0.24968205,-0.28108552,-1.9259689,0.0009012222,25.939417,0.1,0.24270473,0.25882336,0.117364116,0.090352185,inf,inf,inf,inf,1,1,1,1,7,7,7,7,8,0,1,1,0,0,0
603411017,603409932,168057400,59.3948185,24.6601304,0.11765572,0.15200302,-3.4922001,-0.050271273,0.0026445389,0.2936716,-0.0015943062,-0.006008221,-0.15135081,-0.011977658,-0.09392912,0.05679685,0.20339692,0.056317784,-0.048954424,-0.07092558,-1.9261367,0.0009012222,25.939417,0.1,0.24341045,0.2594076,0.11778857,0.0905551,inf,inf,inf,inf,1,1,1,1,7,7,7,7,8,0,1,1,0,0,0
603420862,603419813,168057400,59.3948185,24.6601304,0.11775548,0.15161511,-3.4925163,-0.050271273,0.0026445389,0.2936716,0.0030339335,-0.007935582,-0.14910513,-0.009954824,-0.09392912,0.05679685,0.20339692,0.47022495,-0.33058822,0.18393607,-1.9261307,0.0009012222,25.939417,0.1,0.24412085,0.2599942,0.11821723,0.09075813,inf,inf,inf,inf,1,1,1,1,7,7,7,7,8,0,1,1,0,0,0
603430839,603429694,168057400,59.3948185,24.6601304,0.117880836,0.15122668,-3.4926155,-0.050271273,0.0026445389,0.2936716,0.0033281697,-0.007195688,-0.14988698,-0.010743042,-0.09392912,0.05679685,0.20339692,-0.102057435,0.27949697,-0.018856797,-1.9259579,0.0009012222,25.939417,0.1,0.24483594,0.25986394,0.11865417,0.09085304,inf,inf,inf,inf,1,1,1,1,7,7,7,7,8,0,1,1,0,0,0
603441842,603439575,168057400,59.3948185,24.6601304,0.117595404,0.15057181,-3.4924698,-0.050271273,0.0026445389,0.2936716,-0.00065351557,-0.0063670985,-0.15057145,-0.011166134,-0.09392912,0.05679685,0.20339692,-0.37635112,0.13607919,-0.2961963,-1.9260851,0.0009012222,25.939417,0.10291314,0.23681867,0.2545298,0.11375111,0.088709846,inf,inf,inf,inf,1,1,1,1,7,7,7,7,8,0,1,1,0,0,0
603450556,603449457,168057400,59.3948185,24.6601304,0.11729994,0.1499418,-3.492391,-0.050271273,0.0026445389,0.2936716,0.0007939786,-0.0072956784,-0.14970417,-0.010106042,-0.09392912,0.05679685,0.20339692,0.3268187,-0.19137534,0.08482495,-1.9262055,0.0009012222,25.939417,0.10142493,0.23748492,0.2550953,0.11416896,0.08891191,inf,inf,inf,inf,1,1,1,1,7,7,7,7,8,0,1,1,0,0,0
603460480,603459338,168057400,59.3948185,24.6601304,0.1170427,0.14932449,-3.492366,-0.050271273,0.0026445389,0.2936716,0.0039061992,-0.0074531916,-0.14912327,-0.009398303,-0.09392912,0.05679685,0.20339692,0.20639093,0.017796751,0.078848414,-1.9260296,0.0009012222,25.939417,0.1,0.23815568,0.25566313,0.114595875,0.0891141,inf,inf,inf,inf,1,1,1,1,7,7,7,7,8,0,1,1,0,0,0
603470500,603469220,168057400,59.3948185,24.6601304,0.11678753,0.1487353,-3.4924006,-0.050271273,0.0026445389,0.2936716,3.1751e-05,-0.006582367,-0.15004529,-0.010256722,-0.09392912,0.05679685,0.20339692,-0.43787408,-0.08311654,-0.12388101,-1.9260297,0.0009012222,25.939417,0.1,0.23883103,0.2562333,0.11502326,0.08931642,inf,inf,inf,inf,1,1,1,1,7,7,7,7,8,0,1,1,0,0,0
603480182,603479107,168057400,59.3948185,24.6601304,0.116494484,0.14816369,-3.4924927,-0.050271273,0.0026445389,0.2936716,-0.0021619243,-0.006531412,-0.14926861,-0.009476958,-0.09392912,0.05679685,0.20339692,0.22947957,0.0654437,0.06474476,-1.9262531,0.0009012222,25.939417,0.1,0.23951097,0.2568058,0.11544278,0.089518785,inf,inf,inf,inf,1,1,1,1,7,7,7,7,8,0,1,1,0,0,0
603490135,603488996,168057400,59.3948185,24.6601304,0.116228245,0.14760426,-3.4926364,-0.050271273,0.0026445389,0.2936716,0.0010392581,-0.008551575,-0.14947957,-0.009742833,-0.09392912,0.05679685,0.20339692,0.17905569,-0.2988545,-0.17013445,-1.9261491,0.0009012222,25.939417,0.1,0.2401955,0.25738063,0.11586618,0.08972126,inf,inf,inf,inf,1,1,1,1,7,7,7,7,8,0,1,1,0,0,0
603500522,603498864,168057400,59.3948185,24.6601304,0.11598763,0.14705431,-3.4926696,-0.050271273,0.0026445389,0.2936716,0.0017581767,-0.0071677873,-0.15019189,-0.010395308,-0.09392912,0.05679685,0.20339692,-0.02290288,0.32151163,-0.023294412,-1.9259888,0.0009012222,25.939417,0.1,0.24088465,0.25726005,0.11629905,0.08982081,inf,inf,inf,inf,1,1,1,1,7,7,7,7,8,0,1,1,0,0,0
603510373,603508746,168057400,59.3948185,24.6601304,0.11572827,0.14652644,-3.492767,-0.050271273,0.0026445389,0.2936716,-0.0028078835,-0.0074714315,-0.15075877,-0.010962844,-0.09392912,0.05679685,0.20339692,-0.41817093,0.10027941,-0.15621209,-1.9262041,0.0009012222,25.939417,0.1,0.24157844,0.25783804,0.116729185,0.09002353,inf,inf,inf,inf,1,1,1,1,7,7,7,7,8,0,1,1,0,0,0
603519891,603518627,168057400,59.3948185,24.6601304,0.11546312,0.14601381,-3.4929187,-0.050271273,0.0026445389,0.2936716,-0.0011532505,-0.0083480645,-0.1501118,-0.010374362,-0.09392912,0.05679685,0.20339692,0.103432685,-0.13327424,-0.035346813,-1.926258,0.0009012222,25.939417,0.1,0.2422769,0.25841838,0.11714877,0.090226315,inf,inf,inf,inf,1,1,1,1,7,7,7,7,8,0,1,1,0,0,0
603529834,603528509,168057400,59.3948185,24.6601304,0.11522544,0.14551203,-3.4931169,-0.050271273,0.0026445389,0.2936716,0.0011583909,-0.007243448,-0.14937873,-0.009755138,-0.09392912,0.05679685,0.20339692,0.11939131,0.38218257,0.06644957,-1.926061,0.0009012222,25.939417,0.1,0.24298002,0.25900105,0.11757753,0.09042923,inf,inf,inf,inf,1,1,1,1,7,7,7,7,8,0,1,1,0,0,0
603539741,603538390,168057400,59.3948185,24.6601304,0.11497551,0.14503391,-3.4933705,-0.050271273,0.0026445389,0.2936716,-0.0034628992,-0.007676388,-0.15067956,-0.0112227565,-0.09392912,0.05679685,0.20339692,-0.36489704,-0.040164143,-0.29712397,-1.9261526,0.0009012222,25.939417,0.1,0.2436878,0.2595861,0.118008114,0.09063225,inf,inf,inf,inf,1,1,1,1,7,7,7,7,8,0,1,1,0,0,0
603549902,603548271,168057400,59.3948185,24.6601304,0.114711866,0.14457016,-3.493676,-0.050271273,0.0026445389,0.2936716,-0.0026028855,-0.007559252,-0.14971736,-0.0104780225,-0.09392912,0.05679685,0.20339692,0.12992135,-0.0133447535,0.03808062,-1.9262949,0.0009012222,25.939417,0.1,0.24440028,0.2601735,0.11843569,0.09083535,inf,inf,inf,inf,1,1,1,1,7,7,7,7,8,0,1,1,0,0,0
603559249,603558153,168057400,59.3948185,24.6601304,0.11447599,0.14411597,-3.4940305,-0.050271273,0.0026445389,0.2936716,0.00047243334,-0.008699411,-0.15063304,-0.011659546,-0.09392912,0.05679685,0.20339692,0.26566565,-0.118562035,-0.09656222,-1.926154,0.0009012222,25.939417,0.1,0.24511747,0.26076326,0.11886402,0.09103854,inf,inf,inf,inf,1,1,1,1,7,7,7,7,8,0,1,1,0,0,0
603570240,603568035,168057400,59.3948185,24.6601304,0.11462027,0.1436123,-3.4940271,-0.050271273,0.0026445389,0.2936716,-0.0008612655,-0.007803785,-0.15106934,-0.011974412,-0.09392912,0.05679685,0.20339692,-0.27248228,0.064446494,-0.10382808,-1.9261328,0.0009012222,25.939417,0.10023713,0.23706256,0.25469163,0.11393429,0.08877963,inf,inf,inf,inf,1,1,1,1,7,7,7,7,8,0,1,1,0,0,0
603578880,603577916,168057400,59.3948185,24.6601304,0.11473073,0.14313011,-3.4940789,-0.050271273,0.0026445389,0.2936716,-0.003652156,-0.008104114,-0.15028708,-0.011133532,-0.09392912,0.05679685,0.20339692,-0.1677369,-0.17044485,-0.033404097,-1.9262966,0.0009012222,25.939417,0.1,0.23773056,0.25525784,0.11435834,0.08898178,inf,inf,inf,inf,1,1,1,1,7,7,7,7,8,0,1,1,0,0,0
603588926,603587803,168057400,59.3948185,24.6601304,0.11484268,0.14265816,-3.494178,-0.050271273,0.0026445389,0.2936716,-0.000675183,-0.008818112,-0.14943966,-0.010287724,-0.09392912,0.05679685,0.20339692,0.21704097,-0.15049244,0.012342151,-1.9262388,0.0009012222,25.939417,0.1,0.23840313,0.25582638,0.1147837,0.08918399,inf,inf,inf,inf,1,1,1,1,7,7,7,7,8,0,1,1,0,0,0
603598831,603597679,168057400,59.3948185,24.6601304,0.1149687,0.14220074,-3.4943295,-0.050271273,0.0026445389,0.2936716,-0.0002625789,-0.007977777,-0.14972857,-0.010635392,-0.09392912,0.05679685,0.20339692,-0.08278843,0.11251634,-0.04878562,-1.9261415,0.0009012222,25.939417,0.1,0.2390803,0.25639728,0.11520605,0.089386344,inf,inf,inf,inf,1,1,1,1,7,7,7,7,8,0,1,1,0,0,0
603608783,603607561,168057400,59.3948185,24.6601304,0.11506301,0.14176765,-3.4945416,-0.050271273,0.0026445389,0.2936716,-0.004274667,-0.0070194565,-0.1502834,-0.011304048,-0.09392912,0.05679685,0.20339692,-0.2290149,0.0363618,-0.107503824,-1.9263091,0.0009012222,25.939417,0.1,0.23976204,0.25697047,0.115634516,0.089588806,inf,inf,inf,inf,1,1,1,1,7,7,7,7,8,0,1,1,0,0,0
603618533,603617443,168057400,59.3948185,24.6601304,0.11514521,0.14134528,-3.4947994,-0.050271273,0.0026445389,0.2936716,-0.0019586005,-0.0082121575,-0.1489073,-0.010094407,-0.09392912,0.05679685,0.20339692,0.3688242,-0.03912562,0.14724512,-1.9263173,0.0009012222,25.939417,0.1,0.2404484,0.25754604,0.11605839,0.089791335,inf,inf,inf,inf,1,1,1,1,7,7,7,7,8,0,1,1,0,0,0
603628515,603627323,168057400,59.3948185,24.6601304,0.11525647,0.14092797,-3.4948914,-0.050271273,0.0026445389,0.2936716,0.002043337,-0.008722108,-0.14835533,-0.009551474,-0.09392912,0.05679685,0.20339692,0.50409365,0.071567364,-0.011246216,-1.9261588,0.0009012222,25.939417,0.1,0.24113938,0.25742483,0.11648065,0.0898906,inf,inf,inf,inf,1,1,1,1,7,7,7,7,8,0,1,1,0,0,0
603639020,603637205,168057400,59.3948185,24.6601304,0.11536386,0.1405288,-3.495041,-0.050271273,0.0026445389,0.2936716,-0.0030804828,-0.007592356,-0.14889483,-0.010157103,-0.09392912,0.05679685,0.20339692,-0.66292906,0.11841406,-0.19982688,-1.9262588,0.0009012222,25.939417,0.1,0.241835,0.25800353,0.1169114,0.090093374,inf,inf,inf,inf,1,1,1,1,7,7,7,7,8,0,1,1,0,0,0
603648394,603647086,168057400,59.3948185,24.6601304,0.11542959,0.14015093,-3.4952483,-0.050271273,0.0026445389,0.2936716,-0.003424379,-0.007672952,-0.1490961,-0.0104791485,-0.09392912,0.05679685,0.20339692,0.20314017,-0.11232956,-0.0022309418,-1.9263624,0.0009012222,25.939417,0.1,0.24253528,0.25858456,0.11733712,0.09029624,inf,inf,inf,inf,1,1,1,1,7,7,7,7,8,0,1,1,0,0,0
603657975,603656968,168057400,59.3948185,24.6601304,0.11552137,0.13978437,-3.4954927,-0.050271273,0.0026445389,0.2936716,0.0015066918,-0.0076059746,-0.14731428,-0.008870338,-0.09392912,0.05679685,0.20339692,0.51961195,-0.003758516,-0.013486216,-1.9262345,0.0009012222,25.939417,0.1,0.24324022,0.25916794,0.11776704,0.090499185,inf,inf,inf,inf,1,1,1,1,7,7,7,7,8,0,1,1,0,0,0
603668723,603666850,168057400,59.3948185,24.6601304,0.11562394,0.13943088,-3.4957848,-0.050271273,0.0026445389,0.2936716,-0.0012817752,-0.0070488835,-0.14748694,-0.009265986,-0.09392912,0.05679685,0.20339692,-0.3989639,0.09866526,-0.09300897,-1.9262432,0.0009012222,25.939417,0.1,0.24394988,0.2597537,0.1181953,0.09070225,inf,inf,inf,inf,1,1,1,1,7,7,7,7,8,0,1,1,0,0,0
603677993,603676731,168057400,59.3948185,24.6601304,0.115679815,0.1390934,-3.4961302,-0.050271273,0.0026445389,0.2936716,-0.004938492,-0.007356335,-0.14807706,-0.010126838,-0.09392912,0.05679685,0.20339692,-0.07505354,-0.12828591,-0.06525651,-1.9263755,0.0009012222,25.939417,0.1,0.24466422,0.26034182,0.11862373,0.09090541,inf,inf,inf,inf,1,1,1,1,7,7,7,7,8,0,1,1,0,0,0
603688521,603686612,168057400,59.3948185,24.6601304,0.1154922,0.13866155,-3.4962122,-0.050271273,0.0026445389,0.2936716,-0.0012841816,-0.0087560695,-0.14701736,-0.009059345,-0.09392912,0.05679685,0.20339692,0.32621908,-0.4133657,-0.08328558,-1.9263209,0.0009012222,25.939417,0.1,0.23666628,0.25497866,0.11372634,0.08875613,inf,inf,inf,inf,1,1,1,1,7,7,7,7,8,0,1,1,0,0,0
603697647,603696494,168057400,59.3948185,24.6601304,0.11534717,0.1382337,-3.496135,-0.050271273,0.0026445389,0.2936716,0.0013226311,-0.007947204,-0.14759015,-0.009459213,-0.09392912,0.05679685,0.20339692,-0.058507837,0.15356652,0.011802179,-1.926239,0.0009012222,25.939417,0.10156298,0.23733182,0.25486642,0.11414741,0.08885981,inf,inf,inf,inf,1,1,1,1,7,7,7,7,8,0,1,1,0,0,0
603707503,603706375,168057400,59.3948185,24.6601304,0.115168355,0.13783005,-3.4961247,-0.050271273,0.0026445389,0.2936716,-0.0056821257,-0.007191995,-0.1490717,-0.010832355,-0.09392912,0.05679685,0.20339692,-0.4390589,0.030745026,-0.23323461,-1.9263259,0.0009012222,25.939417,0.10011697,0.23800193,0.25543344,0.11457337,0.08906204,inf,inf,inf,inf,1,1,1,1,7,7,7,7,8,0,1,1,0,0,0
603717302,603716257,168057400,59.3948185,24.6601304,0.11497733,0.13744242,-3.4961677,-0.050271273,0.0026445389,0.2936716,-0.0033329197,-0.0075396793,-0.14700623,-0.008720298,-0.09392912,0.05679685,0.20339692,0.19288875,-0.05725444,0.14306569,-1.9263767,0.0009012222,25.939417,0.1,0.23867661,0.25600278,0.1149946,0.08926434,inf,inf,inf,inf,1,1,1,1,7,7,7,7,8,0,1,1,0,0,0
603727281,603726138,168057400,59.3948185,24.6601304,0.11482547,0.13705881,-3.4962544,-0.050271273,0.0026445389,0.2936716,0.00090362463,-0.007876423,-0.14611183,-0.007838475,-0.09392912,0.05679685,0.20339692,0.28138366,0.20396976,0.11926108,-1.9262834,0.0009012222,25.939417,0.1,0.23935586,0.25657448,0.115414366,0.089466736,inf,inf,inf,inf,1,1,1,1,7,7,7,7,8,0,1,1,0,0,0
603737217,603736020,168057400,59.3948185,24.6601304,0.11466761,0.1367025,-3.496398,-0.050271273,0.0026445389,0.2936716,-0.004392642,-0.0065944316,-0.1478631,-0.009658978,-0.09392912,0.05679685,0.20339692,-0.52741593,-0.07170868,-0.35467258,-1.9263035,0.0009012222,25.939417,0.1,0.2400397,0.25714853,0.115841195,0.08966927,inf,inf,inf,inf,1,1,1,1,7,7,7,7,8,0,1,1,0,0,0
603747038,603745901,168057400,59.3948185,24.6601304,0.11448196,0.13635775,-3.4965987,-0.050271273,0.0026445389,0.2936716,-0.0041483776,-0.0067229555,-0.14641306,-0.008332352,-0.09392912,0.05679685,0.20339692,0.2468122,0.08981395,0.26607865,-1.9263934,0.0009012222,25.939417,0.1,0.24072817,0.2577249,0.11626973,0.089871876,inf,inf,inf,inf,1,1,1,1,7,7,7,7,8,0,1,1,0,0,0
603756856,603755782,168057400,59.3948185,24.6601304,0.114328675,0.1360175,-3.4966176,-0.050271273,0.0026445389,0.2936716,1.1772645e-05,-0.007892346,-0.14643048,-0.008298913,-0.09392912,0.05679685,0.20339692,0.32921553,0.02000764,-0.08819768,-1.9263577,0.0009012222,25.939417,0.1,0.24142128,0.25760308,0.11668926,0.08997084,inf,inf,inf,inf,1,1,1,1,7,7,7,7,8,0,1,1,0,0,0
603766641,603765664,168057400,59.3948185,24.6601304,0.11419107,0.13569582,-3.4966967,-0.050271273,0.0026445389,0.2936716,-0.0033222234,-0.0058719264,-0.14718665,-0.009063618,-0.09392912,0.05679685,0.20339692,-0.72725266,0.23338869,-0.244035,-1.9262894,0.0009012222,25.939417,0.1,0.24211903,0.2581826,0.11711387,0.090173684,inf,inf,inf,inf,1,1,1,1,7,7,7,7,8,0,1,1,0,0,0
603776603,603775546,168057400,59.3948185,24.6601304,0.11401303,0.13538893,-3.4968362,-0.050271273,0.0026445389,0.2936716,-0.005369825,-0.006936311,-0.1473035,-0.009245794,-0.09392912,0.05679685,0.20339692,-0.0032832057,-0.039137613,-0.052290004,-1.9264022,0.0009012222,25.939417,0.1,0.24282143,0.25876445,0.117546454,0.09037662,inf,inf,inf,inf,1,1,1,1,7,7,7,7,8,0,1,1,0,0,0
603786480,603785427,168057400,59.3948185,24.6601304,0.11384902,0.13508773,-3.4970229,-0.050271273,0.0026445389,0.2936716,-0.0026625239,-0.007227733,-0.14690511,-0.0089670755,-0.09392912,0.05679685,0.20339692,0.16919897,-0.004194335,-0.1273507,-1.9264134,0.0009012222,25.939417,0.1,0.24352852,0.25934866,0.1179714,0.09057963,inf,inf,inf,inf,1,1,1,1,7,7,7,7,8,0,1,1,0,0,0
603796513,603795309,168057400,59.3948185,24.6601304,0.113710836,0.13479324,-3.4972603,-0.050271273,0.0026445389,0.2936716,-0.0023299046,-0.0074126814,-0.14640896,-0.008642648,-0.09392912,0.05679685,0.20339692,-0.36114067,0.06174704,-0.046630815,-1.926303,0.0009012222,25.939417,0.1,0.2442403,0.25993526,0.11839879,0.09078275,inf,inf,inf,inf,1,1,1,1,7,7,7,7,8,0,1,1,0,0,0
603806462,603805190,168057400,59.3948185,24.6601304,0.113541216,0.13451993,-3.4975543,-0.050271273,0.0026445389,0.2936716,-0.006502527,-0.0060767615,-0.14818597,-0.010641121,-0.09392912,0.05679685,0.20339692,-0.25258178,0.0013917851,-0.15599269,-1.9263884,0.0009012222,25.939417,0.1,0.24495679,0.26052418,0.11883636,0.09098599,inf,inf,inf,inf,1,1,1,1,7,7,7,7,8,0,1,1,0,0,0
603817172,603815072,168057400,59.3948185,24.6601304,0.11341471,0.133785,-3.4976547,-0.050271273,0.0026445389,0.2936716,-0.0043510054,-0.007943598,-0.14634533,-0.008810634,-0.09392912,0.05679685,0.20339692,0.3245584,-0.29851955,0.08245225,-1.9264802,0.0009012222,25.939417,0.1,0.23693255,0.25514677,0.11390941,0.088830344,inf,inf,inf,inf,1,1,1,1,7,7,7,7,8,0,1,1,0,0,0
603826243,603824953,168057400,59.3948185,24.6601304,0.11332993,0.13306478,-3.4976153,-0.050271273,0.0026445389,0.2936716,-0.00010015798,-0.0076201707,-0.14598301,-0.008324171,-0.09392912,0.05679685,0.20339692,0.22037162,0.0068356977,0.13175412,-1.9263576,0.0009012222,25.939417,0.100648165,0.23759998,0.25503397,0.11432763,0.08893374,inf,inf,inf,inf,1,1,1,1,7,7,7,7,8,0,1,1,0,0,0
603836928,603834834,168057400,59.3948185,24.6601304,0.11323079,0.13237086,-3.4976346,-0.050271273,0.0026445389,0.2936716,-0.0062363297,-0.0074691945,-0.14777002,-0.0100492565,-0.09392912,0.05679685,0.20339692,-0.59332687,-0.086212255,-0.42098147,-1.9263564,0.0009012222,25.939417,0.1,0.23827197,0.25560173,0.11475658,0.089136034,inf,inf,inf,inf,1,1,1,1,7,7,7,7,8,0,1,1,0,0,0
603846437,603844716,168057400,59.3948185,24.6601304,0.11309848,0.13170005,-3.497714,-0.050271273,0.0026445389,0.2936716,-0.006229074,-0.0075480086,-0.14607246,-0.00834934,-0.09392912,0.05679685,0.20339692,0.14149891,-0.12884884,0.1329609,-1.926499,0.0009012222,25.939417,0.1,0.23894854,0.25617185,0.115178265,0.08933839,inf,inf,inf,inf,1,1,1,1,7,7,7,7,8,0,1,1,0,0,0
603856580,603854597,168057400,59.3948185,24.6601304,0.11299864,0.13104402,-3.4978344,-0.050271273,0.0026445389,0.2936716,-0.0016995326,-0.008352949,-0.145007,-0.0073385066,-0.09392912,0.05679685,0.20339692,0.23770565,-0.09797513,0.100207135,-1.9264344,0.0009012222,25.939417,0.1,0.23962972,0.2567443,0.11560164,0.08954083,inf,inf,inf,inf,1,1,1,1,7,7,7,7,8,0,1,1,0,0,0
603866789,603864479,168057400,59.3948185,24.6601304,0.112908214,0.1304077,-3.4980037,-0.050271273,0.0026445389,0.2936716,-0.0041651884,-0.0073183216,-0.14588171,-0.008322468,-0.09392912,0.05679685,0.20339692,-0.34815493,0.16829993,-0.27163202,-1.9263625,0.0009012222,25.939417,0.1,0.2403155,0.2573191,0.116027735,0.08974342,inf,inf,inf,inf,1,1,1,1,7,7,7,7,8,0,1,1,0,0,0
603876445,603874360,168057400,59.3948185,24.6601304,0.11278378,0.1297994,-3.4982293,-0.050271273,0.0026445389,0.2936716,-0.007050656,-0.0071901223,-0.14604753,-0.008649739,-0.09392912,0.05679685,0.20339692,-0.0905047,-0.029709015,-0.15135285,-1.9265076,0.0009012222,25.939417,0.1,0.2410059,0.25789624,0.116456576,0.08994608,inf,inf,inf,inf,1,1,1,1,7,7,7,7,8,0,1,1,0,0,0
603886238,603884242,168057400,59.3948185,24.6601304,0.11266935,0.1292046,-3.4982722,-0.050271273,0.0026445389,0.2936716,-0.0032355662,-0.007905048,-0.1459702,-0.008544111,-0.09392912,0.05679685,0.20339692,0.38762173,-0.0018714392,-0.0188883,-1.9265229,0.0009012222,25.939417,0.1,0.24170096,0.25777376,0.1168811,0.09004478,inf,inf,inf,inf,1,1,1,1,7,7,7,7,8,0,1,1,0,0,0
603895941,603894123,168057400,59.3948185,24.6601304,0.11259323,0.12862638,-3.4983733,-0.050271273,0.0026445389,0.2936716,-0.0013526091,-0.007949041,-0.14705157,-0.009655303,-0.09392912,0.05679685,0.20339692,-0.11436827,0.017004462,-0.20526591,-1.9263452,0.0009012222,25.939417,0.1,0.24240068,0.258354,0.11730549,0.09024766,inf,inf,inf,inf,1,1,1,1,7,7,7,7,8,0,1,1,0,0,0
603906068,603904005,168057400,59.3948185,24.6601304,0.11248799,0.1280669,-3.498538,-0.050271273,0.0026445389,0.2936716,-0.006838644,-0.007561446,-0.14781673,-0.010505856,-0.09392912,0.05679685,0.20339692,-0.40873724,0.05061606,-0.19765322,-1.9264542,0.0009012222,25.939417,0.1,0.24310504,0.25893664,0.11773931,0.09045067,inf,inf,inf,inf,1,1,1,1,7,7,7,7,8,0,1,1,0,0,0
603915693,603913886,168057400,59.3948185,24.6601304,0.11236172,0.12752396,-3.4987583,-0.050271273,0.0026445389,0.2936716,-0.0057305684,-0.007709668,-0.1471424,-0.009970125,-0.09392912,0.05679685,0.20339692,0.22704205,0.06420257,0.12801298,-1.9265982,0.0009012222,25.939417,0.1,0.24381413,0.25952163,0.11816432,0.090653725,inf,inf,inf,inf,1,1,1,1,7,7,7,7,8,0,1,1,0,0,0
603925588,603923768,168057400,59.3948185,24.6601304,0.11227468,0.1269962,-3.4990203,-0.050271273,0.0026445389,0.2936716,-0.0012119168,-0.008517713,-0.14719287,-0.010210068,-0.09392912,0.05679685,0.20339692,0.21775709,-0.110374615,-0.15746516,-1.9264151,0.0009012222,25.939417,0.1,0.2445279,0.260109,0.118589394,0.090856895,inf,inf,inf,inf,1,1,1,1,7,7,7,7,8,0,1,1,0,0,0
603935839,603933649,168057400,59.3948185,24.6601304,0.11218654,0.12648083,-3.4993434,-0.050271273,0.0026445389,0.2936716,-0.0056420835,-0.0078036804,-0.14861295,-0.011868263,-0.09392912,0.05679685,0.20339692,-0.5611708,0.15538393,-0.16368453,-1.926387,0.0009012222,25.939417,0.1,0.2452464,0.2606987,0.11902634,0.09106019,inf,inf,inf,inf,1,1,1,1,7,7,7,7,8,0,1,1,0,0,0
603946797,603943531,168057400,59.3948185,24.6601304,0.11211768,0.12594162,-3.4994771,-0.050271273,0.0026445389,0.2936716,-0.0071187126,-0.008113978,-0.14894103,-0.01221771,-0.09392912,0.05679685,0.20339692,0.11974897,0.046380628,-0.11674784,-1.9266118,0.0009012222,25.939417,0.1,0.23718439,0.2553078,0.1140758,0.08889864,inf,inf,inf,inf,1,1,1,1,7,7,7,7,8,0,1,1,0,0,0
603954471,603953412,168057400,59.3948185,24.6601304,0.11207434,0.125418,-3.4994628,-0.050271273,0.0026445389,0.2936716,-0.0017353867,-0.009169008,-0.14748159,-0.010638194,-0.09392912,0.05679685,0.20339692,0.5727588,-0.21683447,0.013162743,-1.9265115,0.0009012222,25.939417,0.100856304,0.23785353,0.2551944,0.11449403,0.08900179,inf,inf,inf,inf,1,1,1,1,7,7,7,7,8,0,1,1,0,0,0
603964295,603963293,168057400,59.3948185,24.6601304,0.112057105,0.124904245,-3.4995067,-0.050271273,0.0026445389,0.2936716,-0.0037811538,-0.008733824,-0.14873171,-0.011829942,-0.09392912,0.05679685,0.20339692,-0.5312934,0.09198932,-0.2919051,-1.9263805,0.0009012222,25.939417,0.1,0.23852724,0.25576288,0.114919715,0.08920411,inf,inf,inf,inf,1,1,1,1,7,7,7,7,8,0,1,1,0,0,0
603974231,603973175,168057400,59.3948185,24.6601304,0.11199294,0.12441402,-3.4996147,-0.050271273,0.0026445389,0.2936716,-0.0076426277,-0.007271104,-0.14891826,-0.0120171765,-0.09392912,0.05679685,0.20339692,-0.11103986,0.28933382,-0.023556788,-1.9265714,0.0009012222,25.939417,0.1,0.23920552,0.2563337,0.11534646,0.089406535,inf,inf,inf,inf,1,1,1,1,7,7,7,7,8,0,1,1,0,0,0
603984177,603983056,168057400,59.3948185,24.6601304,0.111927904,0.123950765,-3.4997742,-0.050271273,0.0026445389,0.2936716,-0.004174926,-0.007767886,-0.1486267,-0.011782857,-0.09392912,0.05679685,0.20339692,0.54329747,-0.19534157,-0.11425585,-1.926577,0.0009012222,25.939417,0.1,0.23988843,0.25690687,0.11577101,0.08960903,inf,inf,inf,inf,1,1,1,1,7,7,7,7,8,0,1,1,0,0,0
603994230,603992938,168057400,59.3948185,24.6601304,0.111909136,0.123494394,-3.499987,-0.050271273,0.0026445389,0.2936716,-0.0015927698,-0.008714396,-0.14847578,-0.011743279,-0.09392912,0.05679685,0.20339692,-0.14923228,-0.1601542,-0.023749046,-1.9263934,0.0009012222,25.939417,0.1,0.24057594,0.25748238,0.11619823,0.08981163,inf,inf,inf,inf,1,1,1,1,7,7,7,7,8,0,1,1,0,0,0
604003887,604002819,168057400,59.3948185,24.6601304,0.111861005,0.123051494,-3.5002582,-0.050271273,0.0026445389,0.2936716,-0.007579624,-0.0068010837,-0.15027538,-0.013705995,-0.09392912,0.05679685,0.20339692,-0.5566489,0.37919688,-0.18724412,-1.9264969,0.0009012222,25.939417,0.1,0.2412681,0.25806022,0.11662786,0.09001436,inf,inf,inf,inf,1,1,1,1,7,7,7,7,8,0,1,1,0,0,0
604013845,604012701,168057400,59.3948185,24.6601304,0.111778915,0.12263745,-3.500582,-0.050271273,0.0026445389,0.2936716,-0.007615289,-0.007503812,-0.1500297,-0.013672898,-0.09392912,0.05679685,0.20339692,0.14399715,-0.23543239,-0.117963515,-1.9266241,0.0009012222,25.939417,0.1,0.24196492,0.25864044,0.11705341,0.090217166,inf,inf,inf,inf,1,1,1,1,7,7,7,7,8,0,1,1,0,0,0
604023635,604022582,168057400,59.3948185,24.6601304,0.11174002,0.12221864,-3.5007336,-0.050271273,0.0026445389,0.2936716,-0.00028082193,-0.009419982,-0.14878637,-0.0124698365,-0.09392912,0.05679685,0.20339692,0.6464623,-0.08529393,0.17147166,-1.9264772,0.0009012222,25.939417,0.1,0.24266641,0.2585149,0.117479034,0.090314604,inf,inf,inf,inf,1,1,1,1,7,7,7,7,8,0,1,1,0,0,0
604034212,604032464,168057400,59.3948185,24.6601304,0.11171491,0.12180738,-3.500946,-0.050271273,0.0026445389,0.2936716,-0.004685534,-0.00822096,-0.15129218,-0.015070615,-0.09392912,0.05679685,0.20339692,-0.5186823,0.29575992,-0.27834448,-1.9264458,0.0009012222,25.939417,0.1,0.24337256,0.25909823,0.11791205,0.090517655,inf,inf,inf,inf,1,1,1,1,7,7,7,7,8,0,1,1,0,0,0
