timestamp,timestamp_sample,accel_device_id,gyro_device_id,delta_angle[0],delta_angle[1],delta_angle[2],delta_velocity[0],delta_velocity[1],delta_velocity[2],delta_angle_dt,delta_velocity_dt,delta_angle_clipping,delta_velocity_clipping,accel_calibration_count,gyro_calibration_count
603054787,603054198,2490386,2490386,0.00013079817,-7.511507e-05,0.0002613246,-0.0014205129,-0.0006024155,-0.050699502,4941,4941,0,0,1,1
603059714,603059139,2490386,2490386,2.3670094e-05,4.1393818e-05,0.00016749853,0.0004186089,0.0011184845,-0.049708296,4941,4941,0,0,1,1
603064895,603064079,2490386,2490386,-3.7887778e-05,6.66225e-05,0.00010022633,-0.0015631737,-0.0015975835,-0.050725188,4940,4940,0,0,1,1
603069509,603069020,2490386,2490386,-5.2699474e-05,0.00016281218,-0.00012149446,0.00073953584,0.0014682919,-0.05019906,4941,4941,0,0,1,1
603074593,603073961,2490386,2490386,-0.000107457425,8.619376e-05,-0.00032729894,0.0025295303,0.00096437446,-0.051319588,4941,4941,0,0,1,1
603079392,603078902,2490386,2490386,-0.0001222519,6.698316e-05,-0.00023690006,-0.0020634069,-0.0017151883,-0.051942043,4941,4941,0,0,1,1
603084315,603083843,2490386,2490386,-6.68123e-05,0.00013061093,-2.654226e-05,0.0018829147,0.002120686,-0.048949964,4941,4941,0,0,1,1
603089281,603088783,2490386,2490386,1.8951224e-06,-9.389174e-05,0.0001870692,0.0014926404,0.002030295,-0.050931673,4940,4940,0,0,1,1
603094624,603093724,2490386,2490386,2.6193695e-05,-0.00013195237,0.00022557624,-0.0007962512,-0.0014701843,-0.051444687,4941,4941,0,0,1,1
603099145,603098666,2490386,2490386,-0.00010045222,-4.518883e-05,0.000110957226,0.0010598373,-0.00035988243,-0.050813675,4942,4942,0,0,1,1
603104558,603103605,2490386,2490386,7.536552e-06,-6.956265e-05,-6.762881e-05,0.0006723681,-0.0016714981,-0.05047314,4939,4939,0,0,1,1
603109086,603108546,2490386,2490386,1.8269476e-06,-4.8246093e-05,-0.00017704464,-0.000264283,0.0017766193,-0.052247528,4941,4941,0,0,1,1
603114491,603113487,2490386,2490386,-6.1032206e-05,-4.230055e-05,-0.00012171259,0.00056427385,-0.0005980382,-0.05000207,4941,4941,0,0,1,1
603119123,603118427,2490386,2490386,2.060072e-05,-4.442499e-05,6.0015727e-06,-0.001041089,0.0005916838,-0.04904752,4940,4940,0,0,1,1
603124358,603123368,2490386,2490386,8.3877254e-05,7.724394e-06,0.00015467816,-0.00014070007,0.00038198134,-0.052217487,4941,4941,0,0,1,1
603129020,603128309,2490386,2490386,-5.300272e-06,-8.540916e-06,0.00015047511,0.0012122985,0.0008598611,-0.050250884,4941,4941,0,0,1,1
603134236,603133250,2490386,2490386,-1.4500092e-05,-6.4685914e-06,6.382302e-05,-0.0009231313,-0.00034610872,-0.048976094,4941,4941,0,0,1,1
603139115,603138195,2490386,2490386,-4.220888e-05,0.00010148196,-5.7343612e-05,-0.000496633,-0.0009516136,-0.051975124,4945,4945,0,0,1,1
603144252,603143142,2490386,2490386,-7.380385e-05,0.00015337656,-0.00010534686,0.0010222645,1.7460758e-05,-0.050768163,4947,4947,0,0,1,1
603148812,603148072,2490386,2490386,1.4540253e-05,8.940353e-05,-3.0235635e-05,-0.00071685424,0.0008882339,-0.049812637,4930,4930,0,0,1,1
603154317,603153013,2490386,2490386,-3.714457e-05,9.2600545e-05,5.6010038e-05,0.0012944129,0.0017892921,-0.052013107,4941,4941,4,0,1,1
603158447,603157953,2490386,2490386,-5.9959453e-05,-5.1840314e-05,0.0001355167,0.002263573,-0.0005270308,-0.051450074,4940,4940,0,0,1,1
603163464,603162894,2490386,2490386,-3.3518874e-05,-0.00010197821,6.95445e-05,-0.0011901364,0.00069011474,-0.049176663,4941,4941,0,0,1,1
603168326,603167835,2490386,2490386,-3.6154634e-05,2.3694838e-05,-2.0835603e-06,-0.00030266235,-0.00091352523,-0.05141238,4941,4941,0,0,1,1
603173266,603172776,2490386,2490386,-3.1322437e-05,3.108992e-05,-6.544104e-05,0.0022963907,-0.00057235657,-0.05113433,4941,4941,0,0,1,1
603178202,603177716,2490386,2490386,7.025957e-05,-9.640642e-05,-6.221489e-05,0.0005075427,-0.0016441289,-0.05039537,4940,4940,0,0,1,1
603183130,603182657,2490386,2490386,8.492796e-05,-3.985208e-05,2.580797e-06,-0.0012881864,0.00036161978,-0.05017613,4941,4941,0,0,1,1
603188076,603187598,2490386,2490386,4.603919e-05,3.7886846e-06,9.420637e-05,-0.001207234,0.0031832324,-0.049220838,4941,4941,0,0,1,1
603193015,603192539,2490386,2490386,-4.6770077e-05,2.6629568e-05,8.946198e-05,0.00035752685,0.0011215054,-0.050820757,4941,4941,0,0,1,1
603198091,603197479,2490386,2490386,-0.00011567856,-3.8085305e-05,1.7530732e-05,0.0032493216,-0.00028522246,-0.05281928,4940,4940,0,0,1,1
603202928,603202420,2490386,2490386,-0.00011816131,-8.169156e-05,-6.135292e-05,-0.00010905042,0.00014705167,-0.049829748,4941,4941,0,0,1,1
603208042,603207360,2490386,2490386,-8.143326e-05,4.1791765e-05,-8.6849206e-05,-0.0019234745,-0.0013572589,-0.050630555,4940,4940,0,0,1,1
603212801,603212301,2490386,2490386,-3.5580575e-05,6.2273175e-05,-2.6518606e-05,0.0014706298,-0.00010194075,-0.0519371,4941,4941,0,0,1,1
603217892,603217242,2490386,2490386,3.222793e-05,-2.048207e-05,7.039306e-05,-0.0004761865,-0.00057386624,-0.04987138,4941,4941,0,0,1,1
603222754,603222187,2490386,2490386,7.337004e-05,2.7462369e-05,0.00012429002,-0.0014798081,0.00064247625,-0.04976534,4945,4945,0,0,1,1
603227726,603227124,2490386,2490386,-2.5286743e-06,6.658752e-05,0.0001081688,0.00076553586,0.0010982949,-0.050627355,4937,4937,0,0,1,1
603232749,603232064,2490386,2490386,-2.115843e-05,8.350934e-05,-2.4590374e-06,0.0010523421,-0.00074667763,-0.049286064,4940,4940,0,0,1,1
603237529,603237006,2490386,2490386,3.4740362e-05,4.636532e-05,-5.820678e-05,0.0009990304,-9.8954995e-05,-0.051030677,4942,4942,0,0,1,1
603242545,603241946,2490386,2490386,-2.8322103e-05,2.0083897e-05,-7.4564254e-05,0.0005139569,0.001044625,-0.050794546,4940,4940,0,0,1,1
603247412,603246887,2490386,2490386,-3.78443e-05,-1.1712824e-05,-2.7794935e-05,0.0003843703,0.0003019958,-0.050885875,4941,4941,0,0,1,1
603252340,603251828,2490386,2490386,6.5323115e-07,-8.420849e-05,7.877627e-05,0.0001897682,0.00044255322,-0.051239956,4941,4941,0,0,1,1
603257264,603256768,2490386,2490386,-3.9708644e-05,-4.5816752e-05,0.000113434406,-0.0010181236,0.0002041461,-0.051037386,4940,4940,0,0,1,1
603262190,603261709,2490386,2490386,-3.0609455e-05,-5.957462e-06,8.9622416e-05,-0.00017177241,-0.0009544987,-0.050509155,4941,4941,0,0,1,1
603267277,603266650,2490386,2490386,4.416594e-06,3.0241337e-05,7.3125184e-06,0.0015278308,0.00058341684,-0.05014233,4941,4941,0,0,1,1
603272086,603271590,2490386,2490386,-2.0460773e-05,-4.5452038e-05,-9.731358e-05,0.0017303996,-0.00016836885,-0.051284324,4940,4940,0,0,1,1
603277002,603276531,2490386,2490386,-4.791341e-05,-5.2534393e-05,-0.00010661274,-0.0010549404,0.0013246245,-0.04927506,4941,4941,0,0,1,1
603281970,603281472,2490386,2490386,-0.00010062541,9.924536e-06,-3.0446055e-05,-0.000114177165,0.0011660525,-0.050690323,4941,4941,0,0,1,1
603286919,603286412,2490386,2490386,-5.7149588e-05,-1.8191942e-05,5.875725e-05,0.00070609804,-0.000978399,-0.05189982,4940,4940,0,0,1,1
603291898,603291354,2490386,2490386,5.660517e-05,-6.245721e-05,0.00013271002,9.97153e-05,-0.0016060061,-0.050915547,4942,4942,0,0,1,1
603296899,603296294,2490386,2490386,0.000103878236,3.401251e-05,9.555925e-05,-0.00035176586,-0.001278782,-0.0513795,4940,4940,0,0,1,1
603301829,603301235,2490386,2490386,6.940242e-05,6.317781e-05,3.8355138e-05,-0.0007727875,6.922083e-05,-0.050256718,4941,4941,0,0,1,1
603306689,603306176,2490386,2490386,2.7871374e-05,0.000120763674,-6.877439e-05,0.00075109804,0.0017962974,-0.049890302,4941,4941,0,0,1,1
603311659,603311117,2490386,2490386,-4.2286327e-05,3.0414756e-05,-8.3715415e-05,0.0016052893,0.0018225869,-0.050228495,4941,4941,0,0,1,1
603316707,603316057,2490386,2490386,-0.000111704896,-8.13681e-06,-3.0226223e-05,-0.00011175318,0.001581224,-0.050506677,4940,4940,0,0,1,1
603321514,603320998,2490386,2490386,-0.00014376275,-7.4872287e-07,5.4634394e-05,0.0005056916,0.0010759667,-0.050690684,4941,4941,0,0,1,1
603326514,603325938,2490386,2490386,-0.000112762,-3.461685e-05,9.266977e-05,0.0003134401,-0.0027099014,-0.051846776,4940,4940,0,0,1,1
603331377,603330879,2490386,2490386,-7.172026e-06,-1.2827729e-05,6.892712e-05,0.0005712199,-0.0019132027,-0.051666927,4941,4941,0,0,1,1
603336541,603335821,2490386,2490386,3.0251944e-05,4.913323e-05,1.8396693e-05,-0.0012087205,-0.00012684125,-0.050201613,4942,4942,0,0,1,1
603341305,603340777,2490386,2490386,5.8365084e-05,2.5446794e-05,-4.1871077e-05,0.0013069721,7.805089e-05,-0.05071167,4956,4956,0,0,1,1
603346214,603345701,2490386,2490386,5.791474e-05,-1.8321658e-05,-7.781664e-05,0.0009595882,0.0020557598,-0.049776815,4924,4924,0,0,1,1
603351258,603350643,2490386,2490386,-1.3562889e-05,-2.585405e-05,-1.8056864e-05,-0.00038774585,0.0020804154,-0.04996475,4942,4942,0,0,1,1
603356073,603355583,2490386,2490386,-7.0561175e-05,-5.399958e-05,5.2869626e-05,0.0010276597,0.00060842186,-0.050955147,4940,4940,0,0,1,1
603361016,603360524,2490386,2490386,-5.7854202e-05,-8.3994615e-05,9.587933e-05,-0.00019945933,-0.0010633834,-0.051393576,4941,4941,0,0,1,1
603365954,603365464,2490386,2490386,3.5495912e-06,-4.8088664e-06,6.160179e-05,-0.0007677136,-0.0016291237,-0.051507734,4940,4940,0,0,1,1
603370919,603370405,2490386,2490386,4.0185256e-05,6.221806e-05,-8.180197e-06,0.00014725074,-0.0020574022,-0.050815396,4941,4941,0,0,1,1
603375859,603375346,2490386,2490386,5.7345427e-05,5.7355603e-05,-4.3081207e-05,0.00053583144,0.0009195896,-0.049974535,4941,4941,0,0,1,1
603380758,603380286,2490386,2490386,-2.3249197e-05,3.6760168e-05,-5.0722832e-05,0.0008494254,0.0023157594,-0.04970236,4940,4940,0,0,1,1
603385719,603385227,2490386,2490386,-8.498418e-05,-1.9201836e-05,2.6678763e-05,0.0006215638,0.00288202,-0.04983497,4941,4941,0,0,1,1
603390700,603390168,2490386,2490386,-0.00011918415,-5.795065e-05,7.349709e-05,-8.157935e-05,0.0006047174,-0.05082199,4941,4941,0,0,1,1
603395573,603395109,2490386,2490386,-0.00012819386,-1.6095702e-05,8.153198e-05,-0.00058049615,-0.0008304533,-0.051710658,4941,4941,0,0,1,1
603400557,603400049,2490386,2490386,-7.169611e-05,6.973655e-05,2.1473721e-05,0.00024760177,-0.0033262298,-0.05168231,4940,4940,0,0,1,1
603405608,603404990,2490386,2490386,5.3602464e-05,7.3637515e-05,-6.042469e-05,0.00051510206,-0.00155182,-0.051677886,4941,4941,0,0,1,1
603410457,603409932,2490386,2490386,0.00010763155,4.6545585e-05,-7.31604e-05,0.0003945957,0.00051198166,-0.05064501,4942,4942,0,0,1,1
603415542,603414872,2490386,2490386,8.2980616e-05,2.974279e-06,-2.0938363e-05,0.00024925632,0.0016695559,-0.049569722,4940,4940,0,0,1,1
603420315,603419813,2490386,2490386,3.435458e-05,-3.5335015e-05,6.1013514e-05,0.0009818733,0.002900065,-0.04936254,4941,4941,0,0,1,1
603425319,603424756,2490386,2490386,-2.3645354e-05,-0.00011180113,0.00011600309,0.00065772684,0.00073209865,-0.05117556,4943,4943,0,0,1,1
603430212,603429694,2490386,2490386,-0.000100093996,-4.6580015e-05,9.074896e-05,-0.00086472876,-0.0007899565,-0.050356932,4938,4938,0,0,1,1
603435153,603434635,2490386,2490386,-9.7635704e-05,3.291641e-05,-6.760979e-06,-8.199637e-05,-0.00083625846,-0.050146725,4941,4941,0,0,1,1
603440207,603439575,2490386,2490386,-3.1895088e-05,3.69418e-05,-8.447114e-05,0.00027809158,-0.00180309,-0.05174971,4940,4940,0,0,1,1
603445487,603444516,2490386,2490386,2.2807708e-05,3.540841e-05,-8.553335e-05,0.00040035258,-0.000102506136,-0.050904494,4941,4941,0,0,1,1
603449945,603449457,2490386,2490386,2.1612781e-05,1.2455746e-06,1.7453457e-06,0.0005817111,0.0020042646,-0.049863055,4941,4941,0,0,1,1
603455046,603454398,2490386,2490386,-5.6935182e-06,-5.9586633e-05,8.190402e-05,7.014424e-05,0.0017165908,-0.050914623,4941,4941,0,0,1,1
603459818,603459338,2490386,2490386,-5.514916e-05,-8.139496e-05,0.00013039229,-0.00018705167,0.0010884821,-0.049889185,4940,4940,0,0,1,1
603465025,603464279,2490386,2490386,-8.916299e-05,2.4861647e-05,7.775718e-05,-0.0014458589,-0.0010234448,-0.050320774,4941,4941,0,0,1,1
603469797,603469220,2490386,2490386,-8.502925e-05,0.00012639214,-4.3898537e-05,0.001397514,-0.001710312,-0.05090982,4941,4941,0,0,1,1
603474936,603474161,2490386,2490386,2.8866294e-05,4.037204e-05,-0.000112276706,0.0015280023,-0.0022325069,-0.051558267,4941,4941,0,0,1,1
603479627,603479107,2490386,2490386,0.000111074856,2.27601e-05,-7.6955504e-05,-0.0004385734,0.0011143377,-0.050020307,4946,4946,0,0,1,1
603484959,603484042,2490386,2490386,7.950475e-05,3.882744e-05,1.9955727e-05,0.00052665715,0.0017711497,-0.050480377,4935,4935,0,0,1,1
603489634,603488996,2490386,2490386,6.347205e-05,-7.3874995e-05,0.00011821778,0.0013412185,0.0015071335,-0.051257584,4954,4954,0,0,1,1
603494960,603493923,2490386,2490386,-4.8731734e-05,-9.244719e-05,0.00013983864,-0.0004038411,0.001087584,-0.050264854,4927,4927,0,0,1,1
603499645,603498864,2490386,2490386,-0.00015197748,3.1465144e-05,5.4978005e-05,-0.0011945856,-0.0004933706,-0.050414685,4941,4941,0,0,1,1
603505029,603503805,2490386,2490386,-9.007564e-05,6.439357e-05,-5.970596e-05,0.0011811346,-0.0007760313,-0.051256444,4941,4941,0,0,1,1
603509515,603508746,2490386,2490386,-1.2016761e-05,6.489528e-06,-0.00011973271,0.0005149233,-0.0019373167,-0.051073775,4941,4941,0,0,1,1
603514188,603513687,2490386,2490386,3.7031036e-06,1.581333e-05,-5.5662404e-05,0.00041871695,0.0008402313,-0.050267827,4941,4941,0,0,1,1
603519150,603518627,2490386,2490386,1.8636227e-05,-1.9762234e-05,3.7826627e-05,0.00069727487,0.00087501795,-0.050452117,4940,4940,0,0,1,1
603524077,603523568,2490386,2490386,3.0835722e-06,-8.8219946e-05,0.00011869923,0.00045652254,0.0016819476,-0.05009469,4941,4941,0,0,1,1
603529022,603528509,2490386,2490386,-9.628544e-05,-2.1297912e-05,0.00011457311,-0.0017249385,6.400287e-05,-0.049970567,4941,4941,0,0,1,1
603534073,603533449,2490386,2490386,-0.00010512044,0.0001013109,2.367896e-05,0.0005530499,-0.0012578043,-0.05066131,4940,4940,0,0,1,1
603538895,603538390,2490386,2490386,1.01223495e-05,5.9669797e-05,-7.876003e-05,0.0010769297,-0.0014412238,-0.051765993,4941,4941,0,0,1,1
603543842,603543331,2490386,2490386,7.845608e-05,3.8457692e-05,-9.452749e-05,0.00016932325,0.00030553216,-0.050623365,4941,4941,0,0,1,1
