timestamp,timestamp_sample,ref_timestamp,ref_lat,ref_lon,x,y,z,delta_xy[0],delta_xy[1],delta_z,vx,vy,vz,z_deriv,delta_vxy[0],delta_vxy[1],delta_vz,ax,ay,az,heading,delta_heading,ref_alt,dist_bottom,eph,epv,evh,evv,vxy_max,vz_max,hagl_min,hagl_max,xy_valid,z_valid,v_xy_valid,v_z_valid,xy_reset_counter,z_reset_counter,vxy_reset_counter,vz_reset_counter,heading_reset_counter,heading_good_for_control,xy_global,z_global,dist_bottom_valid,dist_bottom_sensor_bitfield,dead_reckoning
603054025,603053198,168057400,59.3948185,24.6601304,0.10984849,0.15472999,-3.4474013,-0.0148082385,-0.020691883,0.006032414,0.0011135156,-0.02578445,-0.22601968,-0.03487587,0.033442393,-0.032656487,0.17070457,0.019030984,0.31917349,-0.11006974,-1.924355,-2.182619,25.956984,0.10076308,0.24473864,0.25971583,0.118836835,0.09055461,inf,inf,inf,inf,1,1,1,1,2,2,2,2,3,0,1,1,0,0,0
603064625,603063213,168057400,59.3948185,24.6601304,0.11021892,0.15432829,-3.4472628,-0.0148082385,-0.020691883,0.006032414,0.002256392,-0.025141269,-0.22709465,-0.035426978,0.033442393,-0.032656487,0.17070457,-0.064284526,0.20776284,-0.32014903,-1.9241139,-2.182619,25.956984,0.11289787,0.23675063,0.2544088,0.11392666,0.08843207,inf,inf,inf,inf,1,1,1,1,2,2,2,2,3,0,1,1,0,0,0
603073836,603073230,168057400,59.3948185,24.6601304,0.11056414,0.15391766,-3.4472234,-0.0148082385,-0.020691883,0.006032414,-0.00011372066,-0.029705035,-0.22669397,-0.034606397,0.033442393,-0.032656487,0.17070457,-0.15710476,-0.4964959,-0.08322578,-1.9246058,-2.182619,25.956984,0.11075306,0.23742594,0.25498015,0.11435887,0.088635296,inf,inf,inf,inf,1,1,1,1,2,2,2,2,3,0,1,1,0,0,0
603083834,603083245,168057400,59.3948185,24.6601304,0.11089915,0.15351333,-3.447281,-0.0148082385,-0.020691883,0.006032414,0.0022125498,-0.02743232,-0.2274522,-0.03504436,0.033442393,-0.032656487,0.17070457,0.21548781,-0.2637217,0.11363291,-1.9248875,-2.182619,25.956984,0.108691216,0.23810594,0.25555387,0.11479252,0.088838615,inf,inf,inf,inf,1,1,1,1,2,2,2,2,3,0,1,1,0,0,0
603094358,603093261,168057400,59.3948185,24.6601304,0.1112483,0.15311393,-3.447415,-0.0148082385,-0.020691883,0.006032414,0.0032849638,-0.026726523,-0.22746056,-0.034827903,0.033442393,-0.032656487,0.17070457,-0.118934385,0.2609906,-0.3013494,-1.924482,-2.182619,25.956984,0.10669184,0.23879068,0.25613,0.11522644,0.08904202,inf,inf,inf,inf,1,1,1,1,2,2,2,2,3,0,1,1,0,0,0
603104333,603103278,168057400,59.3948185,24.6601304,0.11156139,0.15271711,-3.447644,-0.0148082385,-0.020691883,0.006032414,-0.0011045919,-0.02801648,-0.22736908,-0.034603,0.033442393,-0.032656487,0.17070457,-0.36778978,-0.01789205,-0.043142702,-1.9244969,-2.182619,25.956984,0.10477543,0.23948014,0.2567085,0.11565983,0.089245535,inf,inf,inf,inf,1,1,1,1,2,2,2,2,3,0,1,1,0,0,0
603114305,603113293,168057400,59.3948185,24.6601304,0.11185264,0.15231961,-3.4477832,-0.0148082385,-0.020691883,0.006032414,-0.00022426483,-0.028056351,-0.22879139,-0.03579591,0.033442393,-0.032656487,0.17070457,-0.24923353,0.07278507,0.054801136,-1.9248239,-2.182619,25.956984,0.10723901,0.24017435,0.25659698,0.11609536,0.08934752,inf,inf,inf,inf,1,1,1,1,2,2,2,2,3,0,1,1,0,0,0
603124180,603123308,168057400,59.3948185,24.6601304,0.11214625,0.15194365,-3.4479992,-0.0148082385,-0.020691883,0.006032414,0.0016523511,-0.026038798,-0.22918293,-0.036049895,0.033442393,-0.032656487,0.17070457,-0.014728204,0.031569276,-0.5020595,-1.9246703,-2.182619,25.956984,0.10529137,0.24087332,0.2571787,0.116532885,0.08955124,inf,inf,inf,inf,1,1,1,1,2,2,2,2,3,0,1,1,0,0,0
603134053,603133324,168057400,59.3948185,24.6601304,0.11243903,0.15156995,-3.448306,-0.0148082385,-0.020691883,0.006032414,0.002184853,-0.02650684,-0.22822806,-0.035045553,0.033442393,-0.032656487,0.17070457,0.018568626,0.18834774,0.1114363,-1.9245259,-2.182619,25.956984,0.10341287,0.2415771,0.2577628,0.116972424,0.08975506,inf,inf,inf,inf,1,1,1,1,2,2,2,2,3,0,1,1,0,0,0
603144140,603143343,168057400,59.3948185,24.6601304,0.11271096,0.15120968,-3.4486992,-0.0148082385,-0.020691883,0.006032414,0.000585386,-0.025861463,-0.22937648,-0.03622844,0.033442393,-0.032656487,0.17070457,-0.052556273,-0.0622015,0.07395757,-1.92473,-2.182619,25.956984,0.101614,0.2422857,0.2583493,0.11740455,0.08995898,inf,inf,inf,inf,1,1,1,1,2,2,2,2,3,0,1,1,0,0,0
603154104,603153356,168057400,59.3948185,24.6601304,0.11298618,0.1508567,-3.4491653,-0.0148082385,-0.020691883,0.006032414,0.0030438101,-0.026942661,-0.23088296,-0.037849877,0.033442393,-0.032656487,0.17070457,0.072758906,-0.3716759,-0.45460033,-1.9247131,-2.182619,25.956984,0.1,0.24299909,0.25893822,0.11784719,0.09016299,inf,inf,inf,inf,1,1,1,1,2,2,2,2,3,0,1,1,0,0,0
603164067,603163372,168057400,59.3948185,24.6601304,0.11326303,0.15049155,-3.4497154,-0.0148082385,-0.020691883,0.006032414,0.0024780869,-0.026646232,-0.23000515,-0.037163995,0.033442393,-0.032656487,0.17070457,-0.17779304,0.29806688,0.03140352,-1.9245555,-2.182619,25.956984,0.1,0.24371734,0.2595295,0.11828567,0.09036709,inf,inf,inf,inf,1,1,1,1,2,2,2,2,3,0,1,1,0,0,0
603174410,603173388,168057400,59.3948185,24.6601304,0.11351141,0.15013485,-3.4501252,-0.0148082385,-0.020691883,0.006032414,-6.7375106e-05,-0.027982503,-0.2309816,-0.038187414,0.033442393,-0.032656487,0.17070457,-0.30788124,-0.3177195,-0.17191565,-1.9246737,-2.182619,25.956984,0.101707935,0.24444045,0.2594078,0.11872236,0.090464115,inf,inf,inf,inf,1,1,1,1,2,2,2,2,3,0,1,1,0,0,0
603184307,603183404,168057400,59.3948185,24.6601304,0.11374329,0.14977543,-3.4506083,-0.0148082385,-0.020691883,0.006032414,0.0014666925,-0.026628539,-0.23051089,-0.037843604,0.033442393,-0.032656487,0.17070457,0.18145482,0.23789139,-0.10879326,-1.9247241,-2.182619,25.956984,0.1,0.2451684,0.2600023,0.11916317,0.090668425,inf,inf,inf,inf,1,1,1,1,2,2,2,2,3,0,1,1,0,0,0
603194313,603193420,168057400,59.3948185,24.6601304,0.11398952,0.1494319,-3.4511664,-0.0148082385,-0.020691883,0.006032414,0.0032757658,-0.026719507,-0.23044151,-0.037977573,0.033442393,-0.032656487,0.17070457,0.059127633,-0.14272837,-0.124874935,-1.9246186,-2.182619,25.956984,0.1,0.24590126,0.26059917,0.119606994,0.090872824,inf,inf,inf,inf,1,1,1,1,2,2,2,2,3,0,1,1,0,0,0
603204333,603203435,168057400,59.3948185,24.6601304,0.11423034,0.14907645,-3.4518044,-0.0148082385,-0.020691883,0.006032414,0.0020506515,-0.027498102,-0.23170836,-0.039520856,0.033442393,-0.032656487,0.17070457,-0.21370034,0.26792738,-0.07023338,-1.9247222,-2.182619,25.956984,0.1,0.24663903,0.2611985,0.12004636,0.09107732,inf,inf,inf,inf,1,1,1,1,2,2,2,2,3,0,1,1,0,0,0
603214690,603213451,168057400,59.3948185,24.6601304,0.11417296,0.14839119,-3.451926,-0.0148082385,-0.020691883,0.006032414,0.0023091938,-0.027640877,-0.23295352,-0.040480074,0.033442393,-0.032656487,0.17070457,-0.17543821,-0.29772595,-0.25794324,-1.9247884,-2.182619,25.956984,0.10939121,0.23839113,0.25578013,0.114973724,0.08891108,inf,inf,inf,inf,1,1,1,1,2,2,2,2,3,0,1,1,0,0,0
603224172,603223467,168057400,59.3948185,24.6601304,0.11411157,0.14772221,-3.45213,-0.0148082385,-0.020691883,0.006032414,0.002925935,-0.025632275,-0.23176752,-0.039102145,0.033442393,-0.032656487,0.17070457,0.26138842,0.25219026,-0.030375648,-1.9246069,-2.182619,25.956984,0.107381105,0.23907751,0.25635704,0.11540818,0.089114524,inf,inf,inf,inf,1,1,1,1,2,2,2,2,3,0,1,1,0,0,0
603234420,603233492,168057400,59.3948185,24.6601304,0.11405577,0.1470671,-3.4524195,-0.0148082385,-0.020691883,0.006032414,0.0018414515,-0.027078168,-0.2319066,-0.03913933,0.033442393,-0.032656487,0.17070457,-0.15432303,-0.024187623,-0.057542503,-1.9246057,-2.182619,25.956984,0.10545087,0.23976862,0.2569363,0.115837224,0.08931805,inf,inf,inf,inf,1,1,1,1,2,2,2,2,3,0,1,1,0,0,0
603244398,603243504,168057400,59.3948185,24.6601304,0.1139861,0.14641424,-3.4525833,-0.0148082385,-0.020691883,0.006032414,0.0009915978,-0.028160345,-0.23282905,-0.039835263,0.033442393,-0.032656487,0.17070457,-0.018763768,-0.045233976,-0.05209944,-1.9248027,-2.182619,25.956984,0.10854101,0.24046446,0.25682378,0.11627326,0.08941968,inf,inf,inf,inf,1,1,1,1,2,2,2,2,3,0,1,1,0,0,0
603254228,603253514,168057400,59.3948185,24.6601304,0.113919206,0.14576675,-3.452838,-0.0148082385,-0.020691883,0.006032414,0.0013010576,-0.028425194,-0.23334675,-0.04021809,0.033442393,-0.032656487,0.17070457,-0.0967599,0.035468165,-0.07854462,-1.9247278,-2.182619,25.956984,0.106562614,0.2411651,0.25740626,0.116713494,0.08962342,inf,inf,inf,inf,1,1,1,1,2,2,2,2,3,0,1,1,0,0,0
603264137,603263530,168057400,59.3948185,24.6601304,0.11385384,0.14513594,-3.4531786,-0.0148082385,-0.020691883,0.006032414,0.0019612163,-0.027247177,-0.23286468,-0.039688967,0.033442393,-0.032656487,0.17070457,0.13357885,0.18106994,0.07657243,-1.9245845,-2.182619,25.956984,0.10465455,0.24187055,0.25799116,0.11714742,0.08982727,inf,inf,inf,inf,1,1,1,1,2,2,2,2,3,0,1,1,0,0,0
603274601,603273547,168057400,59.3948185,24.6601304,0.113781735,0.14450769,-3.4535923,-0.0148082385,-0.020691883,0.006032414,0.0013635452,-0.029589431,-0.2326555,-0.039516766,0.033442393,-0.032656487,0.17070457,0.1920186,-0.09074454,-0.08313993,-1.9247757,-2.182619,25.956984,0.10280824,0.24258079,0.25857845,0.11758636,0.09003121,inf,inf,inf,inf,1,1,1,1,2,2,2,2,3,0,1,1,0,0,0
603284400,603283563,168057400,59.3948185,24.6601304,0.11372001,0.14388889,-3.4540875,-0.0148082385,-0.020691883,0.006032414,0.0023020352,-0.02944,-0.23396511,-0.04094377,0.033442393,-0.032656487,0.17070457,0.03198164,-0.2216694,-0.31891382,-1.9248711,-2.182619,25.956984,0.10103154,0.24329588,0.25916815,0.118022054,0.09023524,inf,inf,inf,inf,1,1,1,1,2,2,2,2,3,0,1,1,0,0,0
603294420,603293578,168057400,59.3948185,24.6601304,0.11365238,0.14328668,-3.454661,-0.0148082385,-0.020691883,0.006032414,0.0007197246,-0.027820194,-0.23448703,-0.041659907,0.033442393,-0.032656487,0.17070457,-0.07553826,0.06868512,-0.36152184,-1.9246614,-2.182619,25.956984,0.1,0.24401578,0.25976023,0.11845648,0.090439364,inf,inf,inf,inf,1,1,1,1,2,2,2,2,3,0,1,1,0,0,0
603304478,603303593,168057400,59.3948185,24.6601304,0.113569826,0.14270599,-3.4550781,-0.0148082385,-0.020691883,0.006032414,-0.0005081351,-0.027664522,-0.23359244,-0.040792245,0.033442393,-0.032656487,0.17070457,-0.004969668,-0.15847842,0.173488,-1.9246677,-2.182619,25.956984,0.10333991,0.24474053,0.2596374,0.118899256,0.09053603,inf,inf,inf,inf,1,1,1,1,2,2,2,2,3,0,1,1,0,0,0
603315355,603313609,168057400,59.3948185,24.6601304,0.11373531,0.14221922,-3.455004,-0.0148082385,-0.020691883,0.006032414,0.0025690068,-0.029720515,-0.23230052,-0.039020415,0.033442393,-0.032656487,0.17070457,0.24770224,-0.069216765,0.03847175,-1.9248495,-2.182619,25.956984,0.114812374,0.23673993,0.25433674,0.11398504,0.08841548,inf,inf,inf,inf,1,1,1,1,2,2,2,2,3,0,1,1,0,0,0
603324255,603323625,168057400,59.3948185,24.6601304,0.1139212,0.14173555,-3.4550202,-0.0148082385,-0.020691883,0.006032414,0.0029909413,-0.029330712,-0.23357181,-0.03991452,0.033442393,-0.032656487,0.17070457,-0.3176621,0.021739462,-0.3428379,-1.9247613,-2.182619,25.956984,0.11261034,0.23741513,0.25490773,0.11441237,0.08861872,inf,inf,inf,inf,1,1,1,1,2,2,2,2,3,0,1,1,0,0,0
603334489,603333641,168057400,59.3948185,24.6601304,0.11407174,0.1412737,-3.4551313,-0.0148082385,-0.020691883,0.006032414,-0.00025874382,-0.027134506,-0.23381461,-0.039878774,0.033442393,-0.032656487,0.17070457,-0.13762607,0.16085394,-0.19786027,-1.9246849,-2.182619,25.956984,0.110497236,0.23809503,0.2554811,0.114845276,0.088822044,inf,inf,inf,inf,1,1,1,1,2,2,2,2,3,0,1,1,0,0,0
603344304,603343657,168057400,59.3948185,24.6601304,0.11419503,0.1408195,-3.4553306,-0.0148082385,-0.020691883,0.006032414,-0.0006919274,-0.02941945,-0.23265743,-0.038537234,0.033442393,-0.032656487,0.17070457,0.2484281,-0.33158022,0.1705321,-1.9248297,-2.182619,25.956984,0.10845995,0.23877966,0.25605685,0.11528126,0.089025475,inf,inf,inf,inf,1,1,1,1,2,2,2,2,3,0,1,1,0,0,0
603354251,603353672,168057400,59.3948185,24.6601304,0.11434085,0.14035662,-3.4555955,-0.0148082385,-0.020691883,0.006032414,0.0029316111,-0.030292409,-0.2321431,-0.03792866,0.033442393,-0.032656487,0.17070457,0.119070746,-0.19530642,-0.27153146,-1.9248674,-2.182619,25.956984,0.10646963,0.23946902,0.25663498,0.11571741,0.08922899,inf,inf,inf,inf,1,1,1,1,2,2,2,2,3,0,1,1,0,0,0
603364308,603363694,168057400,59.3948185,24.6601304,0.11449487,0.13990018,-3.4559524,-0.0148082385,-0.020691883,0.006032414,0.0021132512,-0.028474877,-0.23357041,-0.03934813,0.033442393,-0.032656487,0.17070457,-0.25979912,0.27663633,-0.2541518,-1.9247367,-2.182619,25.956984,0.10456109,0.24016315,0.2572155,0.11614823,0.08943261,inf,inf,inf,inf,1,1,1,1,2,2,2,2,3,0,1,1,0,0,0
603374690,603373705,168057400,59.3948185,24.6601304,0.114607245,0.13946871,-3.4561782,-0.0148082385,-0.020691883,0.006032414,-0.0010349791,-0.027794333,-0.23416407,-0.0397915,0.033442393,-0.032656487,0.17070457,0.08894047,-0.09589421,-0.07349984,-1.9248177,-2.182619,25.956984,0.108016014,0.24086203,0.25710192,0.116584204,0.08953378,inf,inf,inf,inf,1,1,1,1,2,2,2,2,3,0,1,1,0,0,0
603384719,603383720,168057400,59.3948185,24.6601304,0.11472541,0.13903338,-3.4564826,-0.0148082385,-0.020691883,0.006032414,0.0028475062,-0.029924665,-0.23303618,-0.03860229,0.033442393,-0.032656487,0.17070457,0.47272465,-0.27049083,0.030652955,-1.9248915,-2.182619,25.956984,0.106046915,0.2415657,0.25768563,0.11702189,0.08973762,inf,inf,inf,inf,1,1,1,1,2,2,2,2,3,0,1,1,0,0,0
603394717,603393736,168057400,59.3948185,24.6601304,0.11487406,0.13859111,-3.456854,-0.0148082385,-0.020691883,0.006032414,0.003816688,-0.029655239,-0.23228914,-0.037879072,0.033442393,-0.032656487,0.17070457,-0.1861984,0.1393318,-0.18094026,-1.9247339,-2.182619,25.956984,0.10412812,0.2422742,0.25827175,0.11746057,0.08994155,inf,inf,inf,inf,1,1,1,1,2,2,2,2,3,0,1,1,0,0,0
603404725,603403756,168057400,59.3948185,24.6601304,0.11499257,0.13816866,-3.4573085,-0.0148082385,-0.020691883,0.006032414,-0.0013035939,-0.028354507,-0.23326628,-0.038961455,0.033442393,-0.032656487,0.17070457,-0.6232834,-0.03735985,-0.28118628,-1.9247941,-2.182619,25.956984,0.10228729,0.24298751,0.2588603,0.11789147,0.090145566,inf,inf,inf,inf,1,1,1,1,2,2,2,2,3,0,1,1,0,0,0
603414654,603413767,168057400,59.3948185,24.6601304,0.11507638,0.13775387,-3.4578352,-0.0148082385,-0.020691883,0.006032414,-0.00037427893,-0.028377444,-0.23132217,-0.03720049,0.033442393,-0.032656487,0.17070457,0.28683445,0.037763707,0.23822334,-1.9249299,-2.182619,25.956984,0.10052204,0.24370566,0.2594512,0.11832624,0.090349674,inf,inf,inf,inf,1,1,1,1,2,2,2,2,3,0,1,1,0,0,0
603424444,603423783,168057400,59.3948185,24.6601304,0.11518811,0.13733438,-3.4584177,-0.0148082385,-0.020691883,0.006032414,0.00337905,-0.030278202,-0.23039933,-0.03653529,0.033442393,-0.032656487,0.17070457,0.26620975,-0.13816226,-0.09515668,-1.9247983,-2.182619,25.956984,0.1,0.24442865,0.26004454,0.11876881,0.09055388,inf,inf,inf,inf,1,1,1,1,2,2,2,2,3,0,1,1,0,0,0
603434490,603433799,168057400,59.3948185,24.6601304,0.11530649,0.13691367,-3.4588113,-0.0148082385,-0.020691883,0.006032414,0.002002982,-0.029514467,-0.22980696,-0.03600924,0.033442393,-0.032656487,0.17070457,-0.18142381,0.16816047,0.09212734,-1.9247637,-2.182619,25.956984,0.10328293,0.24515651,0.25992057,0.11920916,0.09065008,inf,inf,inf,inf,1,1,1,1,2,2,2,2,3,0,1,1,0,0,0
603445238,603443815,168057400,59.3948185,24.6601304,0.11501049,0.13632213,-3.4586396,-0.0148082385,-0.020691883,0.006032414,-0.001154871,-0.02888193,-0.22863385,-0.034312293,0.033442393,-0.032656487,0.17070457,-0.17675161,0.052098807,0.13068922,-1.924954,-2.182619,25.956984,0.11659241,0.23710051,0.2545984,0.114248045,0.08852039,inf,inf,inf,inf,1,1,1,1,2,2,2,2,3,0,1,1,0,0,0
603454848,603453831,168057400,59.3948185,24.6601304,0.114727534,0.13573931,-3.4585416,-0.0148082385,-0.020691883,0.006032414,0.002178728,-0.029936621,-0.22695321,-0.032212824,0.033442393,-0.032656487,0.17070457,0.27042276,-0.1048153,-0.08420843,-1.9248954,-2.182619,25.956984,0.11427355,0.23777835,0.25517052,0.114677556,0.0887237,inf,inf,inf,inf,1,1,1,1,2,2,2,2,3,0,1,1,0,0,0
603464842,603463847,168057400,59.3948185,24.6601304,0.11447531,0.13516477,-3.4585264,-0.0148082385,-0.020691883,0.006032414,0.0028525917,-0.028373793,-0.22621056,-0.03115215,0.033442393,-0.032656487,0.17070457,-0.12079252,0.38607663,0.04044672,-1.9247223,-2.182619,25.956984,0.11202264,0.2384609,0.255745,0.11511516,0.0889271,inf,inf,inf,inf,1,1,1,1,2,2,2,2,3,0,1,1,0,0,0
603474757,603473862,168057400,59.3948185,24.6601304,0.11419212,0.13460581,-3.4585936,-0.0148082385,-0.020691883,0.006032414,-0.0036374223,-0.029586187,-0.22627905,-0.030998915,0.033442393,-0.032656487,0.17070457,-0.57368547,-0.11084542,-0.31924537,-1.9248997,-2.182619,25.956984,0.10983682,0.23914818,0.25632188,0.11554996,0.089130595,inf,inf,inf,inf,1,1,1,1,2,2,2,2,3,0,1,1,0,0,0
603484778,603483878,168057400,59.3948185,24.6601304,0.11389729,0.1340527,-3.458733,-0.0148082385,-0.020691883,0.006032414,-0.0008485617,-0.029841492,-0.22385341,-0.028443873,0.033442393,-0.032656487,0.17070457,0.2963644,-0.11608121,0.019505352,-1.924983,-2.182619,25.956984,0.10771704,0.23984024,0.25690112,0.11597931,0.089334175,inf,inf,inf,inf,1,1,1,1,2,2,2,2,3,0,1,1,0,0,0
603494782,603493894,168057400,59.3948185,24.6601304,0.1136377,0.13349858,-3.4589493,-0.0148082385,-0.020691883,0.006032414,0.0018315342,-0.030502465,-0.22405328,-0.028602764,0.033442393,-0.032656487,0.17070457,0.27314723,0.13196927,0.025590936,-1.9247544,-2.182619,25.956984,0.10567689,0.24053703,0.25748277,0.11641042,0.08953787,inf,inf,inf,inf,1,1,1,1,2,2,2,2,3,0,1,1,0,0,0
603504845,603503910,168057400,59.3948185,24.6601304,0.11337733,0.1329532,-3.4590826,-0.0148082385,-0.020691883,0.006032414,-0.002030017,-0.031158568,-0.2241165,-0.028543293,0.033442393,-0.032656487,0.17070457,-0.37878793,-0.18627074,-0.1938434,-1.924837,-2.182619,25.956984,0.10760832,0.24123861,0.25736818,0.11684914,0.08963863,inf,inf,inf,inf,1,1,1,1,2,2,2,2,3,0,1,1,0,0,0
603514684,603513927,168057400,59.3948185,24.6601304,0.11309736,0.13241617,-3.4592972,-0.0148082385,-0.020691883,0.006032414,-0.0017424398,-0.030577004,-0.22318834,-0.027580513,0.033442393,-0.032656487,0.17070457,0.24004239,-0.029429477,0.18199751,-1.9250296,-2.182619,25.956984,0.1055603,0.241945,0.25795305,0.117279485,0.089842536,inf,inf,inf,inf,1,1,1,1,2,2,2,2,3,0,1,1,0,0,0
603524634,603523941,168057400,59.3948185,24.6601304,0.11284324,0.13188471,-3.459576,-0.0148082385,-0.020691883,0.006032414,0.00028803851,-0.03192727,-0.22224787,-0.026689868,0.033442393,-0.032656487,0.17070457,0.09883479,-0.25966734,-0.119815156,-1.9248668,-2.182619,25.956984,0.10357952,0.24265616,0.2585403,0.11771247,0.09004652,inf,inf,inf,inf,1,1,1,1,2,2,2,2,3,0,1,1,0,0,0
603534766,603533957,168057400,59.3948185,24.6601304,0.11259687,0.13135967,-3.4599354,-0.0148082385,-0.020691883,0.006032414,-0.0016264387,-0.031018471,-0.222431,-0.027003577,0.033442393,-0.032656487,0.17070457,-0.33618766,-0.06347406,-0.04500064,-1.9248123,-2.182619,25.956984,0.10168338,0.24337217,0.25912994,0.11814453,0.090250604,inf,inf,inf,inf,1,1,1,1,2,2,2,2,3,0,1,1,0,0,0
603544675,603543973,168057400,59.3948185,24.6601304,0.11231443,0.13084897,-3.4603627,-0.0148082385,-0.020691883,0.006032414,-0.0049196696,-0.030486196,-0.22164351,-0.026423892,0.033442393,-0.032656487,0.17070457,0.01629203,-0.06919419,0.009260862,-1.9250253,-2.182619,25.956984,0.1,0.24409299,0.25972202,0.11858051,0.09045479,inf,inf,inf,inf,1,1,1,1,2,2,2,2,3,0,1,1,0,0,0
603554945,603553989,168057400,59.3948185,24.6601304,0.11204682,0.13034658,-3.4608526,-0.0148082385,-0.020691883,0.006032414,-0.001213635,-0.03122586,-0.22005697,-0.025118975,0.033442393,-0.032656487,0.17070457,0.4274991,-0.26405555,0.12155664,-1.9249989,-2.182619,25.956984,0.1,0.24481867,0.2603165,0.1190144,0.09065905,inf,inf,inf,inf,1,1,1,1,2,2,2,2,3,0,1,1,0,0,0
603565363,603564005,168057400,59.3948185,24.6601304,0.112190224,0.12987943,-3.4606931,-0.0148082385,-0.020691883,0.006032414,0.00080026814,-0.031033421,-0.21909669,-0.023767522,0.033442393,-0.032656487,0.17070457,-0.008005615,0.1812213,0.11191011,-1.9248601,-2.182619,25.956984,0.11338282,0.23680559,0.25429797,0.11407882,0.08842944,inf,inf,inf,inf,1,1,1,1,2,2,2,2,3,0,1,1,0,0,0
603574886,603574021,168057400,59.3948185,24.6601304,0.11229648,0.12942305,-3.4606187,-0.0148082385,-0.020691883,0.006032414,-0.0044979495,-0.03113508,-0.21921152,-0.023590848,0.033442393,-0.032656487,0.17070457,-0.25776005,-0.012566625,-0.049838014,-1.9250245,-2.182619,25.956984,0.111139536,0.23748152,0.2548689,0.114512876,0.088632725,inf,inf,inf,inf,1,1,1,1,2,2,2,2,3,0,1,1,0,0,0
603584930,603584046,168057400,59.3948185,24.6601304,0.112384185,0.12896766,-3.4606264,-0.0148082385,-0.020691883,0.006032414,-0.002630975,-0.032023836,-0.21739651,-0.021579847,0.033442393,-0.032656487,0.17070457,0.27385262,-0.05981738,0.23519091,-1.9250656,-2.182619,25.956984,0.10897684,0.23816217,0.2554422,0.114937305,0.0888361,inf,inf,inf,inf,1,1,1,1,2,2,2,2,3,0,1,1,0,0,0
603594953,603594052,168057400,59.3948185,24.6601304,0.11249208,0.12851521,-3.460701,-0.0148082385,-0.020691883,0.006032414,-0.00056319905,-0.031738147,-0.21674444,-0.020823212,0.033442393,-0.032656487,0.17070457,0.12073322,0.10672118,0.0039251833,-1.9249107,-2.182619,25.956984,0.10688305,0.23884752,0.25601792,0.115370914,0.08903958,inf,inf,inf,inf,1,1,1,1,2,2,2,2,3,0,1,1,0,0,0
603604841,603604068,168057400,59.3948185,24.6601304,0.11258935,0.1280767,-3.4608514,-0.0148082385,-0.020691883,0.006032414,-0.003265932,-0.030946538,-0.21550503,-0.019566756,0.033442393,-0.032656487,0.17070457,-0.3158095,-0.0053780354,-0.0038021414,-1.9250089,-2.182619,25.956984,0.10485768,0.23953763,0.256596,0.11580262,0.08924316,inf,inf,inf,inf,1,1,1,1,2,2,2,2,3,0,1,1,0,0,0
603614810,603614085,168057400,59.3948185,24.6601304,0.11265853,0.1276434,-3.461061,-0.0148082385,-0.020691883,0.006032414,-0.0037533392,-0.031639595,-0.21329254,-0.017421002,0.033442393,-0.032656487,0.17070457,0.14901146,-0.08480922,0.10448707,-1.9251031,-2.182619,25.956984,0.10288763,0.24023248,0.25717646,0.116235,0.08944682,inf,inf,inf,inf,1,1,1,1,2,2,2,2,3,0,1,1,0,0,0
603624704,603624100,168057400,59.3948185,24.6601304,0.11275282,0.12720846,-3.4613361,-0.0148082385,-0.020691883,0.006032414,0.0011185366,-0.032475255,-0.21288016,-0.017155388,0.033442393,-0.032656487,0.17070457,0.42314994,-0.099405624,-0.023911985,-1.9249723,-2.182619,25.956984,0.10098076,0.2409321,0.25775933,0.11666767,0.08965058,inf,inf,inf,inf,1,1,1,1,2,2,2,2,3,0,1,1,0,0,0
603635267,603634116,168057400,59.3948185,24.6601304,0.11285486,0.12677431,-3.4614842,-0.0148082385,-0.020691883,0.006032414,-0.0008586466,-0.03229362,-0.21220213,-0.016495436,0.033442393,-0.032656487,0.17070457,-0.14926133,0.022744559,0.09889986,-1.9249932,-2.182619,25.956984,0.10395789,0.24163651,0.2576437,0.11710086,0.0897509,inf,inf,inf,inf,1,1,1,1,2,2,2,2,3,0,1,1,0,0,0
603645080,603644132,168057400,59.3948185,24.6601304,0.11291804,0.12635818,-3.4616926,-0.0148082385,-0.020691883,0.006032414,-0.0047118417,-0.031038312,-0.21104139,-0.015434967,0.033442393,-0.032656487,0.17070457,-0.20381433,-0.09364602,-0.1358983,-1.925144,-2.182619,25.956984,0.101988316,0.24234572,0.25822976,0.11753616,0.089954875,inf,inf,inf,inf,1,1,1,1,2,2,2,2,3,0,1,1,0,0,0
603655235,603654157,168057400,59.3948185,24.6601304,0.112979814,0.12594004,-3.4619672,-0.0148082385,-0.020691883,0.006032414,-0.0013969858,-0.032603495,-0.20949104,-0.0140634775,0.033442393,-0.032656487,0.17070457,0.36183894,-0.15592335,-0.024073144,-1.9250243,-2.182619,25.956984,0.10008502,0.24305975,0.25881824,0.117967784,0.09015894,inf,inf,inf,inf,1,1,1,1,2,2,2,2,3,0,1,1,0,0,0
603665088,603664163,168057400,59.3948185,24.6601304,0.11306788,0.1255172,-3.4623115,-0.0148082385,-0.020691883,0.006032414,-0.00075700437,-0.032034777,-0.20893057,-0.013756965,0.033442393,-0.032656487,0.17070457,-0.29423997,0.2500441,0.17881136,-1.9249736,-2.182619,25.956984,0.1,0.2437786,0.2594091,0.118399635,0.0903631,inf,inf,inf,inf,1,1,1,1,2,2,2,2,3,0,1,1,0,0,0
603675256,603674179,168057400,59.3948185,24.6601304,0.113116674,0.12511091,-3.4627278,-0.0148082385,-0.020691883,0.006032414,-0.0061307335,-0.031907093,-0.21000746,-0.015159632,0.033442393,-0.032656487,0.17070457,-0.47901484,-0.14768647,-0.105301544,-1.9251255,-2.182619,25.956984,0.1,0.24450229,0.26000237,0.11883955,0.09056736,inf,inf,inf,inf,1,1,1,1,2,2,2,2,3,0,1,1,0,0,0
603684932,603684195,168057400,59.3948185,24.6601304,0.11316001,0.1247057,-3.463202,-0.0148082385,-0.020691883,0.006032414,-0.0014797449,-0.032860015,-0.20780277,-0.01334958,0.033442393,-0.032656487,0.17070457,0.46520832,-0.26631317,0.0804921,-1.9251142,-2.182619,25.956984,0.1,0.24523087,0.26059806,0.11927481,0.09077169,inf,inf,inf,inf,1,1,1,1,2,2,2,2,3,0,1,1,0,0,0
603695748,603694212,168057400,59.3948185,24.6601304,0.11299469,0.12429731,-3.4629328,-0.0148082385,-0.020691883,0.006032414,0.000997,-0.032389645,-0.20653373,-0.011699525,0.033442393,-0.032656487,0.17070457,0.17612164,0.25622404,0.25823468,-1.9250104,-2.182619,25.956984,0.112365484,0.2371639,0.254556,0.11430437,0.08853254,inf,inf,inf,inf,1,1,1,1,2,2,2,2,3,0,1,1,0,0,0
603704877,603704227,168057400,59.3948185,24.6601304,0.112805724,0.12390307,-3.4627464,-0.0148082385,-0.020691883,0.006032414,-0.0059625,-0.03186392,-0.20788299,-0.012766784,0.033442393,-0.032656487,0.17070457,-0.62586766,0.04331426,-0.42881045,-1.9250909,-2.182619,25.956984,0.110105276,0.23784232,0.25512806,0.114730656,0.088735886,inf,inf,inf,inf,1,1,1,1,2,2,2,2,3,0,1,1,0,0,0
603714965,603714244,168057400,59.3948185,24.6601304,0.112594284,0.12351687,-3.4626472,-0.0148082385,-0.020691883,0.006032414,-0.0043965164,-0.031562716,-0.20619813,-0.010894807,0.033442393,-0.032656487,0.17070457,0.14248402,0.08107394,0.058093116,-1.925155,-2.182619,25.956984,0.10793686,0.23852545,0.25570247,0.11515957,0.08893933,inf,inf,inf,inf,1,1,1,1,2,2,2,2,3,0,1,1,0,0,0
603724984,603724259,168057400,59.3948185,24.6601304,0.112412244,0.123128004,-3.4626234,-0.0148082385,-0.020691883,0.006032414,-0.00027300356,-0.032741178,-0.20542726,-0.010027629,0.033442393,-0.032656487,0.17070457,0.53109604,0.038807776,0.044991013,-1.9250505,-2.182619,25.956984,0.10584617,0.23921329,0.2562793,0.115589425,0.08914287,inf,inf,inf,inf,1,1,1,1,2,2,2,2,3,0,1,1,0,0,0
603735449,603734274,168057400,59.3948185,24.6601304,0.11223794,0.122750945,-3.4626791,-0.0148082385,-0.020691883,0.006032414,-0.0046776813,-0.031607654,-0.20602015,-0.010611115,0.033442393,-0.032656487,0.17070457,-0.5364529,-0.056101818,-0.22335114,-1.925067,-2.182619,25.956984,0.10383892,0.23990588,0.2568585,0.11601805,0.0893465,inf,inf,inf,inf,1,1,1,1,2,2,2,2,3,0,1,1,0,0,0
603745209,603744290,168057400,59.3948185,24.6601304,0.112032026,0.1223739,-3.4628143,-0.0148082385,-0.020691883,0.006032414,-0.005388827,-0.032089647,-0.20496249,-0.009627223,0.033442393,-0.032656487,0.17070457,0.13730222,0.09893407,0.1723769,-1.9251738,-2.182619,25.956984,0.10191131,0.24060324,0.2574401,0.11645133,0.089550234,inf,inf,inf,inf,1,1,1,1,2,2,2,2,3,0,1,1,0,0,0
603755132,603754306,168057400,59.3948185,24.6601304,0.111849606,0.12199547,-3.4630153,-0.0148082385,-0.020691883,0.006032414,-0.0019763256,-0.033010352,-0.20459144,-0.009409734,0.033442393,-0.032656487,0.17070457,0.2732639,-0.035515476,-0.102665275,-1.9251374,-2.182619,25.956984,0.10004759,0.24130535,0.25802407,0.11688208,0.08975405,inf,inf,inf,inf,1,1,1,1,2,2,2,2,3,0,1,1,0,0,0
603765189,603764322,168057400,59.3948185,24.6601304,0.11169247,0.12162088,-3.4630682,-0.0148082385,-0.020691883,0.006032414,-0.0031667217,-0.03170569,-0.20386018,-0.008683274,0.033442393,-0.032656487,0.17070457,-0.6082662,0.2573369,-0.04668699,-1.9250629,-2.182619,25.956984,0.10352874,0.24201225,0.25790736,0.11731198,0.08985394,inf,inf,inf,inf,1,1,1,1,2,2,2,2,3,0,1,1,0,0,0
603775338,603774341,168057400,59.3948185,24.6601304,0.11149178,0.121259585,-3.4631946,-0.0148082385,-0.020691883,0.006032414,-0.0075608008,-0.03206973,-0.20397101,-0.008881434,0.033442393,-0.032656487,0.17070457,-0.29900402,-0.118159175,-0.17203721,-1.9251751,-2.182619,25.956984,0.101602554,0.24272396,0.25849456,0.11775376,0.090057984,inf,inf,inf,inf,1,1,1,1,2,2,2,2,3,0,1,1,0,0,0
603784965,603784353,168057400,59.3948185,24.6601304,0.111298405,0.1208953,-3.46339,-0.0148082385,-0.020691883,0.006032414,-0.0030867725,-0.03290763,-0.20280086,-0.007877536,0.033442393,-0.032656487,0.17070457,0.43484247,-0.121386334,-0.020230582,-1.925191,-2.182619,25.956984,0.1,0.24344051,0.25908414,0.11818381,0.0902621,inf,inf,inf,inf,1,1,1,1,2,2,2,2,3,0,1,1,0,0,0
603795166,603794370,168057400,59.3948185,24.6601304,0.11113449,0.120532714,-3.4636543,-0.0148082385,-0.020691883,0.006032414,-0.0028137492,-0.032657687,-0.20264195,-0.007960338,0.033442393,-0.032656487,0.17070457,-0.07655332,-0.09377347,-0.22992916,-1.9250783,-2.182619,25.956984,0.1,0.24416189,0.25967613,0.118614845,0.09046633,inf,inf,inf,inf,1,1,1,1,2,2,2,2,3,0,1,1,0,0,0
603805174,603804385,168057400,59.3948185,24.6601304,0.110944435,0.12018046,-3.463992,-0.0148082385,-0.020691883,0.006032414,-0.007660887,-0.03173736,-0.20287329,-0.008505475,0.033442393,-0.032656487,0.17070457,-0.42264402,-0.06729243,-0.11970208,-1.9251691,-2.182619,25.956984,0.1,0.24488813,0.26027057,0.11905934,0.090670645,inf,inf,inf,inf,1,1,1,1,2,2,2,2,3,0,1,1,0,0,0
603815704,603814401,168057400,59.3948185,24.6601304,0.11080757,0.119463824,-3.463895,-0.0148082385,-0.020691883,0.006032414,-0.0055835503,-0.033298627,-0.20153831,-0.0070283627,0.033442393,-0.032656487,0.17070457,0.3142648,-0.2670483,-0.16104284,-1.9252652,-2.182619,25.956984,0.10641694,0.23687807,0.2549287,0.11412026,0.088537924,inf,inf,inf,inf,1,1,1,1,2,2,2,2,3,0,1,1,0,0,0
603825367,603824417,168057400,59.3948185,24.6601304,0.11070901,0.118752584,-3.4636974,-0.0148082385,-0.020691883,0.006032414,-0.00147264,-0.033288807,-0.20066091,-0.005910383,0.033442393,-0.032656487,0.17070457,0.3070928,-0.050761063,0.22002238,-1.9251258,-2.182619,25.956984,0.108798504,0.23755455,0.254823,0.11454828,0.08864312,inf,inf,inf,inf,1,1,1,1,2,2,2,2,3,0,1,1,0,0,0
603835574,603834433,168057400,59.3948185,24.6601304,0.110598214,0.118056834,-3.4635735,-0.0148082385,-0.020691883,0.006032414,-0.0076914774,-0.03309325,-0.20106834,-0.0061701005,0.033442393,-0.032656487,0.17070457,-0.6624127,-0.09232743,-0.35997885,-1.9251244,-2.182619,25.956984,0.106693506,0.23823573,0.25539625,0.11498099,0.08884655,inf,inf,inf,inf,1,1,1,1,2,2,2,2,3,0,1,1,0,0,0
603845385,603844449,168057400,59.3948185,24.6601304,0.110452734,0.11737421,-3.4635324,-0.0148082385,-0.020691883,0.006032414,-0.007413737,-0.03343851,-0.19970863,-0.0047515966,0.033442393,-0.032656487,0.17070457,0.14253059,-0.17563516,0.049144763,-1.9252666,-2.182619,25.956984,0.10466218,0.23892164,0.25597188,0.11541332,0.08905007,inf,inf,inf,inf,1,1,1,1,2,2,2,2,3,0,1,1,0,0,0
603855492,603854464,168057400,59.3948185,24.6601304,0.11034051,0.11669749,-3.4635582,-0.0148082385,-0.020691883,0.006032414,-0.0029926854,-0.033416208,-0.19753426,-0.0026035279,0.033442393,-0.032656487,0.17070457,0.21070592,0.07211274,0.28904885,-1.9251707,-2.182619,25.956984,0.10269356,0.2396123,0.25654987,0.11584444,0.08925367,inf,inf,inf,inf,1,1,1,1,2,2,2,2,3,0,1,1,0,0,0
603865477,603864491,168057400,59.3948185,24.6601304,0.110231675,0.116032295,-3.463655,-0.0148082385,-0.020691883,0.006032414,-0.00614152,-0.033558585,-0.19858418,-0.0037611236,0.033442393,-0.032656487,0.17070457,-0.39069235,0.034251384,-0.20962785,-1.9251245,-2.182619,25.956984,0.10079837,0.24030769,0.25713027,0.11627375,0.08945739,inf,inf,inf,inf,1,1,1,1,2,2,2,2,3,0,1,1,0,0,0
603875309,603874496,168057400,59.3948185,24.6601304,0.11008697,0.11538191,-3.4638276,-0.0148082385,-0.020691883,0.006032414,-0.008028715,-0.03360962,-0.1989384,-0.004300954,0.033442393,-0.032656487,0.17070457,0.13632633,-0.104415365,-0.19283813,-1.9252928,-2.182619,25.956984,0.1,0.24100786,0.25771308,0.11671153,0.089661196,inf,inf,inf,inf,1,1,1,1,2,2,2,2,3,0,1,1,0,0,0
603885224,603884512,168057400,59.3948185,24.6601304,0.1099619,0.11473771,-3.4638464,-0.0148082385,-0.020691883,0.006032414,-0.004634026,-0.033932097,-0.19843143,-0.0038166612,0.033442393,-0.032656487,0.17070457,0.2015535,-0.02630177,0.05525638,-1.9252706,-2.182619,25.956984,0.10278273,0.24171284,0.2575977,0.11714188,0.089761615,inf,inf,inf,inf,1,1,1,1,2,2,2,2,3,0,1,1,0,0,0
603895154,603894528,168057400,59.3948185,24.6601304,0.10986091,0.11410054,-3.4639442,-0.0148082385,-0.020691883,0.006032414,-0.004203152,-0.034479234,-0.2003347,-0.00582416,0.033442393,-0.032656487,0.17070457,-0.21602091,-0.082846336,-0.50626767,-1.925111,-2.182619,25.956984,0.10089183,0.24242261,0.25818372,0.11757628,0.08996563,inf,inf,inf,inf,1,1,1,1,2,2,2,2,3,0,1,1,0,0,0
603905207,603904544,168057400,59.3948185,24.6601304,0.10972972,0.113474384,-3.464129,-0.0148082385,-0.020691883,0.006032414,-0.008833404,-0.03389606,-0.19958325,-0.00525481,0.033442393,-0.032656487,0.17070457,-0.39867195,-0.027539954,-0.042492315,-1.9252378,-2.182619,25.956984,0.1,0.2431372,0.25877213,0.11801366,0.09016974,inf,inf,inf,inf,1,1,1,1,2,2,2,2,3,0,1,1,0,0,0
603915192,603914560,168057400,59.3948185,24.6601304,0.109590724,0.11285422,-3.4643793,-0.0148082385,-0.020691883,0.006032414,-0.006371507,-0.034073703,-0.19837703,-0.00430519,0.033442393,-0.032656487,0.17070457,0.1725292,0.13101059,0.14198394,-1.9253262,-2.182619,25.956984,0.1,0.24385662,0.25936294,0.11844965,0.09037393,inf,inf,inf,inf,1,1,1,1,2,2,2,2,3,0,1,1,0,0,0
603925432,603924575,168057400,59.3948185,24.6601304,0.10947936,0.11224675,-3.4647021,-0.0148082385,-0.020691883,0.006032414,-0.0037525543,-0.034800768,-0.2003472,-0.006603135,0.033442393,-0.032656487,0.17070457,0.20634198,-0.2164767,-0.27039367,-1.925145,-2.182619,25.956984,0.1,0.24458092,0.25995615,0.118881404,0.09057823,inf,inf,inf,inf,1,1,1,1,2,2,2,2,3,0,1,1,0,0,0
603935618,603934591,168057400,59.3948185,24.6601304,0.109357744,0.11164385,-3.465109,-0.0148082385,-0.020691883,0.006032414,-0.008386541,-0.034290683,-0.20096925,-0.007620918,0.033442393,-0.032656487,0.17070457,-0.4878582,0.025640802,-0.11201049,-1.9251748,-2.182619,25.956984,0.1,0.24531005,0.2605518,0.11932282,0.09078261,inf,inf,inf,inf,1,1,1,1,2,2,2,2,3,0,1,1,0,0,0
603945976,603944607,168057400,59.3948185,24.6601304,0.109285615,0.1111276,-3.4650977,-0.0148082385,-0.020691883,0.006032414,-0.008096528,-0.03428023,-0.20031123,-0.006908326,0.033442393,-0.032656487,0.17070457,0.098880365,0.068139695,0.039665658,-1.9253677,-2.182619,25.956984,0.10415006,0.23724523,0.25518847,0.11434934,0.08864084,inf,inf,inf,inf,1,1,1,1,2,2,2,2,3,0,1,1,0,0,0
603955470,603954623,168057400,59.3948185,24.6601304,0.1092406,0.11061741,-3.4649649,-0.0148082385,-0.020691883,0.006032414,-0.0030853604,-0.035313673,-0.20031139,-0.0067442986,0.033442393,-0.032656487,0.17070457,0.5315696,-0.16336773,-0.2902085,-1.925221,-2.182619,25.956984,0.10682416,0.23792422,0.2550818,0.11477169,0.08874563,inf,inf,inf,inf,1,1,1,1,2,2,2,2,3,0,1,1,0,0,0
603965324,603964639,168057400,59.3948185,24.6601304,0.109205335,0.11010723,-3.4649298,-0.0148082385,-0.020691883,0.006032414,-0.006980289,-0.034927607,-0.2021906,-0.008548697,0.033442393,-0.032656487,0.17070457,-0.5315748,0.09787151,-0.40306517,-1.9251473,-2.182619,25.956984,0.104871035,0.23860788,0.25565618,0.11520784,0.088949114,inf,inf,inf,inf,1,1,1,1,2,2,2,2,3,0,1,1,0,0,0
603975366,603974655,168057400,59.3948185,24.6601304,0.10912659,0.109614365,-3.4649823,-0.0148082385,-0.020691883,0.006032414,-0.009284707,-0.033129748,-0.20108794,-0.007456166,0.033442393,-0.032656487,0.17070457,-0.022164227,0.27030993,0.10067336,-1.9253398,-2.182619,25.956984,0.102990866,0.23929632,0.25623292,0.115643896,0.08915269,inf,inf,inf,inf,1,1,1,1,2,2,2,2,3,0,1,1,0,0,0
603985344,603984670,168057400,59.3948185,24.6601304,0.10905632,0.10913579,-3.465101,-0.0148082385,-0.020691883,0.006032414,-0.005340429,-0.03426688,-0.20060796,-0.00706784,0.033442393,-0.032656487,0.17070457,0.54422754,-0.18659551,-0.07780567,-1.925294,-2.182619,25.956984,0.101165056,0.2399895,0.25681204,0.11607542,0.089356355,inf,inf,inf,inf,1,1,1,1,2,2,2,2,3,0,1,1,0,0,0
603995269,603994687,168057400,59.3948185,24.6601304,0.10901875,0.108651906,-3.4653025,-0.0148082385,-0.020691883,0.006032414,-0.004549492,-0.035424344,-0.20203432,-0.008663843,0.033442393,-0.032656487,0.17070457,-0.09823077,-0.1911118,-0.30443126,-1.9251566,-2.182619,25.956984,0.1,0.24068746,0.25739357,0.11651374,0.08956012,inf,inf,inf,inf,1,1,1,1,2,2,2,2,3,0,1,1,0,0,0
604005345,604004702,168057400,59.3948185,24.6601304,0.10894713,0.10817726,-3.4655883,-0.0148082385,-0.020691883,0.006032414,-0.010174458,-0.032917917,-0.20276432,-0.009638024,0.033442393,-0.032656487,0.17070457,-0.45251793,0.32160723,-0.14885351,-1.9252926,-2.182619,25.956984,0.1,0.2413902,0.2579775,0.11694765,0.089763984,inf,inf,inf,inf,1,1,1,1,2,2,2,2,3,0,1,1,0,0,0
604015722,604014718,168057400,59.3948185,24.6601304,0.108859874,0.10771836,-3.4657328,-0.0148082385,-0.020691883,0.006032414,-0.007329561,-0.03439712,-0.20229755,-0.009270616,0.033442393,-0.032656487,0.17070457,0.33875233,-0.2782827,-0.09288416,-1.9253515,-2.182619,25.956984,0.101181984,0.24209775,0.2578611,0.11737978,0.08986398,inf,inf,inf,inf,1,1,1,1,2,2,2,2,3,0,1,1,0,0,0
604025540,604024734,168057400,59.3948185,24.6601304,0.1088202,0.10724383,-3.4659603,-0.0148082385,-0.020691883,0.006032414,-0.0019751969,-0.036492135,-0.20317493,-0.0103248255,0.033442393,-0.032656487,0.17070457,0.39372033,-0.17039473,-0.015792666,-1.925197,-2.182619,25.956984,0.1,0.24281012,0.2584482,0.11782039,0.09006805,inf,inf,inf,inf,1,1,1,1,2,2,2,2,3,0,1,1,0,0,0
604035839,604034750,168057400,59.3948185,24.6601304,0.10877024,0.10678037,-3.4662647,-0.0148082385,-0.020691883,0.006032414,-0.008478126,-0.03380694,-0.2037818,-0.011182627,0.033442393,-0.032656487,0.17070457,-0.6742687,0.19066633,-0.15459915,-1.9252541,-2.182619,25.956984,0.1,0.24352732,0.25903773,0.11825993,0.09027222,inf,inf,inf,inf,1,1,1,1,2,2,2,2,3,0,1,1,0,0,0
604045569,604044766,168057400,59.3948185,24.6601304,0.108671084,0.106339216,-3.4666362,-0.0148082385,-0.020691883,0.006032414,-0.010049024,-0.033578005,-0.20337155,-0.011094079,0.033442393,-0.032656487,0.17070457,0.05448509,-0.15854268,-0.22512823,-1.925389,-2.182619,25.956984,0.1,0.24424939,0.25962967,0.11869741,0.090476476,inf,inf,inf,inf,1,1,1,1,2,2,2,2,3,0,1,1,0,0,0
