timestamp,timestamp_sample,gps_hvel[0],gps_hvel[1],gps_vvel,gps_hpos[0],gps_hpos[1],gps_vpos,ev_hvel[0],ev_hvel[1],ev_vvel,ev_hpos[0],ev_hpos[1],ev_vpos,rng_vpos,baro_vpos,aux_hvel[0],aux_hvel[1],aux_vvel,flow[0],flow[1],terr_flow[0],terr_flow[1],heading,mag_field[0],mag_field[1],mag_field[2],gravity[0],gravity[1],gravity[2],drag[0],drag[1],airspeed,beta,hagl,hagl_rate
603055245,602955383,0.043454014,0.084111035,-0.21430726,-0.021212704,0.12710753,0.16135001,-0.0013997699,-0.007030886,-0.1457697,0.0071700215,-0.027462885,-3.3941965,0.0,-0.9419484,0.0,0.0,,0.0,0.0,0.0,0.0,-0.029053807,0.09463774,-0.19212493,0.22295877,0.013441234,-0.0053600105,2.5070656e-06,0.0,0.0,0.0,0.0,0.0,0.0
603066103,602965264,-0.07867419,-0.06827336,-0.16345862,-0.03580133,0.112566695,0.18129253,-0.0013997699,-0.007030886,-0.1457697,0.0071700215,-0.027462885,-3.3941965,0.0,-0.9419484,0.0,0.0,,0.0,0.0,0.0,0.0,-0.029053807,0.09463774,-0.19212493,0.22295877,0.005814114,0.011025933,5.9249585e-05,0.0,0.0,0.0,0.0,0.0,0.0
603075303,602975146,-0.07867419,-0.06827336,-0.16345862,-0.03580133,0.112566695,0.18129253,-0.0013997699,-0.007030886,-0.1457697,0.0071700215,-0.027462885,-3.3941965,0.0,-0.9419484,0.0,0.0,,0.0,0.0,0.0,0.0,-0.029053807,0.09463774,-0.19212493,0.22295877,0.009394261,0.022584394,0.00010374739,0.0,0.0,0.0,0.0,0.0,0.0
603084844,602985027,-0.07867419,-0.06827336,-0.16345862,-0.03580133,0.112566695,0.18129253,-0.0013997699,-0.007030886,-0.1457697,0.0071700215,-0.027462885,-3.3941965,0.0,-0.9419484,0.0,0.0,,0.0,0.0,0.0,0.0,-0.029053807,0.09463774,-0.19212493,0.22295877,-0.0025250737,0.006872675,1.8914274e-05,0.0,0.0,0.0,0.0,0.0,0.0
603095540,602994909,-0.07867419,-0.06827336,-0.16345862,-0.03580133,0.112566695,0.18129253,-0.0013997699,-0.007030886,-0.1457697,0.0071700215,-0.027462885,-3.3941965,0.0,-0.9419484,0.0,0.0,,0.0,0.0,0.0,0.0,-0.029053807,0.09463774,-0.19212493,0.22295877,-0.0059409556,-0.01255472,-8.7653105e-05,0.0,0.0,0.0,0.0,0.0,0.0
603105506,603004790,-0.07867419,-0.06827336,-0.16345862,-0.03580133,0.112566695,0.18129253,-0.0013997699,-0.007030886,-0.1457697,0.0071700215,-0.027462885,-3.3941965,0.0,-0.8694444,0.0,0.0,,0.0,0.0,0.0,0.0,-0.024435401,0.097136,-0.19347614,0.2261107,0.0040327404,-0.00623784,-1.930427e-05,0.0,0.0,0.0,0.0,0.0,0.0
603115258,603014672,-0.07867419,-0.06827336,-0.16345862,-0.03580133,0.112566695,0.18129253,-0.0013997699,-0.007030886,-0.1457697,0.0071700215,-0.027462885,-3.3941965,0.0,-0.8694444,0.0,0.0,,0.0,0.0,0.0,0.0,-0.024435401,0.097136,-0.19347614,0.2261107,0.0027532582,-0.002115988,-2.217042e-06,0.0,0.0,0.0,0.0,0.0,0.0
603125115,603024553,-0.07867419,-0.06827336,-0.16345862,-0.03580133,0.112566695,0.18129253,-0.0013997699,-0.007030886,-0.1457697,0.0071700215,-0.027462885,-3.3941965,0.0,-0.8694444,0.0,0.0,,0.0,0.0,0.0,0.0,-0.024435401,0.097136,-0.19347614,0.2261107,0.0006880106,-0.0075511443,-3.6305173e-05,0.0,0.0,0.0,0.0,0.0,0.0
603135050,603034435,-0.07867419,-0.06827336,-0.16345862,-0.03580133,0.112566695,0.18129253,0.0051774834,-0.00481309,-0.1429187,0.015904024,-0.025301233,-3.391295,0.0,-0.8694444,0.0,0.0,,0.0,0.0,0.0,0.0,-0.024435401,0.097136,-0.19347614,0.2261107,0.007788758,-0.009599526,-2.981083e-05,0.0,0.0,0.0,0.0,0.0,0.0
603145048,603044316,-0.07867419,-0.06827336,-0.16345862,-0.03580133,0.112566695,0.18129253,0.0051774834,-0.00481309,-0.1429187,0.015904024,-0.025301233,-3.391295,0.0,-0.8694444,0.0,0.0,,0.0,0.0,0.0,0.0,-0.024435401,0.097136,-0.19347614,0.2261107,0.02328941,0.10105888,2.2379736e-06,0.0,0.0,0.0,0.0,0.0,0.0
603155106,603054198,-0.07867419,-0.06827336,-0.16345862,-0.03580133,0.112566695,0.18129253,0.0051774834,-0.00481309,-0.1429187,0.015904024,-0.025301233,-3.391295,0.0,-0.8694444,0.0,0.0,,0.0,0.0,0.0,0.0,-0.024435401,0.097136,-0.19347614,0.2261107,0.0344331,0.0037936692,5.6724093e-05,0.0,0.0,0.0,0.0,0.0,0.0
603164740,603064079,-0.07867419,-0.06827336,-0.16345862,-0.03580133,0.112566695,0.18129253,0.0051774834,-0.00481309,-0.1429187,0.015904024,-0.025301233,-3.391295,0.0,-0.8694444,0.0,0.0,,0.0,0.0,0.0,0.0,-0.024435401,0.097136,-0.19347614,0.2261107,0.1670968,0.07846489,-0.00087447226,0.0,0.0,0.0,0.0,0.0,0.0
603174956,603073961,-0.07867419,-0.06827336,-0.16345862,-0.03580133,0.112566695,0.18129253,0.004282033,-0.006599798,-0.14504597,0.015328452,-0.024218902,-3.3913853,0.0,-1.0040014,0.0,0.0,,0.0,0.0,0.0,0.0,-0.023138642,0.09560609,-0.18973708,0.22137225,-0.27438214,-0.21298705,-0.008044264,0.0,0.0,0.0,0.0,0.0,0.0
603183596,603083843,-0.07867419,-0.06827336,-0.16345862,-0.03580133,0.112566695,0.18129253,0.004282033,-0.006599798,-0.14504597,0.015328452,-0.024218902,-3.3913853,0.0,-1.0040014,0.0,0.0,,0.0,0.0,0.0,0.0,-0.023138642,0.09560609,-0.18973708,0.22137225,0.072912015,-0.008686694,-6.096262e-05,0.0,0.0,0.0,0.0,0.0,0.0
603193467,603093724,-0.07867419,-0.06827336,-0.16345862,-0.03580133,0.112566695,0.18129253,0.004282033,-0.006599798,-0.14504597,0.015328452,-0.024218902,-3.3913853,0.0,-1.0040014,0.0,0.0,,0.0,0.0,0.0,0.0,-0.023138642,0.09560609,-0.18973708,0.22137225,-0.014630596,-0.022788486,-0.00019144359,0.0,0.0,0.0,0.0,0.0,0.0
603203380,603103605,-0.07867419,-0.06827336,-0.16345862,-0.03580133,0.112566695,0.18129253,0.004282033,-0.006599798,-0.14504597,0.015328452,-0.024218902,-3.3913853,0.0,-1.0040014,0.0,0.0,,0.0,0.0,0.0,0.0,-0.023138642,0.09560609,-0.18973708,0.22137225,-0.12087995,0.23679072,-0.0028604092,0.0,0.0,0.0,0.0,0.0,0.0
603215242,603113487,0.08069434,0.05869651,-0.15989497,-0.004128024,0.13046165,0.1849587,-0.0032549857,-0.010532353,-0.14468683,0.0073126704,-0.03444639,-3.3904152,0.0,-1.0040014,0.0,0.0,,0.0,0.0,0.0,0.0,-0.023138642,0.09560609,-0.18973708,0.22137225,0.019930776,-0.08321243,-0.00072402664,0.0,0.0,0.0,0.0,0.0,0.0
603223194,603123368,0.08069434,0.05869651,-0.15989497,-0.004128024,0.13046165,0.1849587,-0.0032549857,-0.010532353,-0.14468683,0.0073126704,-0.03444639,-3.3904152,0.0,-1.0040014,0.0,0.0,,0.0,0.0,0.0,0.0,-0.023138642,0.09560609,-0.18973708,0.22137225,0.16783585,-0.06416297,-0.0014794031,0.0,0.0,0.0,0.0,0.0,0.0
603233292,603133250,0.08069434,0.05869651,-0.15989497,-0.004128024,0.13046165,0.1849587,-0.0032549857,-0.010532353,-0.14468683,0.0073126704,-0.03444639,-3.3904152,0.0,-1.0040014,0.0,0.0,,0.0,0.0,0.0,0.0,-0.023138642,0.09560609,-0.18973708,0.22137225,0.019752512,-0.02028295,-8.319303e-05,0.0,0.0,0.0,0.0,0.0,0.0
603243280,603143142,0.08069434,0.05869651,-0.15989497,-0.004128024,0.13046165,0.1849587,-0.0020127257,-0.010089053,-0.14529964,0.006909527,-0.03302002,-3.3892758,0.0,-0.99115515,0.0,0.0,,0.0,0.0,0.0,0.0,-0.021108627,0.09727982,-0.19124398,0.22332516,-0.0024229004,0.12561338,-0.00020675205,0.0,0.0,0.0,0.0,0.0,0.0
603252825,603153013,0.08069434,0.05869651,-0.15989497,-0.004128024,0.13046165,0.1849587,-0.0020127257,-0.010089053,-0.14529964,0.006909527,-0.03302002,-3.3892758,0.0,-0.99115515,0.0,0.0,,0.0,0.0,0.0,0.0,-0.021108627,0.09727982,-0.19124398,0.22332516,-0.0056771436,-0.23394962,-0.0039376663,0.0,0.0,0.0,0.0,0.0,0.0
603262693,603162894,0.08069434,0.05869651,-0.15989497,-0.004128024,0.13046165,0.1849587,-0.0020127257,-0.010089053,-0.14529964,0.006909527,-0.03302002,-3.3892758,0.0,-0.99115515,0.0,0.0,,0.0,0.0,0.0,0.0,-0.021108627,0.09727982,-0.19124398,0.22332516,-0.055959407,0.017156666,-0.0002636676,0.0,0.0,0.0,0.0,0.0,0.0
603272655,603172776,0.08069434,0.05869651,-0.15989497,-0.004128024,0.13046165,0.1849587,-0.00028591347,-0.009743535,-0.14780845,0.0065290183,-0.031713635,-3.3935308,0.0,-0.99115515,0.0,0.0,,0.0,0.0,0.0,0.0,-0.021108627,0.09727982,-0.19124398,0.22332516,-0.14623708,0.1816107,-0.0023383505,0.0,0.0,0.0,0.0,0.0,0.0
603282423,603182657,0.08069434,0.05869651,-0.15989497,-0.004128024,0.13046165,0.1849587,-0.00028591347,-0.009743535,-0.14780845,0.0065290183,-0.031713635,-3.3935308,0.0,-0.99115515,0.0,0.0,,0.0,0.0,0.0,0.0,-0.021108627,0.09727982,-0.19124398,0.22332516,0.13029237,0.16309816,-0.0010666052,0.0,0.0,0.0,0.0,0.0,0.0
603292577,603192539,0.08069434,0.05869651,-0.15989497,-0.004128024,0.13046165,0.1849587,-0.00028591347,-0.009743535,-0.14780845,0.0065290183,-0.031713635,-3.3935308,0.0,-0.99115515,0.0,0.0,,0.0,0.0,0.0,0.0,-0.021108627,0.09727982,-0.19124398,0.22332516,0.13721439,-0.4056088,-0.010840985,0.0,0.0,0.0,0.0,0.0,0.0
603302430,603202420,0.08069434,0.05869651,-0.15989497,-0.004128024,0.13046165,0.1849587,-0.00028591347,-0.009743535,-0.14780845,0.0065290183,-0.031713635,-3.3935308,0.0,-1.0974381,0.0,0.0,,0.0,0.0,0.0,0.0,-0.021108627,0.09727982,-0.19124398,0.22332516,-0.26088944,0.046902932,-0.004102854,0.0,0.0,0.0,0.0,0.0,0.0
603312970,603212301,-0.050521996,-0.060661696,-0.16115725,-0.022831313,0.12957181,0.21611118,0.0018382149,-0.006950633,-0.14550424,0.011796184,-0.030620605,-3.387527,0.0,-1.0974381,0.0,0.0,,0.0,0.0,0.0,0.0,-0.026892781,0.094708465,-0.19063663,0.22562209,0.09591299,0.17879853,-0.0009288465,0.0,0.0,0.0,0.0,0.0,0.0
603321978,603222187,-0.050521996,-0.060661696,-0.16115725,-0.022831313,0.12957181,0.21611118,0.0018382149,-0.006950633,-0.14550424,0.011796184,-0.030620605,-3.387527,0.0,-1.0974381,0.0,0.0,,0.0,0.0,0.0,0.0,-0.026892781,0.094708465,-0.19063663,0.22562209,0.2519519,0.026426494,-0.0023650508,0.0,0.0,0.0,0.0,0.0,0.0
603331848,603232064,-0.050521996,-0.060661696,-0.16115725,-0.022831313,0.12957181,0.21611118,0.0018382149,-0.006950633,-0.14550424,0.011796184,-0.030620605,-3.387527,0.0,-1.0974381,0.0,0.0,,0.0,0.0,0.0,0.0,-0.026892781,0.094708465,-0.19063663,0.22562209,-0.1323752,-0.0032212934,-0.0013413993,0.0,0.0,0.0,0.0,0.0,0.0
603341885,603241946,-0.050521996,-0.060661696,-0.16115725,-0.022831313,0.12957181,0.21611118,0.0017808697,-0.0062445663,-0.14490883,0.011282109,-0.029353008,-3.3917234,0.0,-1.0974381,0.0,0.0,,0.0,0.0,0.0,0.0,-0.026892781,0.094708465,-0.19063663,0.22562209,-0.09758706,-0.061964005,-0.0012961011,0.0,0.0,0.0,0.0,0.0,0.0
603351920,603251828,-0.050521996,-0.060661696,-0.16115725,-0.022831313,0.12957181,0.21611118,0.0017808697,-0.0062445663,-0.14490883,0.011282109,-0.029353008,-3.3917234,0.0,-1.0974381,0.0,0.0,,0.0,0.0,0.0,0.0,-0.026892781,0.094708465,-0.19063663,0.22562209,-0.003754197,-0.041527282,-0.00029554256,0.0,0.0,0.0,0.0,0.0,0.0
603361513,603261709,-0.050521996,-0.060661696,-0.16115725,-0.022831313,0.12957181,0.21611118,0.0017808697,-0.0062445663,-0.14490883,0.011282109,-0.029353008,-3.3917234,0.0,-1.0974381,0.0,0.0,,0.0,0.0,0.0,0.0,-0.026892781,0.094708465,-0.19063663,0.22562209,0.17169295,0.10780657,-0.0010436086,0.0,0.0,0.0,0.0,0.0,0.0
603371484,603271590,-0.050521996,-0.060661696,-0.16115725,-0.022831313,0.12957181,0.21611118,0.0017808697,-0.0062445663,-0.14490883,0.011282109,-0.029353008,-3.3917234,0.0,-1.050672,0.0,0.0,,0.0,0.0,0.0,0.0,-0.026892781,0.094708465,-0.19063663,0.22562209,-0.2742555,-0.008967947,-0.0047435546,0.0,0.0,0.0,0.0,0.0,0.0
603381261,603281472,-0.050521996,-0.060661696,-0.16115725,-0.022831313,0.12957181,0.21611118,0.0027011887,-0.0058857286,-0.14659435,0.010822445,-0.028204143,-3.3917744,0.0,-1.050672,0.0,0.0,,0.0,0.0,0.0,0.0,-0.026892781,0.094708465,-0.19063663,0.22562209,0.17106648,-0.22065273,-0.0045177974,0.0,0.0,0.0,0.0,0.0,0.0
603391221,603291354,-0.050521996,-0.060661696,-0.16115725,-0.022831313,0.12957181,0.21611118,0.0027011887,-0.0058857286,-0.14659435,0.010822445,-0.028204143,-3.3917744,0.0,-1.050672,0.0,0.0,,0.0,0.0,0.0,0.0,-0.024026394,0.09401915,-0.18732944,0.22304365,-0.028582154,0.28963426,-0.003012262,0.0,0.0,0.0,0.0,0.0,0.0
603401002,603301235,-0.050521996,-0.060661696,-0.16115725,-0.022831313,0.12957181,0.21611118,0.0027011887,-0.0058857286,-0.14659435,0.010822445,-0.028204143,-3.3917744,0.0,-1.050672,0.0,0.0,,0.0,0.0,0.0,0.0,-0.024026394,0.09401915,-0.18732944,0.22304365,0.16369267,0.15345906,-0.001355368,0.0,0.0,0.0,0.0,0.0,0.0
603410955,603311117,-0.050521996,-0.060661696,-0.16115725,-0.022831313,0.12957181,0.21611118,-0.00020756037,-0.0059492798,-0.14998806,0.010347612,-0.027043566,-3.3961165,0.0,-1.050672,0.0,0.0,,0.0,0.0,0.0,0.0,-0.024026394,0.09401915,-0.18732944,0.22304365,-0.18639666,-0.3366122,-0.009702036,0.0,0.0,0.0,0.0,0.0,0.0
603420800,603320998,-0.050521996,-0.060661696,-0.16115725,-0.022831313,0.12957181,0.21611118,-0.00020756037,-0.0059492798,-0.14998806,0.010347612,-0.027043566,-3.3961165,0.0,-1.050672,0.0,0.0,,0.0,0.0,0.0,0.0,-0.024026394,0.09401915,-0.18732944,0.22304365,0.0135070095,-0.23489444,-0.0039102975,0.0,0.0,0.0,0.0,0.0,0.0
603430774,603330879,-0.050521996,-0.060661696,-0.16115725,-0.022831313,0.12957181,0.21611118,-0.00020756037,-0.0059492798,-0.14998806,0.010347612,-0.027043566,-3.3961165,0.0,-1.1884506,0.0,0.0,,0.0,0.0,0.0,0.0,-0.024026394,0.09401915,-0.18732944,0.22304365,-0.034512267,0.48797542,-0.009929187,0.0,0.0,0.0,0.0,0.0,0.0
603441739,603340777,0.10266396,0.015552884,-0.18411322,0.0053000897,0.1344226,0.2086885,-0.00020756037,-0.0059492798,-0.14998806,0.010347612,-0.027043566,-3.3961165,0.0,-1.1884506,0.0,0.0,,0.0,0.0,0.0,0.0,-0.024026394,0.09401915,-0.18732944,0.22304365,0.04185761,0.040335063,0.00015820395,0.0,0.0,0.0,0.0,0.0,0.0
603450493,603350643,0.10266396,0.015552884,-0.18411322,0.0053000897,0.1344226,0.2086885,-0.007183328,-0.007966749,-0.14511843,0.0001513511,-0.033349574,-3.3877072,0.0,-1.1884506,0.0,0.0,,0.0,0.0,0.0,0.0,-0.024026394,0.09401915,-0.18732944,0.22304365,-0.006291756,-0.38772327,-0.009580332,0.0,0.0,0.0,0.0,0.0,0.0
603460419,603360524,0.10266396,0.015552884,-0.18411322,0.0053000897,0.1344226,0.2086885,-0.007183328,-0.007966749,-0.14511843,0.0001513511,-0.033349574,-3.3877072,0.0,-1.1884506,0.0,0.0,,0.0,0.0,0.0,0.0,-0.023611784,0.09585356,-0.19039033,0.22433615,-0.031689405,0.079891294,-7.236546e-05,0.0,0.0,0.0,0.0,0.0,0.0
603470411,603370405,0.10266396,0.015552884,-0.18411322,0.0053000897,0.1344226,0.2086885,-0.007183328,-0.007966749,-0.14511843,0.0001513511,-0.033349574,-3.3877072,0.0,-1.1884506,0.0,0.0,,0.0,0.0,0.0,0.0,-0.023611784,0.09585356,-0.19039033,0.22433615,0.11152885,0.4010781,-0.0065445066,0.0,0.0,0.0,0.0,0.0,0.0
603480093,603380286,0.10266396,0.015552884,-0.18411322,0.0053000897,0.1344226,0.2086885,-0.008635141,-0.008030006,-0.14773823,-2.6203692e-05,-0.032054126,-3.391965,0.0,-1.1884506,0.0,0.0,,0.0,0.0,0.0,0.0,-0.023611784,0.09585356,-0.19039033,0.22433615,-0.09002067,-0.29680228,-0.006615353,0.0,0.0,0.0,0.0,0.0,0.0
603490074,603390168,0.10266396,0.015552884,-0.18411322,0.0053000897,0.1344226,0.2086885,-0.008635141,-0.008030006,-0.14773823,-2.6203692e-05,-0.032054126,-3.391965,0.0,-1.1884506,0.0,0.0,,0.0,0.0,0.0,0.0,-0.023611784,0.09585356,-0.19039033,0.22433615,-0.003323905,-0.3181316,-0.006762552,0.0,0.0,0.0,0.0,0.0,0.0
603500201,603400049,0.10266396,0.015552884,-0.18411322,0.0053000897,0.1344226,0.2086885,-0.008635141,-0.008030006,-0.14773823,-2.6203692e-05,-0.032054126,-3.391965,0.0,-0.78001165,0.0,0.0,,0.0,0.0,0.0,0.0,-0.023611784,0.09585356,-0.19039033,0.22433615,0.08289057,0.44490135,-0.007900742,0.0,0.0,0.0,0.0,0.0,0.0
603510078,603409932,0.10266396,0.015552884,-0.18411322,0.0053000897,0.1344226,0.2086885,-0.007574901,-0.008308731,-0.14998882,-0.00017899275,-0.030839145,-3.3920863,0.0,-0.78001165,0.0,0.0,,0.0,0.0,0.0,0.0,-0.023611784,0.09585356,-0.19039033,0.22433615,-0.038960587,0.13958292,-0.00050136907,0.0,0.0,0.0,0.0,0.0,0.0
603519802,603419813,0.10266396,0.015552884,-0.18411322,0.0053000897,0.1344226,0.2086885,-0.007574901,-0.008308731,-0.14998882,-0.00017899275,-0.030839145,-3.3920863,0.0,-0.78001165,0.0,0.0,,0.0,0.0,0.0,0.0,-0.023611784,0.09585356,-0.19039033,0.22433615,-0.073953174,-0.43604657,-0.012312842,0.0,0.0,0.0,0.0,0.0,0.0
603529729,603429694,0.10266396,0.015552884,-0.18411322,0.0053000897,0.1344226,0.2086885,-0.007574901,-0.008308731,-0.14998882,-0.00017899275,-0.030839145,-3.3920863,0.0,-0.78001165,0.0,0.0,,0.0,0.0,0.0,0.0,-0.008954883,0.09791839,-0.18385196,0.22206679,0.07161472,0.039533786,6.163907e-05,0.0,0.0,0.0,0.0,0.0,0.0
603539667,603439575,0.10266396,0.015552884,-0.18411322,0.0053000897,0.1344226,0.2086885,-0.005345884,-0.008506217,-0.15075116,-0.00035517663,-0.029673547,-3.3964708,0.0,-0.78001165,0.0,0.0,,0.0,0.0,0.0,0.0,-0.008954883,0.09791839,-0.18385196,0.22206679,0.030826341,0.29850793,-0.003007513,0.0,0.0,0.0,0.0,0.0,0.0
603549588,603449457,0.10266396,0.015552884,-0.18411322,0.0053000897,0.1344226,0.2086885,-0.005345884,-0.008506217,-0.15075116,-0.00035517663,-0.029673547,-3.3964708,0.0,-0.78001165,0.0,0.0,,0.0,0.0,0.0,0.0,-0.008954883,0.09791839,-0.18385196,0.22206679,-0.047938354,-0.15717983,-0.002297961,0.0,0.0,0.0,0.0,0.0,0.0
603559131,603459338,0.10266396,0.015552884,-0.18411322,0.0053000897,0.1344226,0.2086885,-0.005345884,-0.008506217,-0.15075116,-0.00035517663,-0.029673547,-3.3964708,0.0,-0.78001165,0.0,0.0,,0.0,0.0,0.0,0.0,-0.008954883,0.09791839,-0.18385196,0.22206679,0.062429894,-0.24861589,-0.0044030277,0.0,0.0,0.0,0.0,0.0,0.0
603570179,603469220,-0.08631234,-0.042445716,-0.14308637,-0.027425706,0.12602079,0.20923567,-0.005345884,-0.008506217,-0.15075116,-0.00035517663,-0.029673547,-3.3964708,0.0,-1.0528822,0.0,0.0,,0.0,0.0,0.0,0.0,-0.008954883,0.09791839,-0.18385196,0.22206679,0.05627228,0.30872265,-0.0033198546,0.0,0.0,0.0,0.0,0.0,0.0
603578818,603479107,-0.08631234,-0.042445716,-0.14308637,-0.027425706,0.12602079,0.20923567,-0.005345884,-0.008506217,-0.15075116,-0.00035517663,-0.029673547,-3.3964708,0.0,-1.0528822,0.0,0.0,,0.0,0.0,0.0,0.0,-0.008954883,0.09791839,-0.18385196,0.22206679,-0.056490574,0.1461177,-0.00073675765,0.0,0.0,0.0,0.0,0.0,0.0
603588855,603488996,-0.08631234,-0.042445716,-0.14308637,-0.027425706,0.12602079,0.20923567,-0.0012559136,-0.0066373437,-0.14809547,0.008649647,-0.030252129,-3.3933911,0.0,-1.0528822,0.0,0.0,,0.0,0.0,0.0,0.0,-0.008954883,0.09791839,-0.18385196,0.22206679,-0.13373886,-0.29544508,-0.007145502,0.0,0.0,0.0,0.0,0.0,0.0
603598765,603498864,-0.08631234,-0.042445716,-0.14308637,-0.027425706,0.12602079,0.20923567,-0.0012559136,-0.0066373437,-0.14809547,0.008649647,-0.030252129,-3.3933911,0.0,-1.0528822,0.0,0.0,,0.0,0.0,0.0,0.0,-0.027918816,0.09434946,-0.19070789,0.22374877,0.21361783,-0.028348798,-0.001840696,0.0,0.0,0.0,0.0,0.0,0.0
603608695,603508746,-0.08631234,-0.042445716,-0.14308637,-0.027425706,0.12602079,0.20923567,-0.0008395033,-0.0066974396,-0.15023462,0.008286536,-0.028993353,-3.3962805,0.0,-1.0528822,0.0,0.0,,0.0,0.0,0.0,0.0,-0.027918816,0.09434946,-0.19070789,0.22374877,-0.11640593,0.30317792,-0.004285538,0.0,0.0,0.0,0.0,0.0,0.0
603618472,603518627,-0.08631234,-0.042445716,-0.14308637,-0.027425706,0.12602079,0.20923567,-0.0008395033,-0.0066974396,-0.15023462,0.008286536,-0.028993353,-3.3962805,0.0,-1.0528822,0.0,0.0,,0.0,0.0,0.0,0.0,-0.027918816,0.09434946,-0.19070789,0.22374877,-0.060022254,-0.14003037,-0.002042056,0.0,0.0,0.0,0.0,0.0,0.0
603628453,603528509,-0.08631234,-0.042445716,-0.14308637,-0.027425706,0.12602079,0.20923567,-0.0008395033,-0.0066974396,-0.15023462,0.008286536,-0.028993353,-3.3962805,0.0,-0.9508705,0.0,0.0,,0.0,0.0,0.0,0.0,-0.027918816,0.09434946,-0.19070789,0.22374877,0.18104427,-0.14471488,-0.0028882555,0.0,0.0,0.0,0.0,0.0,0.0
603638550,603538390,-0.08631234,-0.042445716,-0.14308637,-0.027425706,0.12602079,0.20923567,-0.0008395033,-0.0066974396,-0.15023462,0.008286536,-0.028993353,-3.3962805,0.0,-0.9508705,0.0,0.0,,0.0,0.0,0.0,0.0,-0.027918816,0.09434946,-0.19070789,0.22374877,-0.10987332,0.30229747,-0.0041492837,0.0,0.0,0.0,0.0,0.0,0.0
603648303,603548271,-0.08631234,-0.042445716,-0.14308637,-0.027425706,0.12602079,0.20923567,-0.0020015636,-0.005912139,-0.15101355,0.007904068,-0.027949244,-3.3970313,0.0,-0.9508705,0.0,0.0,,0.0,0.0,0.0,0.0,-0.027918816,0.09434946,-0.19070789,0.22374877,0.026262436,-0.07716289,-0.00061625795,0.0,0.0,0.0,0.0,0.0,0.0
603657885,603558153,-0.08631234,-0.042445716,-0.14308637,-0.027425706,0.12602079,0.20923567,-0.0020015636,-0.005912139,-0.15101355,0.007904068,-0.027949244,-3.3970313,0.0,-0.9508705,0.0,0.0,,0.0,0.0,0.0,0.0,-0.027918816,0.09434946,-0.19070789,0.22374877,-0.032734428,-0.26226187,-0.004876524,0.0,0.0,0.0,0.0,0.0,0.0
603668646,603568035,-0.08631234,-0.042445716,-0.14308637,-0.027425706,0.12602079,0.20923567,-0.0020015636,-0.005912139,-0.15101355,0.007904068,-0.027949244,-3.3970313,0.0,-0.9508705,0.0,0.0,,0.0,0.0,0.0,0.0,-0.028576493,0.09539463,-0.19309916,0.22383556,0.09372861,0.123487115,-0.0003337009,0.0,0.0,0.0,0.0,0.0,0.0
603677874,603577916,-0.08631234,-0.042445716,-0.14308637,-0.027425706,0.12602079,0.20923567,-0.0015595532,-0.0065974467,-0.15322351,0.007554762,-0.026866704,-3.4014828,0.0,-0.9508705,0.0,0.0,,0.0,0.0,0.0,0.0,-0.028576493,0.09539463,-0.19309916,0.22383556,-0.112304114,0.22018203,-0.0024104351,0.0,0.0,0.0,0.0,0.0,0.0
603688460,603587803,0.07174849,-0.0331124,-0.18011723,-0.007095769,0.129352,0.1998744,-0.0015595532,-0.0065974467,-0.15322351,0.007554762,-0.026866704,-3.4014828,0.0,-0.9508705,0.0,0.0,,0.0,0.0,0.0,0.0,-0.028576493,0.09539463,-0.19309916,0.22383556,-0.01508669,-0.2399014,-0.004171821,0.0,0.0,0.0,0.0,0.0,0.0
603697584,603597679,0.07174849,-0.0331124,-0.18011723,-0.007095769,0.129352,0.1998744,-0.0015595532,-0.0065974467,-0.15322351,0.007554762,-0.026866704,-3.4014828,0.0,-1.038255,0.0,0.0,,0.0,0.0,0.0,0.0,-0.028576493,0.09539463,-0.19309916,0.22383556,0.12206757,-0.0018118086,-0.00039241678,0.0,0.0,0.0,0.0,0.0,0.0
603707441,603607561,0.07174849,-0.0331124,-0.18011723,-0.007095769,0.129352,0.1998744,-0.005277831,-0.0048064734,-0.1472249,0.0008155629,-0.028417125,-3.3926961,0.0,-1.038255,0.0,0.0,,0.0,0.0,0.0,0.0,-0.028576493,0.09539463,-0.19309916,0.22383556,-0.0084326975,0.34650737,-0.0044224765,0.0,0.0,0.0,0.0,0.0,0.0
603717241,603617443,0.07174849,-0.0331124,-0.18011723,-0.007095769,0.129352,0.1998744,-0.005277831,-0.0048064734,-0.1472249,0.0008155629,-0.028417125,-3.3926961,0.0,-1.038255,0.0,0.0,,0.0,0.0,0.0,0.0,-0.028576493,0.09539463,-0.19309916,0.22383556,-0.09270923,-0.20012489,-0.0037282344,0.0,0.0,0.0,0.0,0.0,0.0
603727218,603627323,0.07174849,-0.0331124,-0.18011723,-0.007095769,0.129352,0.1998744,-0.005277831,-0.0048064734,-0.1472249,0.0008155629,-0.028417125,-3.3926961,0.0,-1.038255,0.0,0.0,,0.0,0.0,0.0,0.0,-0.028576493,0.09539463,-0.19309916,0.22383556,0.086758025,-0.33879244,-0.0076242266,0.0,0.0,0.0,0.0,0.0,0.0
603737156,603637205,0.07174849,-0.0331124,-0.18011723,-0.007095769,0.129352,0.1998744,-0.005277831,-0.0048064734,-0.1472249,0.0008155629,-0.028417125,-3.3926961,0.0,-1.038255,0.0,0.0,,0.0,0.0,0.0,0.0,-0.027323604,0.0939438,-0.18951109,0.22034872,-0.013677119,0.4466956,-0.007945323,0.0,0.0,0.0,0.0,0.0,0.0
603746930,603647086,0.07174849,-0.0331124,-0.18011723,-0.007095769,0.129352,0.1998744,-0.007714376,-0.0048078257,-0.1493681,0.000546135,-0.02733466,-3.398467,0.0,-1.038255,0.0,0.0,,0.0,0.0,0.0,0.0,-0.027323604,0.0939438,-0.18951109,0.22034872,-0.048270408,0.0421259,-0.00015461435,0.0,0.0,0.0,0.0,0.0,0.0
603756768,603656968,0.07174849,-0.0331124,-0.18011723,-0.007095769,0.129352,0.1998744,-0.007714376,-0.0048078257,-0.1493681,0.000546135,-0.02733466,-3.398467,0.0,-1.0334773,0.0,0.0,,0.0,0.0,0.0,0.0,-0.027323604,0.0939438,-0.18951109,0.22034872,0.15111412,-0.4098291,-0.011247866,0.0,0.0,0.0,0.0,0.0,0.0
603766578,603666850,0.07174849,-0.0331124,-0.18011723,-0.007095769,0.129352,0.1998744,-0.007714376,-0.0048078257,-0.1493681,0.000546135,-0.02733466,-3.398467,0.0,-1.0334773,0.0,0.0,,0.0,0.0,0.0,0.0,-0.027323604,0.0939438,-0.18951109,0.22034872,0.005725082,0.2625332,-0.0021764254,0.0,0.0,0.0,0.0,0.0,0.0
603776542,603676731,0.07174849,-0.0331124,-0.18011723,-0.007095769,0.129352,0.1998744,-0.008196608,-0.005165868,-0.14835535,0.00036551058,-0.026248604,-3.3971891,0.0,-1.0334773,0.0,0.0,,0.0,0.0,0.0,0.0,-0.027323604,0.0939438,-0.18951109,0.22034872,-0.15873036,0.29227188,-0.004717781,0.0,0.0,0.0,0.0,0.0,0.0
603786419,603686612,0.07174849,-0.0331124,-0.18011723,-0.007095769,0.129352,0.1998744,-0.008196608,-0.005165868,-0.14835535,0.00036551058,-0.026248604,-3.3971891,0.0,-1.0334773,0.0,0.0,,0.0,0.0,0.0,0.0,-0.027323604,0.0939438,-0.18951109,0.22034872,-0.044395957,-0.34810168,-0.00807042,0.0,0.0,0.0,0.0,0.0,0.0
603796451,603696494,0.07174849,-0.0331124,-0.18011723,-0.007095769,0.129352,0.1998744,-0.008196608,-0.005165868,-0.14835535,0.00036551058,-0.026248604,-3.3971891,0.0,-1.0334773,0.0,0.0,,0.0,0.0,0.0,0.0,-0.027323604,0.0939438,-0.18951109,0.22034872,0.1982219,-0.20837003,-0.004650706,0.0,0.0,0.0,0.0,0.0,0.0
603806369,603706375,0.07174849,-0.0331124,-0.18011723,-0.007095769,0.129352,0.1998744,-0.007256544,-0.0044806865,-0.15108855,0.00017166138,-0.0252105,-3.4015489,0.0,-1.0334773,0.0,0.0,,0.0,0.0,0.0,0.0,-0.02240932,0.09565474,-0.18915237,0.22169426,-0.14341125,0.5877273,-0.01616085,0.0,0.0,0.0,0.0,0.0,0.0
603817056,603716257,-0.012211852,0.0552511,-0.16807096,-0.0030384958,0.1544425,0.2249844,-0.007256544,-0.0044806865,-0.15108855,0.00017166138,-0.0252105,-3.4015489,0.0,-1.0334773,0.0,0.0,,0.0,0.0,0.0,0.0,-0.02240932,0.09565474,-0.18915237,0.22169426,0.023402562,-0.22978227,-0.0037510754,0.0,0.0,0.0,0.0,0.0,0.0
603826153,603726138,-0.012211852,0.0552511,-0.16807096,-0.0030384958,0.1544425,0.2249844,-0.007256544,-0.0044806865,-0.15108855,0.00017166138,-0.0252105,-3.4015489,0.0,-0.88925433,0.0,0.0,,0.0,0.0,0.0,0.0,-0.02240932,0.09565474,-0.18915237,0.22169426,0.09649817,-0.36904055,-0.008955761,0.0,0.0,0.0,0.0,0.0,0.0
603836867,603736020,-0.012211852,0.0552511,-0.16807096,-0.0030384958,0.1544425,0.2249844,-0.007256544,-0.0044806865,-0.15108855,0.00017166138,-0.0252105,-3.4015489,0.0,-0.88925433,0.0,0.0,,0.0,0.0,0.0,0.0,-0.02240932,0.09565474,-0.18915237,0.22169426,-0.011843822,0.45899862,-0.008508259,0.0,0.0,0.0,0.0,0.0,0.0
603846376,603745901,-0.012211852,0.0552511,-0.16807096,-0.0030384958,0.1544425,0.2249844,-0.0075040674,-0.009282851,-0.14477411,0.0011872947,-0.036277488,-3.396494,0.0,-0.88925433,0.0,0.0,,0.0,0.0,0.0,0.0,-0.02240932,0.09565474,-0.18915237,0.22169426,-0.019867104,-0.052145008,-0.00046710306,0.0,0.0,0.0,0.0,0.0,0.0
603856518,603755782,-0.012211852,0.0552511,-0.16807096,-0.0030384958,0.1544425,0.2249844,-0.0075040674,-0.009282851,-0.14477411,0.0011872947,-0.036277488,-3.396494,0.0,-0.88925433,0.0,0.0,,0.0,0.0,0.0,0.0,-0.02240932,0.09565474,-0.18915237,0.22169426,0.006380347,-0.38131398,-0.009218909,0.0,0.0,0.0,0.0,0.0,0.0
603866669,603765664,-0.012211852,0.0552511,-0.16807096,-0.0030384958,0.1544425,0.2249844,-0.0075040674,-0.009282851,-0.14477411,0.0011872947,-0.036277488,-3.396494,0.0,-0.88925433,0.0,0.0,,0.0,0.0,0.0,0.0,-0.02240932,0.09565474,-0.18915237,0.22169426,0.10335366,0.3600829,-0.0050485935,0.0,0.0,0.0,0.0,0.0,0.0
603876384,603775546,-0.012211852,0.0552511,-0.16807096,-0.0030384958,0.1544425,0.2249844,-0.006906726,-0.00979095,-0.14749748,0.000992991,-0.034938604,-3.4007673,0.0,-0.88925433,0.0,0.0,,0.0,0.0,0.0,0.0,-0.030214906,0.09386228,-0.19131333,0.22316366,-0.1591522,0.09247726,-0.0017617716,0.0,0.0,0.0,0.0,0.0,0.0
603886177,603785427,-0.012211852,0.0552511,-0.16807096,-0.0030384958,0.1544425,0.2249844,-0.006906726,-0.00979095,-0.14749748,0.000992991,-0.034938604,-3.4007673,0.0,-1.0938957,0.0,0.0,,0.0,0.0,0.0,0.0,-0.030214906,0.09386228,-0.19131333,0.22316366,0.045236014,-0.2358728,-0.0039498415,0.0,0.0,0.0,0.0,0.0,0.0
603895882,603795309,-0.012211852,0.0552511,-0.16807096,-0.0030384958,0.1544425,0.2249844,-0.006906726,-0.00979095,-0.14749748,0.000992991,-0.034938604,-3.4007673,0.0,-1.0938957,0.0,0.0,,0.0,0.0,0.0,0.0,-0.030214906,0.09386228,-0.19131333,0.22316366,-0.0110101,-0.02490446,-0.0001940012,0.0,0.0,0.0,0.0,0.0,0.0
603905950,603805190,-0.012211852,0.0552511,-0.16807096,-0.0030384958,0.1544425,0.2249844,-0.006177904,-0.009307445,-0.14795233,0.0007708296,-0.033687964,-3.3991373,0.0,-1.0938957,0.0,0.0,,0.0,0.0,0.0,0.0,-0.030214906,0.09386228,-0.19131333,0.22316366,0.029264065,0.3531023,-0.0045796814,0.0,0.0,0.0,0.0,0.0,0.0
603915632,603815072,-0.012211852,0.0552511,-0.16807096,-0.0030384958,0.1544425,0.2249844,-0.006177904,-0.009307445,-0.14795233,0.0007708296,-0.033687964,-3.3991373,0.0,-1.0938957,0.0,0.0,,0.0,0.0,0.0,0.0,-0.030214906,0.09386228,-0.19131333,0.22316366,-0.11892988,-0.25000852,-0.005448412,0.0,0.0,0.0,0.0,0.0,0.0
603924765,603824953,-0.012211852,0.0552511,-0.16807096,-0.0030384958,0.1544425,0.2249844,-0.006177904,-0.009307445,-0.14795233,0.0007708296,-0.033687964,-3.3991373,0.0,-1.0938957,0.0,0.0,,0.0,0.0,0.0,0.0,-0.030214906,0.09386228,-0.19131333,0.22316366,0.18550135,-0.31896445,-0.007954689,0.0,0.0,0.0,0.0,0.0,0.0
603935766,603834834,-0.012211852,0.0552511,-0.16807096,-0.0030384958,0.1544425,0.2249844,-0.006177904,-0.009307445,-0.14795233,0.0007708296,-0.033687964,-3.3991373,0.0,-1.0938957,0.0,0.0,,0.0,0.0,0.0,0.0,-0.030214906,0.09386228,-0.19131333,0.22316366,-0.13789238,0.5087808,-0.012065934,0.0,0.0,0.0,0.0,0.0,0.0
603946735,603844716,-0.01489434,-0.055191234,-0.1675136,-0.0024911463,0.14127657,0.22032547,-0.007986854,-0.007403859,-0.1436576,0.0019952431,-0.033631414,-3.3987927,0.0,-1.0938957,0.0,0.0,,0.0,0.0,0.0,0.0,-0.0365752,0.09292089,-0.19407283,0.21911693,0.009817089,-0.030722456,-0.00017297089,0.0,0.0,0.0,0.0,0.0,0.0
603954413,603854597,-0.01489434,-0.055191234,-0.1675136,-0.0024911463,0.14127657,0.22032547,-0.007986854,-0.007403859,-0.1436576,0.0019952431,-0.033631414,-3.3987927,0.0,-0.91747403,0.0,0.0,,0.0,0.0,0.0,0.0,-0.0365752,0.09292089,-0.19407283,0.21911693,0.058037184,-0.3756876,-0.00901485,0.0,0.0,0.0,0.0,0.0,0.0
603964237,603864479,-0.01489434,-0.055191234,-0.1675136,-0.0024911463,0.14127657,0.22032547,-0.007986854,-0.007403859,-0.1436576,0.0019952431,-0.033631414,-3.3987927,0.0,-0.91747403,0.0,0.0,,0.0,0.0,0.0,0.0,-0.0365752,0.09292089,-0.19407283,0.21911693,0.063148186,0.23672713,-0.001684888,0.0,0.0,0.0,0.0,0.0,0.0
603974173,603874360,-0.01489434,-0.055191234,-0.1675136,-0.0024911463,0.14127657,0.22032547,-0.0067972187,-0.006684054,-0.14436366,0.0017693862,-0.032357216,-3.3981314,0.0,-0.91747403,0.0,0.0,,0.0,0.0,0.0,0.0,-0.0365752,0.09292089,-0.19407283,0.21911693,-0.04562454,0.21352275,-0.0015360218,0.0,0.0,0.0,0.0,0.0,0.0
603984114,603884242,-0.01489434,-0.055191234,-0.1675136,-0.0024911463,0.14127657,0.22032547,-0.0067972187,-0.006684054,-0.14436366,0.0017693862,-0.032357216,-3.3981314,0.0,-0.91747403,0.0,0.0,,0.0,0.0,0.0,0.0,-0.0365752,0.09292089,-0.19407283,0.21911693,0.037058186,-0.3158534,-0.0065559666,0.0,0.0,0.0,0.0,0.0,0.0
603994128,603894123,-0.01489434,-0.055191234,-0.1675136,-0.0024911463,0.14127657,0.22032547,-0.0067972187,-0.006684054,-0.14436366,0.0017693862,-0.032357216,-3.3981314,0.0,-0.91747403,0.0,0.0,,0.0,0.0,0.0,0.0,-0.0365752,0.09292089,-0.19407283,0.21911693,0.07689288,-0.14491831,-0.0018497225,0.0,0.0,0.0,0.0,0.0,0.0
604003829,603904005,-0.01489434,-0.055191234,-0.1675136,-0.0024911463,0.14127657,0.22032547,-0.0067972187,-0.006684054,-0.14436366,0.0017693862,-0.032357216,-3.3981314,0.0,-0.91747403,0.0,0.0,,0.0,0.0,0.0,0.0,-0.0365752,0.09292089,-0.19407283,0.21911693,-0.08508956,0.44137383,-0.008385602,0.0,0.0,0.0,0.0,0.0,0.0
604013781,603913886,-0.01489434,-0.055191234,-0.1675136,-0.0024911463,0.14127657,0.22032547,-0.008222691,-0.0070589585,-0.14818342,0.0014905035,-0.031196132,-3.4038599,0.0,-0.91747403,0.0,0.0,,0.0,0.0,0.0,0.0,-0.026045442,0.09498072,-0.1903098,0.22142112,0.01594943,-0.09094868,-0.0008260165,0.0,0.0,0.0,0.0,0.0,0.0
604023559,603923768,-0.01489434,-0.055191234,-0.1675136,-0.0024911463,0.14127657,0.22032547,-0.008222691,-0.0070589585,-0.14818342,0.0014905035,-0.031196132,-3.4038599,0.0,-0.99654984,0.0,0.0,,0.0,0.0,0.0,0.0,-0.026045442,0.09498072,-0.1903098,0.22142112,0.058413774,-0.37293893,-0.008900869,0.0,0.0,0.0,0.0,0.0,0.0
604033841,603933649,-0.01489434,-0.055191234,-0.1675136,-0.0024911463,0.14127657,0.22032547,-0.008222691,-0.0070589585,-0.14818342,0.0014905035,-0.031196132,-3.4038599,0.0,-0.99654984,0.0,0.0,,0.0,0.0,0.0,0.0,-0.026045442,0.09498072,-0.1903098,0.22142112,-0.024341693,0.3669654,-0.0051480513,0.0,0.0,0.0,0.0,0.0,0.0
