timestamp,timestamp_sample,position[0],position[1],position[2],q[0],q[1],q[2],q[3],velocity[0],velocity[1],velocity[2],angular_velocity[0],angular_velocity[1],angular_velocity[2],position_variance[0],position_variance[1],position_variance[2],orientation_variance[0],orientation_variance[1],orientation_variance[2],velocity_variance[0],velocity_variance[1],velocity_variance[2],pose_frame,velocity_frame,reset_counter,quality
603027009,602910573,-0.00010575381,0.0004612738,-0.10002646,0.99932534,-0.023998154,-0.027802253,-0.0001281083,0.00032230737,-0.00010696108,0.0020591323,-0.00023301863,0.0023894212,-0.00024831254,1.2899929e-07,1.5494152e-07,1.0288412e-07,1.1621439e-08,8.22888e-09,2.1800403e-08,4.4782914e-06,3.9803995e-06,4.2603e-06,2,3,2,100
603067098,603038760,-0.000115842304,0.00045275968,-0.100026675,0.999324,-0.02401674,-0.02783356,-0.0002213678,-0.00080647756,-0.0011416032,0.0023180018,0.008683069,-0.0009405922,-0.0017101102,1.2897817e-07,1.5492529e-07,1.0279832e-07,1.1671497e-08,8.163763e-09,2.2080007e-08,4.512749e-06,3.971002e-06,4.2569877e-06,2,3,2,100
603107345,603078254,-0.00015466195,0.0003926517,-0.10002713,0.99932957,-0.023961274,-0.027679613,-0.00027012697,-0.0015092446,-0.0013408766,0.0018711486,-0.0021980095,0.034732122,-0.013162063,1.2893683e-07,1.5490086e-07,1.0274602e-07,1.1243109e-08,8.119949e-09,2.1586157e-08,4.443477e-06,3.9755428e-06,4.2162474e-06,2,3,2,100
603141875,603113685,-0.00012389218,0.00041750778,-0.10001727,0.99932384,-0.02400146,-0.027852451,-0.00023842817,-0.00023306155,-7.480761e-05,0.0029460567,0.009077492,-0.011057192,-0.0031749364,1.2879218e-07,1.5486837e-07,1.0268598e-07,1.0865171e-08,8.049543e-09,2.1392406e-08,4.4396666e-06,3.9706033e-06,4.2164033e-06,2,3,2,100
603166029,603143261,-0.00013061032,0.00041704622,-0.100033276,0.99932915,-0.023992952,-0.027669229,-0.0001901663,-0.0011607248,-0.001183776,0.0024826506,0.0153509015,0.007309136,-0.010095283,1.2871243e-07,1.5486933e-07,1.026605e-07,1.1001271e-08,7.959213e-09,2.1181766e-08,4.5016664e-06,3.9573447e-06,4.2417323e-06,2,3,2,100
603197565,603172851,-0.00013373556,0.00043093011,-0.10003797,0.999328,-0.024046045,-0.027663548,-0.00015020763,0.001540716,-0.0021740545,0.00205166,0.030771678,-0.029829368,-0.014751595,1.285282e-07,1.5476422e-07,1.02644314e-07,1.1126153e-08,7.959275e-09,2.0700103e-08,4.469767e-06,3.955622e-06,4.222692e-06,2,3,2,100
603241533,603212320,-0.00011589249,0.00043328054,-0.10002295,0.9993264,-0.024056446,-0.027713584,-0.00017856061,3.3364027e-05,-0.00042556055,0.0022942475,0.0006836546,0.0014554677,0.013199178,1.2837657e-07,1.5468625e-07,1.0260326e-07,1.1079265e-08,7.861547e-09,2.0837598e-08,4.458194e-06,3.9216366e-06,4.1962326e-06,2,3,2,100
603268260,603241944,-0.0001441024,0.0004211477,-0.1000364,0.99933,-0.024018038,-0.027617028,-0.00017476514,0.00048602067,0.00012763498,0.0023047905,-0.00036523794,-0.0077289008,-0.007970869,1.2829976e-07,1.5461265e-07,1.025946e-07,1.12107905e-08,7.944462e-09,2.0765661e-08,4.466584e-06,3.945397e-06,4.200596e-06,2,3,2,100
603310795,603281448,-0.00013100321,0.00043580815,-0.10002091,0.99932474,-0.024107553,-0.027727298,-0.00018222419,0.00043979354,0.0011031345,0.0024661995,-0.01408688,0.0014575208,0.010398322,1.2817935e-07,1.5458319e-07,1.0262075e-07,1.1084545e-08,7.952456e-09,2.082209e-08,4.4735157e-06,3.959742e-06,4.2083466e-06,2,3,2,100
603340836,603311055,-0.00014001923,0.0004364989,-0.10001597,0.9993293,-0.024013693,-0.027645392,-0.00016832049,3.7756716e-05,0.0025178478,0.0028060314,-0.014474251,-0.008525783,-0.007043774,1.2809285e-07,1.545099e-07,1.0260968e-07,1.1021438e-08,8.064472e-09,2.0781709e-08,4.46368e-06,3.993699e-06,4.2437437e-06,2,3,2,100
603376282,603350552,-0.00013842972,0.0004448787,-0.100015976,0.99932677,-0.024069963,-0.027688641,-0.00015906875,0.00058198883,0.003097834,0.0027744765,-0.021277007,-0.0074593043,0.008265018,1.2795579e-07,1.5451077e-07,1.0258645e-07,1.0994187e-08,8.031707e-09,2.0808852e-08,4.4673793e-06,3.95402e-06,4.209608e-06,2,3,2,100
603409792,603380168,-0.00014493082,0.00042384764,-0.10004693,0.9993274,-0.024071986,-0.027663888,-0.00016515933,0.0002055669,0.0025179253,0.0024615903,-0.019008292,-0.002269482,0.0049374243,1.2781487e-07,1.5439508e-07,1.0254148e-07,1.0915404e-08,7.983369e-09,2.0616524e-08,4.432584e-06,3.9494576e-06,4.206193e-06,2,3,2,100
603446797,603409828,-0.00014618765,0.00041942234,-0.10006021,0.99932903,-0.02405611,-0.027618732,-0.00018405591,-1.7602419e-05,-0.001536673,0.0011890872,0.021461915,-0.004140392,-0.006765261,1.2764058e-07,1.542848e-07,1.0252116e-07,1.0973674e-08,7.9621305e-09,2.0069663e-08,4.479128e-06,3.9679453e-06,4.2326483e-06,2,3,2,100
603466337,603439453,-0.00014615848,0.00042821132,-0.10006482,0.9993272,-0.024104532,-0.027642777,-0.00017683134,0.00016115747,-0.0025140445,0.0009566256,0.017749062,-0.0024100542,-0.019414818,1.2743413e-07,1.5415664e-07,1.02518506e-07,1.1019413e-08,7.897012e-09,1.972576e-08,4.4754133e-06,3.9529755e-06,4.2264865e-06,2,3,2,100
603520626,603488872,-0.00013720134,0.00043485526,-0.10003936,0.99932826,-0.024062963,-0.027639441,-0.00010025734,0.00033525366,0.002711979,0.0014968831,-0.029942514,-0.0034659454,0.024638377,1.2727331e-07,1.5403043e-07,1.0252633e-07,1.0977542e-08,7.896873e-09,1.953239e-08,4.469219e-06,3.939717e-06,4.214138e-06,2,3,2,100
603541874,603508629,-0.00013686654,0.00043116,-0.100066066,0.9993273,-0.024097959,-0.027644385,-0.00019307583,6.4906395e-05,-0.0009467175,0.0010601492,0.014811953,-0.00094576756,-0.009696477,1.2703367e-07,1.5384431e-07,1.024571e-07,1.099863e-08,7.734329e-09,1.9417413e-08,4.45804e-06,3.9054403e-06,4.213443e-06,2,3,2,100
603585910,603548144,-0.00014781718,0.00042296288,-0.100050755,0.9993303,-0.023994965,-0.027625747,-0.00017387037,-9.087885e-05,0.00086792215,0.0019641407,0.0048064003,-0.0029400978,0.012667584,1.2685605e-07,1.5371586e-07,1.0246914e-07,1.102691e-08,7.848915e-09,1.9277678e-08,4.4787384e-06,3.9596607e-06,4.222906e-06,2,3,2,100
603610009,603577776,-0.00014154594,0.00043227733,-0.10006569,0.99932826,-0.024077538,-0.027627025,-0.00018195609,2.720639e-05,-0.0004375506,0.0016177987,0.014396818,-0.005337966,0.0034841215,1.2671224e-07,1.5364787e-07,1.024648e-07,1.0870989e-08,7.879077e-09,1.9452656e-08,4.4647595e-06,3.9476467e-06,4.234591e-06,2,3,2,100
603636074,603607431,-0.00015270025,0.00042484608,-0.100073874,0.9993295,-0.024038702,-0.02761685,-0.00018545803,0.00051579624,-0.00252617,0.0007981272,0.031437043,-0.010398586,-0.0039662584,1.2649593e-07,1.534922e-07,1.0244639e-07,1.0967406e-08,7.8956806e-09,1.9319177e-08,4.473417e-06,3.9434876e-06,4.2156867e-06,2,3,2,100
603679832,603646978,-0.0001427986,0.00043211636,-0.1000692,0.99932814,-0.024049547,-0.027655952,-0.00015834918,0.00012543162,0.00016885606,0.0019763294,0.010923549,-0.0074668257,0.014932879,1.2626032e-07,1.5336602e-07,1.02449285e-07,1.0876342e-08,7.871801e-09,1.9353186e-08,4.4796784e-06,3.9539254e-06,4.2271067e-06,2,3,2,100
603703803,603676655,-0.00015087074,0.00042546797,-0.10006983,0.9993301,-0.023994347,-0.027633762,-0.00017971113,-0.00020648933,-0.0011015206,0.0015923748,0.022115173,-0.0017456897,0.005883202,1.2602183e-07,1.5323405e-07,1.0244171e-07,1.0989829e-08,7.904499e-09,1.9234243e-08,4.4938147e-06,3.9707224e-06,4.2309794e-06,2,3,2,100
603737872,603706361,-0.00013567424,0.00043712292,-0.100069396,0.99932814,-0.02406958,-0.027638793,-0.00017076073,0.0006598997,-0.0020130135,0.0012881273,0.026515933,-0.008135671,-0.006364464,1.2587337e-07,1.531106e-07,1.0245019e-07,1.0928979e-08,7.991402e-09,1.9362078e-08,4.4738053e-06,3.9828387e-06,4.2316133e-06,2,3,2,100
603770216,603745983,-0.00014879461,0.00042752977,-0.10005379,0.99933,-0.023976492,-0.027653078,-0.00017411498,0.00035987486,0.0010077136,0.0016306314,0.00015747194,-0.00600177,0.001082534,1.2568131e-07,1.5299992e-07,1.02409736e-07,1.103713e-08,7.916177e-09,1.9387919e-08,4.482099e-06,3.9696206e-06,4.224074e-06,2,3,2,100
603810271,603775719,-0.00013316487,0.00043263639,-0.10005996,0.9993294,-0.02401025,-0.027645012,-0.00017406796,0.0006765644,-0.00039797096,0.0015847227,0.016263394,-0.010662946,-0.0034390122,1.2558613e-07,1.5291337e-07,1.02373754e-07,1.0943302e-08,7.824285e-09,1.9531754e-08,4.4831154e-06,3.953499e-06,4.237281e-06,2,3,2,100
603839322,603805476,-0.00013831261,0.00044296842,-0.100061305,0.99933064,-0.023994653,-0.027612511,-0.00016822388,0.0007480787,-0.0018520075,0.0012659016,0.029709613,-0.01652158,-0.010624375,1.2542262e-07,1.5280389e-07,1.0232164e-07,1.1107683e-08,7.806642e-09,1.94819e-08,4.4814155e-06,3.9467213e-06,4.2288043e-06,2,3,2,100
603870501,603845197,-0.00012292672,0.00043808384,-0.10004378,0.9993302,-0.023968274,-0.02765215,-0.0001726347,2.8679971e-05,0.0013048109,0.0013500577,-0.0057044844,-0.0071993023,0.0061398284,1.2533127e-07,1.5271404e-07,1.02343535e-07,1.1153877e-08,7.860541e-09,1.963479e-08,4.507632e-06,3.968507e-06,4.250268e-06,2,3,2,100
603907429,603874994,-0.00012207485,0.000443202,-0.100032896,0.9993306,-0.02393858,-0.027664933,-0.00018683237,0.00041278428,-0.00036825115,0.0013838543,0.009476921,-0.0114612095,-0.005305346,1.2527252e-07,1.5267723e-07,1.02366194e-07,1.1334698e-08,8.061853e-09,1.9992312e-08,4.502431e-06,4.012151e-06,4.271638e-06,2,3,2,100
603942099,603914742,-0.0001229597,0.00044510252,-0.10002401,0.99933,-0.02397224,-0.027658,-0.0001541803,-0.0009042407,0.0018841401,0.0020217202,-0.014493148,0.013964046,0.021448815,1.2532402e-07,1.5274158e-07,1.0239795e-07,1.15029e-08,8.063282e-09,2.054218e-08,4.554536e-06,4.0104896e-06,4.29619e-06,2,3,2,100
603968190,603938678,-0.00012455141,0.0004336092,-0.10004305,0.99933076,-0.023972137,-0.027629623,-0.00018737308,0.00047775023,-0.002605401,0.0007150302,0.029055726,-0.010799713,-0.0196779,1.2535581e-07,1.5276854e-07,1.0245542e-07,1.16716175e-08,8.217247e-09,2.0766748e-08,4.5708034e-06,4.056734e-06,4.3139894e-06,2,3,2,100
604005807,603978237,-0.00012093831,0.0004327872,-0.10003871,0.99933046,-0.023934199,-0.027671756,-0.00018321542,-0.00016898627,0.00036113194,0.00094635156,0.006267916,0.001183505,0.015863314,1.2529894e-07,1.5273875e-07,1.0246378e-07,1.1672941e-08,8.165089e-09,2.06791e-08,4.5397246e-06,4.023352e-06,4.2845973e-06,2,3,2,100
604036923,604007904,-0.00012204787,0.00042563467,-0.100051746,0.99933237,-0.023902435,-0.02763159,-0.00018152648,0.0003584244,-0.0021542034,0.00072429376,0.033033736,-0.0036126566,-0.0013030556,1.2525788e-07,1.526651e-07,1.0249589e-07,1.1609086e-08,8.150647e-09,2.0433015e-08,4.5500524e-06,4.0330506e-06,4.290038e-06,2,3,2,100
604074914,604047481,-0.00012549199,0.00044685724,-0.10003689,0.9993312,-0.023936525,-0.027645232,-0.00014962588,-0.0009494128,0.0034207965,0.002040794,-0.02340629,0.014630306,0.017850919,1.2518856e-07,1.5261617e-07,1.0247957e-07,1.1723955e-08,8.14683e-09,2.0274566e-08,4.546741e-06,4.023085e-06,4.2895317e-06,2,3,2,100
604107295,604077149,-0.00013497338,0.00043301412,-0.100045964,0.9993342,-0.023846488,-0.027612677,-0.00017615859,-0.00016848477,0.0013843947,0.0013583637,0.00042520996,-0.004672956,-0.00064831495,1.2514407e-07,1.5256906e-07,1.02485835e-07,1.1679114e-08,8.205927e-09,2.0187423e-08,4.5647284e-06,4.039122e-06,4.2983565e-06,2,3,2,100
604136309,604106830,-0.0001264475,0.000440556,-0.10005426,0.99933124,-0.023899615,-0.027675139,-0.00016865147,-2.535162e-05,-0.0022383367,0.00077077164,0.035703275,-0.008937735,-0.012219947,1.251187e-07,1.5256873e-07,1.0251286e-07,1.1617912e-08,8.229168e-09,2.0256635e-08,4.5835964e-06,4.053186e-06,4.3153746e-06,2,3,2,100
604172902,604146442,-0.0001284402,0.00045528534,-0.10004192,0.99933255,-0.023866301,-0.027656693,-0.00019610817,-5.3126914e-05,0.0043815696,0.0012728246,-0.035789065,-0.011721365,0.009591123,1.2503179e-07,1.5252354e-07,1.02531054e-07,1.1531743e-08,8.0782945e-09,1.990199e-08,4.5729007e-06,4.014054e-06,4.3119885e-06,2,3,2,100
604207789,604176203,-0.000127524,0.0004331216,-0.10005496,0.99933296,-0.023848725,-0.02765541,-0.00020496425,4.4920504e-05,0.000638944,0.0006102155,0.006293473,0.0013145054,-0.010232378,1.2498313e-07,1.5246121e-07,1.0258912e-07,1.1586446e-08,8.1935685e-09,1.9930397e-08,4.582579e-06,4.0459313e-06,4.305176e-06,2,3,2,100
604242552,604211020,-0.00012440034,0.0004165833,-0.10006987,0.99933213,-0.0238413,-0.027692067,-0.00022031252,0.00031314563,0.0015837896,0.0003735573,-0.014621115,-0.0111926235,0.0030741857,1.2493068e-07,1.5239148e-07,1.02657395e-07,1.1617935e-08,8.209915e-09,1.9981222e-08,4.587118e-06,4.0507866e-06,4.3227287e-06,2,3,2,100
604269037,604240685,-0.00015825673,0.00042293736,-0.100066036,0.9993334,-0.023870543,-0.027623327,-0.00021925438,-0.00056481926,-0.0013946178,6.143421e-05,0.017615575,-0.0033458807,-0.022078395,1.2473744e-07,1.5218001e-07,1.0264555e-07,1.1504647e-08,8.1068325e-09,1.961339e-08,4.533524e-06,4.02919e-06,4.2951956e-06,2,3,2,100
604317528,604280241,-0.00012305421,0.0004198884,-0.10007251,0.99933237,-0.023850175,-0.027676618,-0.00020063059,-0.0007661031,0.0032050537,0.001291036,-0.027280087,0.009571997,0.028633595,1.2459998e-07,1.5207505e-07,1.02584494e-07,1.12175345e-08,7.925683e-09,1.9444698e-08,4.565893e-06,4.0015248e-06,4.2768766e-06,2,3,2,100
604336805,604309899,-0.00014985517,0.00040591194,-0.10008071,0.99933386,-0.023836482,-0.027632486,-0.00022473342,-0.0015725382,0.0003392932,0.0009930192,-0.0014380536,0.015024113,0.0086713815,1.2442992e-07,1.5193271e-07,1.0261273e-07,1.1376817e-08,7.920578e-09,1.9127004e-08,4.539404e-06,4.0048003e-06,4.265775e-06,2,3,2,100
604371266,604339627,-0.00014486388,0.0004017532,-0.100085594,0.9993329,-0.023813836,-0.027686976,-0.00022629558,-2.2103839e-05,-0.002066917,6.256367e-05,0.022800388,-0.00960247,-0.019413868,1.242548e-07,1.5179968e-07,1.02569075e-07,1.1081429e-08,7.979795e-09,1.9180199e-08,4.4939266e-06,4.0036616e-06,4.2612287e-06,2,3,2,100
604410081,604379183,-0.00015320441,0.00039984295,-0.100085534,0.99933606,-0.02380436,-0.02758288,-0.00016879274,-0.0007253653,0.0024628527,0.0012008309,-0.018489344,0.015426332,0.024509419,1.2407335e-07,1.5163552e-07,1.0247108e-07,1.0850221e-08,7.886773e-09,1.9092017e-08,4.4799754e-06,3.974759e-06,4.2488496e-06,2,3,2,100
604432563,604408905,-0.00015453094,0.00040280918,-0.10008189,0.9993355,-0.023766922,-0.027632967,-0.00019089504,-0.00013086182,0.00055792584,0.00070798036,0.0017467984,-0.005472709,0.007873036,1.2389144e-07,1.514689e-07,1.02399795e-07,1.0880268e-08,7.932291e-09,1.8960511e-08,4.4813705e-06,4.0004597e-06,4.2542433e-06,2,3,2,100
604466543,604438615,-0.00014177762,0.00040781935,-0.100088306,0.99933386,-0.023818802,-0.027648453,-0.00017968196,2.4115356e-05,-0.0035277973,8.765032e-05,0.039161745,-0.0008205883,-0.0067596803,1.2376107e-07,1.5133959e-07,1.0239718e-07,1.0959743e-08,7.955463e-09,1.9060574e-08,4.50643e-06,3.9915562e-06,4.2406964e-06,2,3,2,100
604503918,604478176,-0.00016046586,0.00040820183,-0.10007858,0.99933404,-0.023816358,-0.027644685,-0.00015171565,-0.0012064355,0.003215057,0.0010267559,-0.031531733,0.010370287,0.021309355,1.2355643e-07,1.5111718e-07,1.0232686e-07,1.0460288e-08,7.93406e-09,1.90471e-08,4.364329e-06,3.993835e-06,4.239479e-06,2,3,2,100
604533810,604507851,-0.00015566987,0.00040741483,-0.10008106,0.9993355,-0.023784608,-0.027619073,-0.00017371279,-0.00039377937,0.00026240177,0.00074013753,0.0032237784,0.00583913,-0.0002478557,1.2346969e-07,1.5108299e-07,1.0226989e-07,1.0651299e-08,7.964872e-09,1.918254e-08,4.4874796e-06,4.0071695e-06,4.248548e-06,2,3,2,100
604570685,604547477,-0.0001455624,0.0004214645,-0.10006995,0.99933213,-0.023908958,-0.027635332,-0.00013872806,-0.000346352,0.0042677475,0.002596832,-0.044837996,0.00983891,0.017976327,1.2337617e-07,1.510195e-07,1.02260046e-07,1.0874275e-08,7.9784375e-09,1.937266e-08,4.4844182e-06,4.004799e-06,4.2523798e-06,2,3,2,100
604605220,604577158,-0.00014070413,0.00040030808,-0.100087486,0.99933463,-0.023832615,-0.027610421,-0.00016553307,-0.0001233081,0.0036409681,0.0016923696,-0.032449707,0.0037143477,0.004133751,1.2324656e-07,1.5092772e-07,1.0222727e-07,1.1102128e-08,7.891228e-09,1.932088e-08,4.499728e-06,3.98711e-06,4.250891e-06,2,3,2,100
604638447,604606904,-0.0001390989,0.00040093137,-0.100087225,0.99933445,-0.023802703,-0.027642263,-0.00019841146,0.00026916154,0.00066716096,0.00091313664,0.0008287926,-0.007869506,-0.007571788,1.2306324e-07,1.5082472e-07,1.0218196e-07,1.1129833e-08,7.781399e-09,1.9030129e-08,4.472557e-06,3.968856e-06,4.2462493e-06,2,3,2,100
604669806,604646518,-0.0001459149,0.00041601612,-0.10007617,0.9993334,-0.023884984,-0.027610011,-0.0001602237,-0.00013276296,0.0048494902,0.0019596051,-0.045653723,0.0049150577,0.03275456,1.2290089e-07,1.5069483e-07,1.0211444e-07,1.107661e-08,7.821541e-09,1.899936e-08,4.473629e-06,3.9723473e-06,4.2426555e-06,2,3,2,100
604702521,604676297,-0.00014299218,0.00039518974,-0.10008917,0.9993341,-0.023816567,-0.027643796,-0.00021312895,-0.00038187922,0.0021382167,0.0012404978,-0.016222304,0.006507279,0.014790598,1.2279028e-07,1.5061484e-07,1.0210095e-07,1.1052016e-08,7.863798e-09,1.9136284e-08,4.503597e-06,3.9933843e-06,4.253248e-06,2,3,2,100
604732793,604706064,-0.0001371433,0.00038851768,-0.10009833,0.99933326,-0.023807287,-0.027681649,-0.00021616966,-0.00010096263,-0.0005127497,0.00015202211,0.006822177,-0.0033456592,-0.009832945,1.2267063e-07,1.5051627e-07,1.0207442e-07,1.0922646e-08,7.849048e-09,1.9168604e-08,4.466025e-06,3.9831257e-06,4.260568e-06,2,3,2,100
604774920,604742587,-0.00014035012,0.0003900636,-0.10008882,0.99933463,-0.02378121,-0.027653828,-0.00019454859,-0.0004690687,0.0010506343,0.0015549811,0.002808108,0.0055731423,0.015728915,1.2253635e-07,1.5040538e-07,1.02032494e-07,1.10310125e-08,7.94957e-09,1.9070171e-08,4.4729486e-06,3.9913452e-06,4.243845e-06,2,3,2,100
604808094,604772274,-0.00012503116,0.00039222254,-0.10009235,0.99933326,-0.023800489,-0.027687345,-0.00019477116,-9.530465e-05,-0.0015617127,0.0003856383,0.016537152,-0.0009513904,-0.008231905,1.2242232e-07,1.5034769e-07,1.0203969e-07,1.10922835e-08,7.934143e-09,1.915351e-08,4.5021293e-06,4.004763e-06,4.2511674e-06,2,3,2,100
604842396,604811897,-0.0001370741,0.00041085767,-0.100077674,0.9993351,-0.023803238,-0.02761736,-0.00014454548,-0.0005793667,0.0037884708,0.0022702462,-0.031138673,0.01343044,0.028233007,1.2230744e-07,1.5027017e-07,1.0199014e-07,1.1163236e-08,7.820114e-09,1.9098232e-08,4.4847466e-06,3.9751794e-06,4.254565e-06,2,3,2,100
604874877,604841647,-0.00012216248,0.00040092907,-0.10008147,0.9993341,-0.023804666,-0.027654432,-0.00017362031,-0.00063570414,0.0014168831,0.0013771866,-0.009565667,0.011962971,0.01492619,1.2227494e-07,1.501963e-07,1.02018376e-07,1.1181122e-08,7.9441635e-09,1.938596e-08,4.4959434e-06,4.014471e-06,4.260922e-06,2,3,2,100
604900070,604871345,-0.00012501267,0.00039013344,-0.10008094,0.99933577,-0.023767201,-0.027624752,-0.00017833045,7.423312e-07,-0.0022195175,0.0004822357,0.027850242,0.0006444312,-0.008227996,1.2221895e-07,1.500953e-07,1.02000165e-07,1.1279969e-08,7.973273e-09,1.9389537e-08,4.4945236e-06,4.0161253e-06,4.2585784e-06,2,3,2,100
604939188,604910982,-0.0001250796,0.00040478894,-0.10007363,0.9993331,-0.023863511,-0.027638767,-0.00015365896,-0.000443133,0.0029785726,0.0019870342,-0.028069591,0.010634644,0.018781021,1.221874e-07,1.50101e-07,1.0199007e-07,1.1323717e-08,7.991885e-09,1.957292e-08,4.4929866e-06,4.012868e-06,4.259692e-06,2,3,2,100
604968353,604940697,-0.00012542888,0.00038542465,-0.10008408,0.9993357,-0.023769416,-0.027625313,-0.00018449628,-0.00015084162,0.0010942221,0.001134575,-0.0017063193,0.0005155414,0.0024132896,1.2209843e-07,1.499931e-07,1.0193905e-07,1.123004e-08,7.927497e-09,1.9578396e-08,4.470065e-06,3.9958695e-06,4.254896e-06,2,3,2,100
605005810,604980290,-0.00012843068,0.0004109879,-0.100076616,0.9993329,-0.02391233,-0.027603466,-0.00013825334,-0.0004939056,0.003932724,0.002363952,-0.03659101,0.013297784,0.023837723,1.2203145e-07,1.4996704e-07,1.0190422e-07,1.1311345e-08,7.817812e-09,1.946017e-08,4.5127185e-06,3.9778706e-06,4.2581173e-06,2,3,2,100
605036298,605010075,-0.00012762463,0.00039555854,-0.100081295,0.99933475,-0.023793533,-0.027639052,-0.00017478626,-0.00049725786,0.0030008273,0.0019789308,-0.025934225,0.009169857,0.01212477,1.2193593e-07,1.4988017e-07,1.0190165e-07,1.1162045e-08,7.8596e-09,1.9327446e-08,4.4556186e-06,3.991479e-06,4.2477386e-06,2,3,2,100
605068819,605039766,-0.0001358665,0.00040694294,-0.10007805,0.9993348,-0.023844264,-0.027592352,-0.00017502524,-0.00076180353,-0.0001618489,0.0010858213,0.008286558,0.010495606,-0.0042399713,1.2186091e-07,1.4985831e-07,1.0186962e-07,1.1228731e-08,7.80636e-09,1.9389784e-08,4.5090455e-06,3.969244e-06,4.2654387e-06,2,3,2,100
605107504,605079515,-0.00012331376,0.0004049874,-0.1000672,0.99933493,-0.0238298,-0.02760221,-0.00014100509,5.6279572e-05,0.0041281027,0.002448284,-0.033137497,0.0007865314,0.024504017,1.2187263e-07,1.498341e-07,1.018614e-07,1.1038344e-08,7.865038e-09,1.9494031e-08,4.4732706e-06,3.9942875e-06,4.2511188e-06,2,3,2,100
605138096,605109220,-0.00013108317,0.00040702612,-0.10007035,0.99933505,-0.02385788,-0.027572753,-0.00016963125,-0.00061660603,0.0014774428,0.0018522335,-0.011290468,0.016887123,0.01146435,1.218226e-07,1.4978275e-07,1.0186921e-07,1.12899174e-08,7.898696e-09,1.9490107e-08,4.5094307e-06,3.9839997e-06,4.2448937e-06,2,3,2,100
605170101,605138918,-0.00012626321,0.00039094946,-0.10007388,0.99933606,-0.023781942,-0.027600884,-0.00017363846,0.00019677327,-0.00038461373,0.0007339373,0.003625667,-0.0050753104,-0.008902042,1.2178536e-07,1.4975406e-07,1.0184841e-07,1.1207208e-08,7.859056e-09,1.951454e-08,4.4932776e-06,3.992688e-06,4.25472e-06,2,3,2,100
605211251,605178513,-0.00012588728,0.00040668674,-0.1000726,0.9993349,-0.023878759,-0.02756202,-0.0001388463,-6.358591e-05,0.002593906,0.0016623146,-0.017564362,0.0034466423,0.02384365,1.2174826e-07,1.497129e-07,1.0185905e-07,1.122801e-08,7.793861e-09,1.9492825e-08,4.5015922e-06,3.9698693e-06,4.2527327e-06,2,3,2,100
605236834,605208250,-0.00012467882,0.00039832067,-0.100077264,0.9993349,-0.02382434,-0.027609432,-0.00016975275,0.00018263819,0.0024399885,0.0011210288,-0.021680119,-0.0066684196,0.009063339,1.2166892e-07,1.496063e-07,1.01890436e-07,1.13042695e-08,7.95057e-09,1.9351583e-08,4.4917997e-06,4.0122873e-06,4.258786e-06,2,3,2,100
605268980,605237973,-0.00013390416,0.00039545368,-0.10008114,0.9993343,-0.02385657,-0.027602367,-0.00017231755,-0.0006522916,-0.0013967829,4.918095e-05,0.017736515,0.0073004374,-0.0068997736,1.2158071e-07,1.4956116e-07,1.0190624e-07,1.1179529e-08,7.926052e-09,1.9254012e-08,4.485646e-06,4.0075824e-06,4.258081e-06,2,3,2,100
605334907,605297490,-0.0001421168,0.00041819212,-0.100041986,0.9993343,-0.023942342,-0.027526705,-0.00011087458,0.0011088109,-0.0038741294,0.0011469618,0.0487529,-0.023314726,-0.027660625,1.2151207e-07,1.4953184e-07,1.0187105e-07,1.1024348e-08,7.842341e-09,1.9158643e-08,4.4831368e-06,3.985182e-06,4.25086e-06,2,3,2,100
605341321,605307411,-0.00014117607,0.00039842448,-0.100074634,0.99933666,-0.02383315,-0.027536985,-0.00015639706,-0.001278298,0.001366894,0.001399046,-0.005833647,0.017818123,0.011066683,1.2142122e-07,1.494686e-07,1.0187288e-07,1.1005862e-08,7.917675e-09,1.9104963e-08,4.4923627e-06,4.016662e-06,4.262169e-06,2,3,2,100
605378866,605347034,-0.00015027578,0.00042786257,-0.10005886,0.99933416,-0.02401012,-0.027473446,-5.517371e-05,-0.00059217884,0.0030144237,0.0018813999,-0.039395466,0.014895035,0.03289023,1.2142725e-07,1.4946419e-07,1.0186743e-07,1.098731e-08,7.962158e-09,1.9204423e-08,4.4994863e-06,4.015661e-06,4.263073e-06,2,3,2,100
605413515,605376771,-0.00015533675,0.00041020033,-0.10007088,0.99933904,-0.023885928,-0.027403517,-2.4486957e-05,-0.0023303155,0.0011509447,0.0011095011,-0.017962819,0.033259347,0.035560593,1.2149789e-07,1.4944222e-07,1.0184858e-07,1.1032409e-08,7.897561e-09,1.9203465e-08,4.514975e-06,3.983186e-06,4.2698994e-06,2,3,2,100
605430449,605406511,-0.00017370477,0.0004123326,-0.10007817,0.99933934,-0.023971403,-0.027318263,-8.483965e-05,0.0035061084,0.0022096385,0.001157202,-0.042999543,-0.0062654656,0.033553634,1.2142777e-07,1.4939633e-07,1.0181938e-07,1.0861894e-08,7.936207e-09,1.8842734e-08,4.5099973e-06,4.0064847e-06,4.2795464e-06,2,3,2,100
605473040,605446220,-0.0002050997,0.0003985368,-0.10005569,0.9993424,-0.023958148,-0.02721976,1.381191e-05,-0.0005421401,0.00083830627,0.0047333497,-0.025744293,0.05228804,-0.027283583,1.2130748e-07,1.4930998e-07,1.0178198e-07,1.0678098e-08,7.972105e-09,1.8647917e-08,4.498854e-06,4.0118603e-06,4.275678e-06,2,3,2,100
605512831,605485955,-0.00021190298,0.00041859635,-0.100133896,0.9993491,-0.024068145,-0.02687315,-9.043426e-05,0.0008618775,0.0032251577,-0.0015332096,0.0055976463,0.008899831,0.021587817,1.2141206e-07,1.4940548e-07,1.0166926e-07,1.0463408e-08,7.730918e-09,1.8289175e-08,4.5396073e-06,3.9916763e-06,4.279955e-06,2,3,2,100
605532900,605505835,-0.00030022327,0.00044314106,-0.10020272,0.99935544,-0.024193587,-0.026521971,-4.080781e-05,-0.0014615987,0.00706633,-0.0014613227,-0.03343053,0.059622157,0.07496214,1.2131989e-07,1.4910962e-07,1.0181188e-07,1.0241987e-08,7.886396e-09,1.6455262e-08,4.485949e-06,4.0360924e-06,4.3704968e-06,2,3,2,100
605576098,605545615,-0.00051211147,0.00038250638,-0.10026628,0.999362,-0.02428568,-0.026186908,-0.00013031253,-0.0036729123,-0.010379933,-0.005647074,0.049836744,-0.11249916,-0.08516281,1.2115542e-07,1.486779e-07,1.02127345e-07,9.808597e-09,7.776781e-09,1.5081408e-08,4.5217885e-06,4.026847e-06,4.4907847e-06,2,3,2,100
605615759,605585413,-0.0006308495,9.486157e-05,-0.10040815,0.9993931,-0.024475174,-0.024773754,-0.0008160717,-0.005151189,-0.0011978612,-0.0017629171,-0.051803473,0.16137713,-0.08274547,1.2187023e-07,1.486881e-07,1.0257083e-07,9.570817e-09,8.348596e-09,1.4706573e-08,4.6870955e-06,4.314104e-06,4.5343922e-06,2,3,2,100
605631792,605605328,-0.00064937444,0.00012213457,-0.10067311,0.9994085,-0.0250924,-0.02348658,-0.0012199274,-0.0055038123,0.0016199299,-0.012959623,0.08090811,0.025991399,-0.022164987,1.2605133e-07,1.4984931e-07,1.0469295e-07,9.878928e-09,9.867067e-09,1.665448e-08,4.6963414e-06,4.4604667e-06,5.010486e-06,2,3,2,100
605675012,605645139,-0.0010719782,0.00041291345,-0.101180024,0.99949425,-0.024475995,-0.020241726,-0.0015489582,-0.0138608,0.008773281,-0.01860536,0.12768696,0.15044978,-0.009348619,1.3621863e-07,1.519725e-07,1.1059516e-07,9.603627e-09,9.823307e-09,2.8561942e-08,4.3996797e-06,4.11743e-06,6.546933e-06,2,3,2,100
605702128,605675035,-0.0018674104,0.0007919002,-0.101769134,0.9995648,-0.024037862,-0.017027333,-0.0015444888,-0.030219497,0.012385431,-0.024540817,-0.092165664,0.19664069,0.028825156,1.694341e-07,1.6104212e-07,1.2785439e-07,1.1398814e-08,9.803693e-09,4.9505914e-08,4.52812e-06,4.4555186e-06,7.9119945e-06,2,3,2,100
605738353,605704945,-0.0026041814,0.001380074,-0.10305,0.99954,-0.02728939,-0.013137037,-0.0016148187,-0.036149815,0.024435714,-0.05963369,-0.20434104,0.2640183,0.04508726,2.1579754e-07,1.7737959e-07,1.5124913e-07,2.1441373e-08,1.4885441e-08,7.609981e-08,6.0210677e-06,5.536744e-06,8.968601e-06,2,3,2,100
605778808,605744790,-0.0046299603,0.0022237264,-0.10744713,0.99954623,-0.026290974,-0.014649001,-0.0012641486,-0.05917664,0.03591559,-0.15805264,0.051231414,-0.0958109,-0.028693436,2.2047604e-07,1.818125e-07,1.5379416e-07,2.7486657e-08,2.430658e-08,1.1248839e-07,6.613039e-06,7.0156166e-06,1.1621973e-05,2,3,2,100
605805507,605775689,-0.006236608,0.0030112737,-0.11328804,0.99959743,-0.023248317,-0.016178833,-0.0016629726,-0.07101095,0.043194834,-0.2443081,0.3673415,-0.11193578,-0.061036654,1.8973894e-07,1.7362792e-07,1.3690045e-07,3.615147e-08,3.1830602e-08,1.5538988e-07,7.3259444e-06,7.5936805e-06,1.4591712e-05,2,3,2,100
605848952,605815284,-0.008889208,0.004082647,-0.12494635,0.99968195,-0.01692595,-0.01864224,-0.0014367473,-0.08635688,0.047824223,-0.35038316,0.32433537,-0.029013034,0.04435132,1.7123679e-07,1.80109e-07,1.3769734e-07,4.3116934e-08,4.5742368e-08,2.0677614e-07,8.01635e-06,8.947925e-06,1.7985596e-05,2,3,2,100
605876133,605844937,-0.011513813,0.0050855265,-0.13645543,0.99971575,-0.013018913,-0.019945383,-0.0010421316,-0.10314773,0.05742772,-0.41757503,0.10964065,-0.08350029,0.07495124,1.73814e-07,2.0154235e-07,1.566345e-07,5.8035987e-08,7.0196926e-08,2.9178815e-07,8.804434e-06,1.0365371e-05,2.1580514e-05,2,3,2,100
605904799,605874579,-0.014537607,0.006447085,-0.1493139,0.9996735,-0.011275127,-0.022917327,-0.00074179313,-0.12412965,0.06697103,-0.4581365,-0.081565835,-0.21456867,0.029192975,1.6274798e-07,2.0648335e-07,1.5773236e-07,8.693855e-08,1.0538689e-07,4.2509197e-07,9.791242e-06,1.12015805e-05,2.5238374e-05,2,3,2,100
605939687,605914116,-0.018348757,0.009005969,-0.16912962,0.99949455,-0.012895618,-0.029056003,-0.00018506855,-0.132577,0.0859049,-0.50029874,-0.12847911,-0.2531915,0.045644734,1.4332363e-07,1.8776718e-07,1.3727532e-07,1.33523e-07,1.5179977e-07,6.14667e-07,1.0380565e-05,1.1230959e-05,2.8460418e-05,2,3,2,100
605982122,605943763,-0.021092346,0.011409758,-0.1840075,0.99935836,-0.01586875,-0.03211068,0.00016301133,-0.14029816,0.102418415,-0.5249229,-0.4427087,-0.0272949,0.03018941,1.4400356e-07,1.7523068e-07,1.28882e-07,1.923241e-07,2.2195462e-07,8.692514e-07,1.102524e-05,1.2455853e-05,3.16983e-05,2,3,2,100
606004810,605970645,-0.024959255,0.013493522,-0.19923839,0.9992353,-0.023283204,-0.03140253,0.0008394632,-0.14774601,0.11629981,-0.52627486,-0.3383407,-0.09698273,0.10098131,1.542803e-07,1.7694875e-07,1.3170488e-07,2.7804015e-07,3.3012896e-07,1.2092335e-06,1.2505623e-05,1.4442786e-05,3.447262e-05,2,3,2,85
606041805,606010233,-0.02992554,0.01709922,-0.2203108,0.9990078,-0.02975452,-0.033087056,0.0018103241,-0.1625184,0.1314968,-0.5371448,-0.42635456,-0.13997939,0.018128207,1.782447e-07,2.0103019e-07,1.5811827e-07,3.785406e-07,4.499217e-07,1.5577083e-06,1.2986444e-05,1.4732932e-05,3.603723e-05,2,3,2,68
606072800,606039885,-0.03355011,0.019865658,-0.23732398,0.9988185,-0.034156032,-0.034464363,0.0026712683,-0.16069998,0.13385561,-0.54085624,-0.33748683,-0.067508325,0.11581943,2.1605142e-07,2.4332428e-07,2.0003922e-07,5.0786804e-07,6.0564804e-07,2.0477107e-06,1.4153248e-05,1.6012613e-05,3.840177e-05,2,3,2,56
606110893,606079517,-0.038070615,0.02356438,-0.25997993,0.9986797,-0.03674447,-0.03571633,0.0036184764,-0.1625445,0.13890475,-0.563003,-0.01886116,-0.047201086,-0.016142188,2.4740154e-07,2.7953004e-07,2.3084712e-07,6.5542935e-07,7.860209e-07,2.6338369e-06,1.4823785e-05,1.683322e-05,4.0847244e-05,2,3,2,55
606150218,606109176,-0.042086348,0.025954563,-0.27752787,0.99867713,-0.03772145,-0.034726113,0.003896983,-0.16519557,0.13205431,-0.58486557,-0.075451106,-0.01527741,0.0569192,2.5141836e-07,2.8537124e-07,2.3115797e-07,8.173138e-07,9.875982e-07,3.2284124e-06,1.4604957e-05,1.6987968e-05,4.3018747e-05,2,3,2,49
606166804,606138856,-0.045284312,0.028554467,-0.29583052,0.99868065,-0.037386112,-0.034912158,0.0045152856,-0.16429678,0.13049275,-0.6251007,-0.034544475,0.038930804,-0.00952824,2.5342513e-07,2.9047956e-07,2.2953762e-07,1.0066021e-06,1.22754e-06,3.9989714e-06,1.6652986e-05,1.9338971e-05,4.7106303e-05,2,3,2,45
606210548,606178517,-0.04955124,0.03176686,-0.32194814,0.99859506,-0.039489448,-0.034895357,0.005554166,-0.15860039,0.12692925,-0.6651839,-0.23263708,-0.044565413,0.09407551,2.6549915e-07,3.1306948e-07,2.43078e-07,1.2208858e-06,1.5064938e-06,4.8886495e-06,1.7448838e-05,2.062083e-05,5.077919e-05,2,3,2,41
606238252,606208200,-0.052488863,0.03392166,-0.34227726,0.9983927,-0.043183763,-0.036175046,0.0062116715,-0.15789887,0.12920901,-0.67569816,-0.221612,-0.10424313,0.03718704,3.0652063e-07,3.7137463e-07,2.9173938e-07,1.4614268e-06,1.8202225e-06,5.8982823e-06,1.811714e-05,2.1448523e-05,5.4095784e-05,2,3,2,45
606281804,606247809,-0.05764149,0.03563582,-0.3704119,0.998022,-0.049892824,-0.0374967,0.007532787,-0.1632868,0.12578897,-0.69138,-0.14943443,-0.12765944,0.075188115,3.7516136e-07,4.5794954e-07,3.5505548e-07,1.7115307e-06,2.1665762e-06,6.8539644e-06,1.75722e-05,2.1614234e-05,5.605814e-05,2,3,2,43
606304863,606277462,-0.06106108,0.036863465,-0.39137474,0.99787843,-0.052510872,-0.03745198,0.00886373,-0.16513337,0.11956311,-0.6841831,0.02548866,0.05636574,0.06630354,4.278025e-07,5.29269e-07,3.9707356e-07,2.0123919e-06,2.5610052e-06,8.083851e-06,1.9661407e-05,2.342999e-05,5.8917263e-05,2,3,2,38
606337067,606307172,-0.06527547,0.03750946,-0.41234162,0.99785453,-0.05358795,-0.036191918,0.010240707,-0.1658234,0.10541423,-0.672815,-0.046872903,0.069125704,0.10686252,4.4747216e-07,5.6460874e-07,4.0431874e-07,2.3573525e-06,3.003848e-06,9.447704e-06,2.1772652e-05,2.5071378e-05,6.1885235e-05,2,3,2,34
