timestamp,timestamp_sample,lat,lon,alt,alt_ellipsoid,delta_alt,eph,epv,terrain_alt,lat_lon_reset_counter,alt_reset_counter,terrain_alt_valid,dead_reckoning
603055237,603054198,59.39481951217148,24.66013339412876,29.427904,45.079494,-0.004325486,0.9858715,1.2532564,,2,2,0,0
603066091,603064079,59.39481951528532,24.66013338574605,29.42778,45.07993,-0.004325486,0.9839167,1.2521596,,2,2,0,0
603075292,603073961,59.394819518182274,24.660133377588927,29.42772,45.07987,-0.004325486,0.98407716,1.2522748,,2,2,0,0
603084836,603083843,59.39481952103029,24.660133369659484,29.427727,45.079876,-0.004325486,0.9842391,1.2523906,,2,2,0,0
603095529,603093724,59.39481952407599,24.66013336181743,29.427773,45.07992,-0.004325486,0.9844026,1.2525073,,2,2,0,0
603105498,603103605,59.39481952682754,24.66013335422701,29.4277,45.07985,-0.004325486,0.98456764,1.2524835,,2,2,0,0
603115250,603113487,59.39481952938009,24.660133346835583,29.427696,45.079845,-0.004325486,0.9847343,1.2526009,,2,2,0,0
603125107,603123368,59.39481953200104,24.660133339884787,29.42774,45.079887,-0.004325486,0.98490244,1.2527192,,2,2,0,0
603135040,603133250,59.39481953463646,24.66013333314825,29.427843,45.079994,-0.004325486,0.9850722,1.252838,,2,2,0,0
603145040,603143142,59.394819537064514,24.66013332677785,29.428007,45.080154,-0.004325486,0.98524356,1.2529577,,2,2,0,0
603155098,603153013,59.39481953951789,24.660133320651447,29.428219,45.080368,-0.004325486,0.98541653,1.2530781,,2,2,0,0
603164732,603162894,59.394819541996725,24.66013331447161,29.428488,45.080635,-0.004325486,0.9855912,1.2531993,,2,2,0,0
603174948,603172776,59.39481954429935,24.660133308562106,29.42859,45.08074,-0.004325486,0.9857674,1.2531726,,2,2,0,0
603183585,603182657,59.39481954632612,24.66013330281395,29.428743,45.080894,-0.004325486,0.9859453,1.2532946,,2,2,0,0
603193459,603192539,59.3948195486085,24.660133297484315,29.428944,45.081093,-0.004325486,0.9861249,1.2534174,,2,2,0,0
603203372,603202420,59.39481955084163,24.660133291946995,29.42921,45.08136,-0.004325486,0.9863061,1.2535409,,2,2,0,0
603215230,603212301,59.39481955025038,24.660133278859533,29.429268,45.083904,-0.004325486,0.9842802,1.2524173,,2,2,0,0
603223186,603222187,59.39481954965264,24.66013326636984,29.42938,45.084015,-0.004325486,0.9844441,1.2525342,,2,2,0,0
603233281,603232064,59.39481954912337,24.660133254316293,29.429537,45.08417,-0.004325486,0.9846094,1.2526516,,2,2,0,0
603243272,603241946,59.394819548466046,24.66013324239199,29.429527,45.084164,-0.004325486,0.9847763,1.2526271,,2,2,0,0
603252817,603251828,59.39481954790909,24.660133230727748,29.429577,45.084213,-0.004325486,0.9849448,1.2527454,,2,2,0,0
603262685,603261709,59.39481954742251,24.66013321958309,29.429693,45.084328,-0.004325486,0.9851149,1.2528645,,2,2,0,0
603272647,603271590,59.3948195467936,24.660133208630597,29.429863,45.0845,-0.004325486,0.9852866,1.2529843,,2,2,0,0
603282414,603281472,59.39481954623526,24.660133197855764,29.430082,45.084717,-0.004325486,0.9854599,1.2531049,,2,2,0,0
603292507,603291354,59.39481954572488,24.66013318748971,29.430357,45.08499,-0.004325486,0.9856348,1.2532262,,2,2,0,0
603302421,603301235,59.39481954497959,24.66013317766931,29.430452,45.085087,-0.004325486,0.9858114,1.2531993,,2,2,0,0
603312957,603311117,59.39481954630213,24.66013316799052,29.430374,45.086945,-0.004325486,0.98386306,1.2521079,,2,2,0,0
603321969,603320998,59.3948195478587,24.660133158316995,29.43035,45.08692,-0.004325486,0.984023,1.2522227,,2,2,0,0
603331840,603330879,59.394819549247856,24.660133149035136,29.430393,45.086964,-0.004325486,0.98418444,1.2523382,,2,2,0,0
603341877,603340777,59.394819550344245,24.66013314025787,29.4305,45.08707,-0.004325486,0.9843474,1.2524545,,2,2,0,0
603351869,603350643,59.39481955151288,24.660133131530085,29.430649,45.08722,-0.004325486,0.9845119,1.2525715,,2,2,0,0
603361505,603360524,59.39481955286724,24.66013312296049,29.430851,45.08742,-0.004325486,0.984678,1.2526892,,2,2,0,0
603371476,603370405,59.3948195539485,24.66013311494156,29.430895,45.087467,-0.004325486,0.98484564,1.2526647,,2,2,0,0
603381251,603380286,59.39481955487624,24.660133107206896,29.430992,45.087563,-0.004325486,0.98501486,1.2527833,,2,2,0,0
603391213,603390168,59.39481955614278,24.660133099399324,29.431133,45.087704,-0.004325486,0.98518574,1.2529026,,2,2,0,0
603400994,603400049,59.394819557348654,24.660133091982104,29.431341,45.087914,-0.004325486,0.9853582,1.2530227,,2,2,0,0
603410947,603409932,59.39481955810326,24.660133085021304,29.431618,45.08819,-0.004325486,0.9855322,1.2531434,,2,2,0,0
603420792,603419813,59.39481955900045,24.66013307816921,29.431932,45.088505,-0.004325486,0.98570794,1.253265,,2,2,0,0
603430766,603429694,59.39481956012781,24.660133071307907,29.432032,45.088604,-0.004325486,0.98588526,1.253238,,2,2,0,0
603441721,603439575,59.39481955756086,24.66013305974,29.431887,45.09089,-0.004325486,0.98392487,1.2521428,,2,2,0,0
603450485,603449457,59.394819554903656,24.660133048611403,29.431808,45.09081,-0.004325486,0.98408544,1.2522578,,2,2,0,0
603460410,603459338,59.39481955259025,24.660133037707077,29.431784,45.090782,-0.004325486,0.9842475,1.2523737,,2,2,0,0
603470399,603469220,59.394819550295466,24.66013302729943,29.431818,45.09082,-0.004325486,0.9844112,1.2524902,,2,2,0,0
603480085,603479107,59.39481954766005,24.660133017202387,29.43191,45.09091,-0.004325486,0.98457634,1.2526075,,2,2,0,0
603490066,603488996,59.3948195452657,24.660133007320397,29.432053,45.091053,-0.004325486,0.98474306,1.2527254,,2,2,0,0
603500193,603498864,59.394819543101775,24.660132997606063,29.432087,45.091087,-0.004325486,0.98491144,1.2527007,,2,2,0,0
603510070,603508746,59.39481954076928,24.660132988281568,29.432184,45.091187,-0.004325486,0.9850813,1.2528194,,2,2,0,0
603519794,603518627,59.39481953838479,24.66013297922634,29.432335,45.091335,-0.004325486,0.98525286,1.252939,,2,2,0,0
603529721,603528509,59.39481953624728,24.66013297036274,29.432533,45.091534,-0.004325486,0.985426,1.2530594,,2,2,0,0
603539659,603538390,59.3948195339996,24.660132961917125,29.432787,45.09179,-0.004325486,0.98560077,1.2531804,,2,2,0,0
603549580,603548271,59.39481953162858,24.66013295372525,29.433092,45.092094,-0.004325486,0.98577714,1.2533022,,2,2,0,0
603559123,603558153,59.39481952950728,24.660132945702365,29.433447,45.092445,-0.004325486,0.9859552,1.2534248,,2,2,0,0
603570166,603568035,59.39481953080481,24.660132936805333,29.433445,45.09491,-0.004325486,0.98398364,1.2521757,,2,2,0,0
603578810,603577916,59.39481953179823,24.66013292828786,29.433496,45.09496,-0.004325486,0.98414475,1.252291,,2,2,0,0
603588847,603587803,59.39481953280504,24.66013291995122,29.433596,45.09506,-0.004325486,0.98430747,1.252407,,2,2,0,0
603598757,603597679,59.39481953393836,24.660132911871216,29.433746,45.095207,-0.004325486,0.9844717,1.2525238,,2,2,0,0
603608687,603607561,59.39481953478651,24.660132904221047,29.433958,45.09542,-0.004325486,0.98463744,1.2526412,,2,2,0,0
603618464,603617443,59.3948195355257,24.66013289676013,29.434216,45.09568,-0.004325486,0.9848048,1.2527595,,2,2,0,0
603628445,603627323,59.394819536526335,24.660132889388716,29.434309,45.09577,-0.004325486,0.9849737,1.2527345,,2,2,0,0
603638537,603637205,59.39481953749208,24.660132882337628,29.434458,45.09592,-0.004325486,0.98514426,1.2528535,,2,2,0,0
603648293,603647086,59.394819538083205,24.660132875662946,29.434666,45.09613,-0.004325486,0.9853164,1.2529733,,2,2,0,0
603657877,603656968,59.39481953890862,24.66013286918778,29.43491,45.096375,-0.004325486,0.98549014,1.2530938,,2,2,0,0
603668635,603666850,59.39481953983108,24.66013286294373,29.435202,45.096664,-0.004325486,0.98566556,1.2532152,,2,2,0,0
603677856,603676731,59.394819540333565,24.66013285698236,29.435547,45.097008,-0.004325486,0.98584265,1.2533371,,2,2,0,0
603688446,603686612,59.39481953864632,24.66013284935404,29.435629,45.09952,-0.004325486,0.9838882,1.2522341,,2,2,0,0
603697576,603696494,59.394819537342,24.66013284179652,29.435553,45.099445,-0.004325486,0.98404855,1.2522113,,2,2,0,0
603707433,603706375,59.39481953573388,24.66013283466621,29.435541,45.099434,-0.004325486,0.9842104,1.2523268,,2,2,0,0
603717233,603716257,59.39481953401594,24.66013282781912,29.435585,45.09948,-0.004325486,0.9843737,1.2524431,,2,2,0,0
603727210,603726138,59.39481953265026,24.660132821042836,29.43567,45.099564,-0.004325486,0.9845386,1.25256,,2,2,0,0
603737148,603736020,59.39481953123056,24.660132814748764,29.435814,45.09971,-0.004325486,0.9847051,1.2526778,,2,2,0,0
603746921,603745901,59.39481952956101,24.660132808659217,29.436016,45.099907,-0.004325486,0.9848732,1.2527962,,2,2,0,0
603756760,603755782,59.394819528182445,24.660132802648896,29.436035,45.09993,-0.004325486,0.9850428,1.2527711,,2,2,0,0
603766569,603765664,59.39481952694495,24.660132796966543,29.436113,45.100006,-0.004325486,0.98521405,1.2528905,,2,2,0,0
603776534,603775546,59.39481952534381,24.660132791545568,29.436253,45.100143,-0.004325486,0.9853869,1.2530105,,2,2,0,0
603786411,603785427,59.39481952386883,24.660132786225144,29.43644,45.100334,-0.004325486,0.9855614,1.2531313,,2,2,0,0
603796443,603795309,59.3948195226261,24.660132781023165,29.436678,45.10057,-0.004325486,0.9857375,1.2532527,,2,2,0,0
603806357,603805190,59.39481952110067,24.66013277619548,29.436972,45.100864,-0.004325486,0.98591524,1.253375,,2,2,0,0
603817043,603815072,59.394819519963,24.66013276321331,29.43707,45.10369,-0.004325486,0.9839523,1.2522683,,2,2,0,0
603826145,603824953,59.39481951920056,24.66013275049119,29.437033,45.103653,-0.004325486,0.9841132,1.2522453,,2,2,0,0
603836859,603834834,59.39481951830892,24.660132738233653,29.437052,45.103672,-0.004325486,0.9842757,1.252361,,2,2,0,0
603846368,603844716,59.39481951711906,24.66013272638437,29.43713,45.103752,-0.004325486,0.9844397,1.2524776,,2,2,0,0
603856510,603854597,59.39481951622119,24.66013271479593,29.437252,45.103874,-0.004325486,0.98460525,1.2525948,,2,2,0,0
603866658,603864479,59.39481951540796,24.660132703555995,29.43742,45.104042,-0.004325486,0.9847724,1.2527128,,2,2,0,0
603876375,603874360,59.39481951428892,24.66013269281064,29.437647,45.104267,-0.004325486,0.98494107,1.2528315,,2,2,0,0
603886169,603884242,59.394819513259776,24.660132682304035,29.437689,45.10431,-0.004325486,0.98511136,1.2528062,,2,2,0,0
603895873,603894123,59.39481951257527,24.66013267209012,29.43779,45.104412,-0.004325486,0.9852833,1.2529258,,2,2,0,0
603905939,603904005,59.394819511628754,24.66013266220733,29.437954,45.104576,-0.004325486,0.9854568,1.253046,,2,2,0,0
603915624,603913886,59.394819510493214,24.660132652616724,29.438175,45.104797,-0.004325486,0.985632,1.253167,,2,2,0,0
603924742,603923768,59.394819509710416,24.66013264329433,29.438437,45.105057,-0.004325486,0.9858088,1.2532889,,2,2,0,0
603935757,603933649,59.39481950891781,24.660132634190678,29.43876,45.10538,-0.004325486,0.98598725,1.2534114,,2,2,0,0
603946722,603943531,59.3948195082985,24.660132624665867,29.438894,45.108402,-0.004325486,0.98401296,1.2523012,,2,2,0,0
603954404,603953412,59.39481950790872,24.660132615416646,29.438879,45.108387,-0.004325486,0.9841745,1.2522781,,2,2,0,0
603964229,603963293,59.39481950775374,24.660132606341413,29.438923,45.10843,-0.004325486,0.9843375,1.2523941,,2,2,0,0
603974165,603973175,59.3948195071767,24.660132597681937,29.439032,45.10854,-0.004325486,0.9845021,1.2525108,,2,2,0,0
603984106,603983056,59.39481950659182,24.660132589498883,29.439192,45.1087,-0.004325486,0.98466825,1.2526281,,2,2,0,0
603994117,603992938,59.39481950642302,24.66013258143744,29.439404,45.10891,-0.004325486,0.984836,1.2527463,,2,2,0,0
604003821,604002819,59.39481950599017,24.66013257361394,29.439674,45.10918,-0.004325486,0.98500526,1.2528652,,2,2,0,0
604013773,604012701,59.39481950525192,24.660132566300163,29.439999,45.109505,-0.004325486,0.9851762,1.2529849,,2,2,0,0
604023551,604022582,59.39481950490216,24.66013255890216,29.440151,45.109657,-0.004325486,0.9853487,1.2529589,,2,2,0,0
604033830,604032464,59.394819504676285,24.6601325516376,29.440363,45.10987,-0.004325486,0.98552287,1.2530794,,2,2,0,0
