timestamp,timestamp_sample,gyro_device_id,gyro_bias[0],gyro_bias[1],gyro_bias[2],gyro_bias_limit,gyro_bias_variance[0],gyro_bias_variance[1],gyro_bias_variance[2],accel_device_id,accel_bias[0],accel_bias[1],accel_bias[2],accel_bias_limit,accel_bias_variance[0],accel_bias_variance[1],accel_bias_variance[2],mag_device_id,mag_bias[0],mag_bias[1],mag_bias[2],mag_bias_limit,mag_bias_variance[0],mag_bias_variance[1],mag_bias_variance[2],gyro_bias_valid,gyro_bias_stable,accel_bias_valid,accel_bias_stable,mag_bias_valid,mag_bias_stable
603035484,602933007,3670026,-0.008635172,-0.002524877,0.0018492317,0.15,1.9207323e-07,1.9207313e-07,4.1720182e-07,3670026,0.0009738726,0.06209306,-0.34573194,0.4,0.00049919344,0.00049918675,0.00049841776,527625,0.24803257,-0.29404035,-0.49993172,0.5,2.663173e-05,5.6832403e-05,0.00012484267,1,1,1,0,1,0
603064761,602963055,3670026,-0.008640573,-0.0025364747,0.0018490846,0.15,1.9114836e-07,1.9114788e-07,4.1750206e-07,3670026,0.0009652967,0.062094823,-0.34717873,0.4,0.00049919507,0.0004991883,0.0004984172,527625,0.24803257,-0.29404035,-0.49993172,0.5,2.663173e-05,5.6832403e-05,0.00012484267,1,1,1,0,1,0
603214830,603113293,3670026,-0.008634046,-0.0025286633,0.0018452844,0.15,1.9137946e-07,1.9137863e-07,4.1761476e-07,3670026,0.0009712564,0.06209159,-0.3487711,0.4,0.0004992077,0.00049920095,0.000498417,527625,0.24803257,-0.29404035,-0.49993172,0.5,2.663173e-05,5.6832403e-05,0.00012484267,1,1,1,0,1,0
603315429,603213451,3670026,-0.008636785,-0.0025381981,0.0018412302,0.15,1.9115355e-07,1.9115241e-07,4.1722706e-07,3670026,0.00096344476,0.062091727,-0.35036674,0.4,0.0004992165,0.0004992097,0.0004984174,527625,0.24803257,-0.29404035,-0.49993172,0.5,2.663173e-05,5.6832403e-05,0.00012484267,1,1,1,0,1,0
603445359,603343657,3670026,-0.0086262915,-0.0025340368,0.0018393693,0.15,1.9121622e-07,1.9121474e-07,4.1783568e-07,3670026,0.0009676734,0.062085032,-0.3521244,0.4,0.00049922755,0.0004992208,0.0004984174,527625,0.24803257,-0.29404035,-0.49993172,0.5,2.663173e-05,5.6832403e-05,0.00012484267,1,1,1,0,1,0
603565438,603463847,3670026,-0.008633279,-0.0025429635,0.0018366226,0.15,1.9118585e-07,1.9118413e-07,4.1764923e-07,3670026,0.0009597395,0.062088385,-0.3535327,0.4,0.0004992379,0.0004992311,0.0004984175,527625,0.24803257,-0.29404035,-0.49993172,0.5,2.663173e-05,5.6832403e-05,0.00012484267,1,1,1,0,1,0
603695876,603594052,3670026,-0.008624271,-0.0025451004,0.0018320034,0.15,1.9124585e-07,1.9124381e-07,4.1756442e-07,3670026,0.0009593354,0.062082056,-0.3551426,0.4,0.00049924996,0.0004992432,0.0004984184,527625,0.24803257,-0.29404035,-0.49993172,0.5,2.663173e-05,5.6832403e-05,0.00012484267,1,1,1,0,1,0
603815784,603714244,3670026,-0.008627422,-0.002541179,0.0018278793,0.15,1.9121289e-07,1.9121057e-07,4.173776e-07,3670026,0.0009608821,0.0620844,-0.35650188,0.4,0.0004992585,0.0004992517,0.00049841666,527625,0.24803257,-0.29404035,-0.49993172,0.5,2.663173e-05,5.6832403e-05,0.00012484267,1,1,1,0,1,0
603946123,603844449,3670026,-0.008626557,-0.002549124,0.0018222544,0.15,1.9127074e-07,1.9126811e-07,4.1729382e-07,3670026,0.0009559884,0.06208215,-0.3579474,0.4,0.0004992706,0.0004992638,0.0004984175,527625,0.24803257,-0.29404035,-0.49993172,0.5,2.663173e-05,5.6832403e-05,0.00012484267,1,1,1,0,1,0
604066250,603964639,3670026,-0.008638791,-0.0025528073,0.001819944,0.15,1.912345e-07,1.9123155e-07,4.1780348e-07,3670026,0.0009514848,0.062089134,-0.3591775,0.4,0.0004992809,0.0004992741,0.0004984175,527625,0.24803257,-0.29404035,-0.49993172,0.5,2.663173e-05,5.6832403e-05,0.00012484267,1,1,1,0,1,0
604216975,604114876,3670026,-0.008623962,-0.002545861,0.0018148266,0.15,1.9145402e-07,1.9145078e-07,4.179208e-07,3670026,0.0009579398,0.062080707,-0.36073935,0.4,0.00049929426,0.00049928745,0.0004984178,527625,0.24803257,-0.29404035,-0.49993172,0.5,2.663173e-05,5.6832403e-05,0.00012484267,1,1,1,0,1,0
604317078,604215034,3670026,-0.008629585,-0.0025602547,0.0018110272,0.15,1.9121865e-07,1.9121516e-07,4.1753708e-07,3670026,0.00094752194,0.062081784,-0.36211208,0.4,0.00049930305,0.0004992962,0.0004984181,527625,0.24803257,-0.29404035,-0.49993172,0.5,2.663173e-05,5.6832403e-05,0.00012484267,1,1,1,0,1,0
604437379,604335226,3670026,-0.00863716,-0.00255839,0.0018061368,0.15,1.911885e-07,1.9118478e-07,4.1735262e-07,3670026,0.000947164,0.06208661,-0.36344722,0.4,0.00049931137,0.0004993045,0.0004984162,527625,0.24803257,-0.29404035,-0.49993172,0.5,2.663173e-05,5.6832403e-05,0.00012484267,1,1,1,0,1,0
604567402,604465430,3670026,-0.0086248,-0.0025630053,0.0018033634,0.15,1.9124782e-07,1.9124383e-07,4.1796517e-07,3670026,0.00094581564,0.062077474,-0.36496285,0.4,0.00049932435,0.0004993175,0.000498418,527625,0.24803257,-0.29404035,-0.49993172,0.5,2.663173e-05,5.6832403e-05,0.00012484267,1,1,1,0,1,0
604697416,604595636,3670026,-0.008627716,-0.0025636442,0.0017990845,0.15,1.912955e-07,1.9129129e-07,4.178833e-07,3670026,0.00094452046,0.06207911,-0.36611053,0.4,0.00049933523,0.00049932837,0.0004984178,527625,0.24803257,-0.29404035,-0.49993172,0.5,2.663173e-05,5.6832403e-05,0.00012484267,1,1,1,0,1,0
604817275,604715825,3670026,-0.008615901,-0.0025688997,0.0017944876,0.15,1.9125106e-07,1.9124668e-07,4.1770264e-07,3670026,0.0009421472,0.062069606,-0.36768517,0.4,0.0004993463,0.0004993394,0.00049841875,527625,0.24803257,-0.29404035,-0.49993172,0.5,2.663173e-05,5.6832403e-05,0.00012484267,1,1,1,0,1,0
604947598,604846030,3670026,-0.008630757,-0.0025737437,0.0017896255,0.15,1.9129665e-07,1.912921e-07,4.1762266e-07,3670026,0.00093535794,0.062079594,-0.36934412,0.4,0.00049935805,0.00049935124,0.0004984195,527625,0.24803257,-0.29404035,-0.49993172,0.5,2.663173e-05,5.6832403e-05,0.00012484267,1,1,1,0,1,0
605068414,604966222,3670026,-0.008630728,-0.0025730089,0.0017840466,0.15,1.912489e-07,1.9124415e-07,4.174404e-07,3670026,0.00093530625,0.062079035,-0.37099493,0.4,0.000499366,0.00049935916,0.0004984174,527625,0.24803257,-0.29404035,-0.49993172,0.5,2.663173e-05,5.6832403e-05,0.00012484267,1,1,1,0,1,0
605208291,605106441,3670026,-0.008625389,-0.0025814574,0.0017789704,0.15,1.9137707e-07,1.9137218e-07,4.1746324e-07,3670026,0.000929083,0.062073138,-0.37267962,0.4,0.00049938034,0.00049937353,0.00049841986,527625,0.24803257,-0.29404035,-0.49993172,0.5,2.663173e-05,5.6832403e-05,0.00012484267,1,1,1,0,1,0
605308350,605206599,3670026,-0.00862456,-0.002593685,0.0017762462,0.15,1.9114864e-07,1.911436e-07,4.1777483e-07,3670026,0.0009196112,0.062070213,-0.37415916,0.4,0.00049938884,0.00049938203,0.0004984201,527625,0.24803257,-0.29404035,-0.49993172,0.5,2.663173e-05,5.6832403e-05,0.00012484267,1,1,1,0,1,0
605438655,605336804,3670026,-0.008629999,-0.0025902016,0.0017716411,0.15,1.9120992e-07,1.912047e-07,4.176965e-07,3670026,0.0009207936,0.062074497,-0.37600994,0.4,0.0004994006,0.00049939373,0.0004984208,527625,0.24803257,-0.29404035,-0.49993172,0.5,2.663173e-05,5.6832403e-05,0.00012484267,1,1,1,0,1,0
605568559,605467009,3670026,-0.008626143,-0.0025987378,0.0017677121,0.15,1.9126064e-07,1.9125534e-07,4.176186e-07,3670026,0.0009145217,0.062070042,-0.3772919,0.4,0.0004994122,0.0004994054,0.00049842143,527625,0.24803257,-0.29404035,-0.49993172,0.5,2.663173e-05,5.6832403e-05,0.00012484267,1,1,1,0,1,0
605688950,605587198,3670026,-0.008622137,-0.0025960477,0.0017668736,0.15,1.9122098e-07,1.9121548e-07,4.1813192e-07,3670026,0.00091712724,0.062067907,-0.3783864,0.4,0.0004994233,0.0004994165,0.0004984223,527625,0.24803257,-0.29404035,-0.49993172,0.5,2.663173e-05,5.6832403e-05,0.00012484267,1,0,1,0,1,0
605818959,605717404,3670026,-0.008622345,-0.0025990892,0.0017655777,0.15,1.9125642e-07,1.9125112e-07,4.1805325e-07,3670026,0.0009122498,0.062069777,-0.38026074,0.4,0.00049943314,0.00049942627,0.00049842196,527625,0.24803257,-0.29404035,-0.49993172,0.5,2.663173e-05,5.6832403e-05,0.00012484267,1,0,1,0,1,0
605939410,605837594,3670026,-0.008620742,-0.002581576,0.0017656463,0.15,1.9115e-07,1.9114555e-07,4.1786987e-07,3670026,0.0009521146,0.06207389,-0.38265494,0.4,0.00049943547,0.00049942837,0.0004984217,527625,0.24803257,-0.29404035,-0.49993172,0.5,2.663173e-05,5.6832403e-05,0.00012484267,1,0,1,0,1,0
606069870,605967799,3670026,-0.0086300755,-0.0026027744,0.0017585587,0.15,1.9111518e-07,1.911116e-07,4.177816e-07,3670026,0.0008781367,0.06210379,-0.3838267,0.4,0.00049943454,0.0004994271,0.0004984223,527625,0.24803257,-0.29404035,-0.49993172,0.5,2.663173e-05,5.6832403e-05,0.00012484267,1,0,1,0,1,0
606209765,606108019,3670026,-0.008566775,-0.002592663,0.0017570044,0.15,1.9115906e-07,1.9115642e-07,4.1779543e-07,3670026,0.0009163176,0.06190903,-0.3856113,0.4,0.000499435,0.00049942697,0.00049842376,527625,0.24803257,-0.29404035,-0.49993172,0.5,2.663173e-05,5.6832403e-05,0.00012484267,1,0,1,0,1,0
606309940,606208178,3670026,-0.0086065605,-0.0026396737,0.0017572149,0.15,1.9084467e-07,1.9084293e-07,4.1809892e-07,3670026,0.00073490036,0.06204827,-0.387332,0.4,0.0004994274,0.0004994187,0.0004984229,527625,0.24803257,-0.29404035,-0.49993172,0.5,2.663173e-05,5.6832403e-05,0.00012484267,1,0,1,0,1,0
606440415,606338382,3670026,-0.008621922,-0.0026235646,0.0017647423,0.15,1.9083137e-07,1.9083029e-07,4.1802286e-07,3670026,0.0007757687,0.062118147,-0.38914683,0.4,0.00049942604,0.0004994167,0.0004984245,527625,0.24803257,-0.29404035,-0.49993172,0.5,2.663173e-05,5.6832403e-05,0.00012484267,1,0,1,0,1,0
606570086,606468587,3670026,-0.008616885,-0.002623328,0.0017711642,0.15,1.908236e-07,1.9082296e-07,4.1794797e-07,3670026,0.0007730248,0.06211165,-0.39029828,0.4,0.00049942586,0.0004994159,0.00049842487,527625,0.24803257,-0.29404035,-0.49993172,0.5,2.663173e-05,5.6832403e-05,0.00012484267,1,0,1,0,1,0
606690320,606588777,3670026,-0.00863764,-0.0026381772,0.0017735533,0.15,1.9073158e-07,1.9073109e-07,4.1777284e-07,3670026,0.0007062349,0.06217882,-0.3922392,0.4,0.00049942464,0.00049941405,0.0004984244,527625,0.24803257,-0.29404035,-0.49993172,0.5,2.663173e-05,5.6832403e-05,0.00012484267,1,0,1,0,1,0
606940760,606839170,3670026,-0.008642372,-0.0026148185,0.0017799579,0.15,1.9060873e-07,1.9060793e-07,4.1821352e-07,3670026,0.0007830147,0.062229738,-0.39535686,0.4,0.00049941044,0.0004993985,0.000498426,527625,0.24803257,-0.29404035,-0.49993172,0.5,2.663173e-05,5.6832403e-05,0.00012484267,1,0,1,0,1,0
607061104,606959360,3670026,-0.00864024,-0.0026364138,0.0017856451,0.15,1.9048662e-07,1.9048551e-07,4.1803776e-07,3670026,0.000682933,0.062208522,-0.39675,0.4,0.000499395,0.0004993822,0.00049842533,527625,0.24803257,-0.29404035,-0.49993172,0.5,2.663173e-05,5.6832403e-05,0.00012484267,1,0,1,0,1,0
607211128,607109601,3670026,-0.008624905,-0.0026382066,0.0017945333,0.15,1.9062092e-07,1.906192e-07,4.181571e-07,3670026,0.00068094046,0.06215952,-0.39897183,0.4,0.00049937674,0.0004993631,0.0004984208,527625,0.24803257,-0.29404035,-0.49993172,0.5,2.663173e-05,5.6832403e-05,0.00012484267,1,0,1,0,1,0
607311502,607209755,3670026,-0.008640122,-0.0026429456,0.0018028084,0.15,1.9032596e-07,1.9032373e-07,4.1778156e-07,3670026,0.00062923785,0.062233657,-0.40096122,0.4,0.000499367,0.0004993526,0.0004984245,527625,0.24803257,-0.29404035,-0.49993172,0.5,2.663173e-05,5.6832403e-05,0.00012484267,1,0,1,0,1,0
607682002,607580337,3670026,-0.008623872,-0.0026795194,0.0018101565,0.15,1.9069017e-07,1.9068635e-07,4.2078753e-07,3670026,0.0003258442,0.061832763,-0.39919806,0.4,0.00049910345,0.0004990858,0.0004984262,527625,0.24803257,-0.29404035,-0.49993172,0.5,0.0025000002,0.0025000002,0.0025000002,1,0,1,0,1,0
607812052,607710542,3670026,-0.008613674,-0.002671715,0.0018103472,0.15,1.9117753e-07,1.9117331e-07,4.220869e-07,3670026,0.0005969513,0.061834857,-0.4004424,0.4,0.00049872254,0.0004987037,0.0004984262,527625,0.24803257,-0.29404035,-0.49993172,0.5,0.0025000002,0.0025000002,0.0025000002,1,0,1,0,1,0
608072271,607970953,3670026,-0.008624001,-0.0026449277,0.0018083694,0.15,1.924872e-07,1.9248162e-07,4.2468707e-07,3670026,0.00079191884,0.0627137,-0.39999992,0.4,0.0004984266,0.0004984266,0.0004984266,527625,0.24803257,-0.29404035,-0.49993172,0.5,0.0025000002,0.0025000002,0.0025000002,1,0,1,0,1,0
608212850,608111174,3670026,-0.008635336,-0.0026256081,0.0018068043,0.15,1.934531e-07,1.9344618e-07,4.2608937e-07,3670026,0.0007315114,0.06385174,-0.40182313,0.4,0.0004984256,0.0004984256,0.0004984256,527625,0.24803257,-0.29404035,-0.49993172,0.5,0.0025000002,0.0025000002,0.0025000002,1,0,1,0,1,0
608222102,608121191,3670026,-0.008635324,-0.002625605,0.0018068021,0.15,1.9355294e-07,1.9354603e-07,4.2618865e-07,3670026,0.00073151046,0.063851655,-0.39999953,0.4,0.00049842533,0.00049842533,0.00049842533,527625,0.24803257,-0.29404035,-0.49993172,0.5,0.0025000002,0.0025000002,0.0025000002,1,0,1,0,1,0
608312886,608211332,3670026,-0.008601283,-0.0025921548,0.0018067171,0.15,1.9407592e-07,1.9407317e-07,4.270912e-07,3670026,0.0034902985,0.06464074,-0.40016663,0.4,0.00049842533,0.00049842533,0.00049842533,527625,0.24803257,-0.29404035,-0.49993172,0.5,0.0025000002,0.0025000002,0.0025000002,1,0,1,0,1,0
608433305,608331521,3670026,-0.008578707,-0.0025518928,0.0018065586,0.15,1.9501283e-07,1.9503236e-07,4.282952e-07,3670026,0.0061876923,0.06653107,-0.39962637,0.4,0.00049842586,0.00049842586,0.00049842586,527625,0.24803257,-0.29404035,-0.49993172,0.5,0.0025000002,0.0025000002,0.0025000002,1,0,1,0,1,0
608943641,608842326,3670026,-0.008557956,-0.0025091097,0.0018070701,0.15,1.9982234e-07,1.9986389e-07,4.334115e-07,3670026,0.007392138,0.067284316,-0.3999158,0.4,0.00049842615,0.00049842615,0.00049842615,527625,0.24803257,-0.29404035,-0.49993172,0.5,0.0025000002,0.0025000002,0.0025000002,1,0,1,0,1,0
609064218,608962515,3670026,-0.008542241,-0.0024867442,0.001807731,0.15,2.0094396e-07,2.010032e-07,4.3461537e-07,3670026,0.008441358,0.067855366,-0.40015712,0.4,0.00049842626,0.00049842626,0.00049842626,527625,0.24803257,-0.29404035,-0.49993172,0.5,0.0025000002,0.0025000002,0.0025000002,1,0,1,0,1,0
610065831,609964085,3670026,-0.008457692,-0.0024081236,0.0018107785,0.15,2.1073106e-07,2.1089738e-07,4.4465042e-07,3670026,0.008210531,0.06784748,-0.3998846,0.4,0.0004984306,0.0004984306,0.0004984306,527625,0.24803257,-0.29404035,-0.49993172,0.5,0.0025000002,0.0025000002,0.0025000002,1,0,1,0,1,0
610316598,610214476,3670026,-0.008457424,-0.0024074703,0.0018108371,0.15,2.1323785e-07,2.1340345e-07,4.4716015e-07,3670026,0.007884308,0.0679884,-0.3989242,0.4,0.00049843284,0.00049843284,0.00049843284,527625,0.24803257,-0.29404035,-0.49993172,0.5,0.0025000002,0.0025000002,0.0025000002,1,0,1,0,1,0
610566437,610464868,3670026,-0.008457846,-0.002406924,0.0018106956,0.15,2.1574134e-07,2.1590557e-07,4.4966822e-07,3670026,0.0076056635,0.06774874,-0.39761803,0.4,0.0004984338,0.0004984338,0.0004984338,527625,0.24803257,-0.29404035,-0.49993172,0.5,0.0025000002,0.0025000002,0.0025000002,1,0,1,0,1,0
610937618,610835450,3670026,-0.008461292,-0.0024070581,0.0018091104,0.15,2.1942598e-07,2.19582e-07,4.5337322e-07,3670026,0.007565442,0.06675301,-0.39708516,0.4,0.0004984329,0.0004984329,0.0004984329,527625,0.24803257,-0.29404035,-0.49993172,0.5,0.0025000002,0.0025000002,0.0025000002,1,0,1,0,1,0
611447992,611346253,3670026,-0.008461684,-0.0024114668,0.001806706,0.15,2.2445232e-07,2.2458048e-07,4.5842768e-07,3670026,0.00848489,0.066298425,-0.39698043,0.4,0.00049843173,0.00049843173,0.00049843173,527625,0.24803257,-0.29404035,-0.49993172,0.5,0.0025000002,0.0025000002,0.0025000002,1,0,1,0,1,0
612209309,612107444,3670026,-0.008468406,-0.0024153686,0.0018026242,0.15,2.3181839e-07,2.319597e-07,4.659796e-07,3670026,0.009088259,0.06550581,-0.39746884,0.4,0.0004984345,0.0004984345,0.0004984345,527625,0.24803257,-0.29404035,-0.49993172,0.5,0.0025000002,0.0025000002,0.0025000002,1,0,1,0,1,0
612690218,612588197,3670026,-0.008502301,-0.0024075338,0.0017886249,0.15,2.3560139e-07,2.3584947e-07,4.704062e-07,3670026,0.00875732,0.064409524,-0.39793497,0.4,0.0004984348,0.0004984348,0.0004984348,527625,0.24803257,-0.29404035,-0.49993172,0.5,0.0025000002,0.0025000002,0.0025000002,1,0,1,0,1,0
613320707,613219186,3670026,-0.008519181,-0.002392897,0.0017750585,0.15,2.3963528e-07,2.4011754e-07,4.7579397e-07,3670026,0.008083753,0.06402893,-0.39990386,0.4,0.00049843465,0.00049843465,0.00049843465,527625,0.24803257,-0.29404035,-0.49993172,0.5,0.0025000002,0.0025000002,0.0025000002,1,0,1,0,1,0
614312797,614210730,3670026,-0.008495618,-0.0023792412,0.0017790138,0.15,2.4651555e-07,2.4730403e-07,4.8539675e-07,3670026,0.007960696,0.065054305,-0.39967388,0.4,0.0004984404,0.0004984404,0.0004984404,527625,0.24803257,-0.29404035,-0.49993172,0.5,0.0025000002,0.0025000002,0.0025000002,1,0,1,0,1,0
614693902,614591322,3670026,-0.0084588565,-0.0023651912,0.0017849095,0.15,2.4820798e-07,2.4920553e-07,4.8909953e-07,3670026,0.007968481,0.066318,-0.4000724,0.4,0.00049844204,0.00049844204,0.00049844204,527625,0.24803257,-0.29404035,-0.49993172,0.5,0.0025000002,0.0025000002,0.0025000002,1,0,1,0,1,0
614943953,614841710,3670026,-0.0084808,-0.002363247,0.0017834008,0.15,2.4912308e-07,2.5025912e-07,4.915191e-07,3670026,0.0073762573,0.065756984,-0.39923924,0.4,0.0004984441,0.0004984441,0.0004984441,527625,0.24803257,-0.29404035,-0.49993172,0.5,0.0025000002,0.0025000002,0.0025000002,1,0,1,0,1,0
615324452,615222302,3670026,-0.008467869,-0.0023735238,0.0017827264,0.15,2.5039034e-07,2.5174973e-07,4.952228e-07,3670026,0.007927327,0.06593439,-0.39782897,0.4,0.00049844466,0.00049844466,0.00049844466,527625,0.24803257,-0.29404035,-0.49993172,0.5,0.0025000002,0.0025000002,0.0025000002,1,0,1,0,1,0
615444777,615342490,3670026,-0.008462554,-0.002373963,0.0017832505,0.15,2.5076983e-07,2.5220322e-07,4.964005e-07,3670026,0.008079236,0.06612008,-0.39667642,0.4,0.0004984438,0.0004984438,0.0004984438,527625,0.24803257,-0.29404035,-0.49993172,0.5,0.0025000002,0.0025000002,0.0025000002,1,0,1,0,1,0
615564776,615462677,3670026,-0.008467396,-0.0023934797,0.0017801668,0.15,2.5116074e-07,2.5266897e-07,4.975845e-07,3670026,0.0081392545,0.065283686,-0.39586142,0.4,0.000498444,0.000498444,0.000498444,527625,0.24803257,-0.29404035,-0.49993172,0.5,0.0025000002,0.0025000002,0.0025000002,1,0,1,0,1,0
615815211,615713069,3670026,-0.008479479,-0.002409775,0.0017775247,0.15,2.52075e-07,2.537278e-07,5.000565e-07,3670026,0.0076340293,0.064500935,-0.3938982,0.4,0.00049844204,0.00049844204,0.00049844204,527625,0.24803257,-0.29404035,-0.49993172,0.5,0.0025000002,0.0025000002,0.0025000002,1,0,1,0,1,0
615945424,615843270,3670026,-0.008455039,-0.0024007903,0.0017804462,0.15,2.526148e-07,2.543356e-07,5.0134656e-07,3670026,0.008714453,0.065282084,-0.3932134,0.4,0.0004984438,0.0004984438,0.0004984438,527625,0.24803257,-0.29404035,-0.49993172,0.5,0.0025000002,0.0025000002,0.0025000002,1,0,1,0,1,0
616065890,615963458,3670026,-0.008466426,-0.0024062651,0.0017791414,0.15,2.5309035e-07,2.548757e-07,5.0253493e-07,3670026,0.00806649,0.06504338,-0.39099294,0.4,0.0004984431,0.0004984431,0.0004984431,527625,0.24803257,-0.29404035,-0.49993172,0.5,0.0025000002,0.0025000002,0.0025000002,1,0,1,0,1,0
616216111,616113693,3670026,-0.008459986,-0.0024272355,0.0017773092,0.15,2.5385523e-07,2.5570353e-07,5.0402343e-07,3670026,0.008540459,0.063992225,-0.38979062,0.4,0.00049844227,0.00049844227,0.00049844227,527625,0.24803257,-0.29404035,-0.49993172,0.5,0.0025000002,0.0025000002,0.0025000002,1,0,1,0,1,0
616316380,616213849,3670026,-0.0084574325,-0.0024357908,0.0017767076,0.15,2.5416725e-07,2.560734e-07,5.0501245e-07,3670026,0.008686118,0.06362074,-0.3881688,0.4,0.0004984424,0.0004984424,0.0004984424,527625,0.24803257,-0.29404035,-0.49993172,0.5,0.0025000002,0.0025000002,0.0025000002,1,0,1,0,1,0
616446205,616344053,3670026,-0.008463321,-0.0024317885,0.0017767109,0.15,2.5481143e-07,2.5677056e-07,5.063023e-07,3670026,0.008179438,0.06398362,-0.38543555,0.4,0.00049844163,0.00049844163,0.00049844163,527625,0.24803257,-0.29404035,-0.49993172,0.5,0.0025000002,0.0025000002,0.0025000002,1,0,1,0,1,0
616566474,616464241,3670026,-0.0084590465,-0.0024371461,0.0017767823,0.15,2.5538702e-07,2.573952e-07,5.074927e-07,3670026,0.008396289,0.06382654,-0.3830536,0.4,0.0004984413,0.0004984413,0.0004984413,527625,0.24803257,-0.29404035,-0.49993172,0.5,0.0025000002,0.0025000002,0.0025000002,1,0,1,0,1,0
616696454,616594445,3670026,-0.008455192,-0.002449865,0.0017761642,0.15,2.5608264e-07,2.5813443e-07,5.0878316e-07,3670026,0.008685605,0.06316346,-0.38054422,0.4,0.0004984406,0.0004984406,0.0004984406,527625,0.24803257,-0.29404035,-0.49993172,0.5,0.0025000002,0.0025000002,0.0025000002,1,0,1,0,1,0
616816934,616714634,3670026,-0.008450885,-0.002452102,0.0017766092,0.15,2.566939e-07,2.5878734e-07,5.099748e-07,3670026,0.008897904,0.063199826,-0.37812614,0.4,0.0004984392,0.0004984392,0.0004984392,527625,0.24803257,-0.29404035,-0.49993172,0.5,0.0025000002,0.0025000002,0.0025000002,1,0,1,0,1,0
616936970,616834822,3670026,-0.008453106,-0.0024591258,0.001775952,0.15,2.573225e-07,2.5945238e-07,5.111674e-07,3670026,0.008767907,0.0627934,-0.3756819,0.4,0.0004984388,0.0004984388,0.0004984388,527625,0.24803257,-0.29404035,-0.49993172,0.5,0.0025000002,0.0025000002,0.0025000002,1,0,1,0,1,0
617067225,616965031,3670026,-0.008445259,-0.0024669748,0.0017765574,0.15,2.580546e-07,2.6021672e-07,5.1245416e-07,3670026,0.009339607,0.062518656,-0.37315476,0.4,0.0004984331,0.0004984331,0.0004984331,527625,0.24803257,-0.29404035,-0.49993172,0.5,0.0025000002,0.0025000002,0.0025000002,1,0,1,0,1,0
617227389,617125277,3670026,-0.008444878,-0.0024799397,0.0017759741,0.15,2.590716e-07,2.6126153e-07,5.140522e-07,3670026,0.009575558,0.061737485,-0.3708874,0.4,0.0004984372,0.0004984372,0.0004984372,527625,0.24803257,-0.29404035,-0.49993172,0.5,0.0025000002,0.0025000002,0.0025000002,1,0,1,0,1,0
617317902,617215418,3670026,-0.008457953,-0.0025050938,0.0017730984,0.15,2.5941188e-07,2.6162644e-07,5.149465e-07,3670026,0.009273724,0.059806105,-0.36850166,0.4,0.000498437,0.000498437,0.000498437,527625,0.24803257,-0.29404035,-0.49993172,0.5,0.0025000002,0.0025000002,0.0025000002,1,0,1,0,1,0
617438292,617335607,3670026,-0.008459939,-0.002492401,0.0017748071,0.15,2.6003005e-07,2.6227303e-07,5.1614023e-07,3670026,0.008691019,0.060626302,-0.36624107,0.4,0.00049843563,0.00049843563,0.00049843563,527625,0.24803257,-0.29404035,-0.49993172,0.5,0.0025000002,0.0025000002,0.0025000002,1,0,1,0,1,0
617568079,617465820,3670026,-0.008457117,-0.0025046864,0.0017723612,0.15,2.6070438e-07,2.6298284e-07,5.1739875e-07,3670026,0.009104197,0.060094908,-0.36300233,0.4,0.00049842626,0.00049842626,0.00049842626,527625,0.24803257,-0.29404035,-0.49993172,0.5,0.0025000002,0.0025000002,0.0025000002,1,0,1,0,1,0
617688327,617585999,3670026,-0.008461821,-0.0025116154,0.0017720832,0.15,2.612577e-07,2.635774e-07,5.185224e-07,3670026,0.008940512,0.059635002,-0.35976174,0.4,0.0004984353,0.0004984353,0.0004984353,527625,0.24803257,-0.29404035,-0.49993172,0.5,0.0025000002,0.0025000002,0.0025000002,1,0,1,0,1,0
617818329,617716203,3670026,-0.008447576,-0.0025007105,0.001773802,0.15,2.6187573e-07,2.642436e-07,5.1967794e-07,3670026,0.009002214,0.060760304,-0.3566346,0.4,0.00049843505,0.00049843505,0.00049843505,527625,0.24803257,-0.29404035,-0.49993172,0.5,0.0025000002,0.0025000002,0.0025000002,1,0,1,0,1,0
618440015,618337173,3670026,-0.008471461,-0.002525502,0.001763883,0.15,2.645043e-07,2.6699655e-07,5.256301e-07,3670026,0.008637381,0.05967296,-0.35614973,0.4,0.0004984367,0.0004984367,0.0004984367,527625,0.24803257,-0.29404035,-0.49993172,0.5,0.0025000002,0.0025000002,0.0025000002,1,0,1,0,1,0
618699875,618597578,3670026,-0.008480409,-0.0025443593,0.0017636816,0.15,2.6554912e-07,2.68015e-07,5.279106e-07,3670026,0.008957989,0.058911514,-0.35538355,0.4,0.0004984385,0.0004984385,0.0004984385,527625,0.24803257,-0.29404035,-0.49993172,0.5,0.0025000002,0.0025000002,0.0025000002,1,0,1,0,1,0
618940159,618837952,3670026,-0.008459223,-0.0025782946,0.0017781311,0.15,2.6633575e-07,2.6873656e-07,5.2985314e-07,3670026,0.010459749,0.05862773,-0.3543195,0.4,0.0004984399,0.0004984399,0.0004984399,527625,0.24803257,-0.29404035,-0.49993172,0.5,0.0025000002,0.0025000002,0.0025000002,1,0,1,0,1,0
619070591,618968155,3670026,-0.008469266,-0.002597529,0.0017768755,0.15,2.667639e-07,2.691291e-07,5.3100905e-07,3670026,0.010913621,0.05778714,-0.35367408,0.4,0.0004984402,0.0004984402,0.0004984402,527625,0.24803257,-0.29404035,-0.49993172,0.5,0.0025000002,0.0025000002,0.0025000002,1,0,1,0,1,0
619210634,619108374,3670026,-0.008458422,-0.002598893,0.0017799683,0.15,2.672231e-07,2.695581e-07,5.323196e-07,3670026,0.011210195,0.058021422,-0.35261127,0.4,0.0004984401,0.0004984401,0.0004984401,527625,0.24803257,-0.29404035,-0.49993172,0.5,0.0025000002,0.0025000002,0.0025000002,1,0,1,0,1,0
619320710,619218545,3670026,-0.008470703,-0.0026159459,0.0017830469,0.15,2.6736063e-07,2.696724e-07,5.333438e-07,3670026,0.011615842,0.0571374,-0.35218075,0.4,0.0004984411,0.0004984411,0.0004984411,527625,0.24803257,-0.29404035,-0.49993172,0.5,0.0025000002,0.0025000002,0.0025000002,1,0,1,0,1,0
619440832,619338732,3670026,-0.008480531,-0.0026221285,0.0017851057,0.15,2.675497e-07,2.6984605e-07,5.3446024e-07,3670026,0.01168093,0.056490447,-0.35113198,0.4,0.00049844175,0.00049844175,0.00049844175,527625,0.24803257,-0.29404035,-0.49993172,0.5,0.0025000002,0.0025000002,0.0025000002,1,0,1,0,1,0
619571357,619468935,3670026,-0.00847746,-0.0025853456,0.0017744921,0.15,2.67776e-07,2.7006465e-07,5.356639e-07,3670026,0.010219681,0.057132937,-0.34987676,0.4,0.0004984419,0.0004984419,0.0004984419,527625,0.24803257,-0.29404035,-0.49993172,0.5,0.0025000002,0.0025000002,0.0025000002,1,0,1,0,1,0
619691270,619589123,3670026,-0.008473877,-0.0025923636,0.0017767539,0.15,2.6786574e-07,2.7015057e-07,5.3676484e-07,3670026,0.010577767,0.05704069,-0.3486784,0.4,0.00049844146,0.00049844146,0.00049844146,527625,0.24803257,-0.29404035,-0.49993172,0.5,0.0025000002,0.0025000002,0.0025000002,1,0,1,0,1,0
619941670,619839512,3670026,-0.00849866,-0.0025957953,0.0017805739,0.15,2.6804395e-07,2.7031942e-07,5.3911407e-07,3670026,0.010342221,0.05572324,-0.3472767,0.4,0.0004984427,0.0004984427,0.0004984427,527625,0.24803257,-0.29404035,-0.49993172,0.5,0.0025000002,0.0025000002,0.0025000002,1,0,1,0,1,0
620062133,619959699,3670026,-0.008484367,-0.002606944,0.0017819491,0.15,2.6804918e-07,2.7031516e-07,5.4026856e-07,3670026,0.011039741,0.056127086,-0.3461835,0.4,0.0004984431,0.0004984431,0.0004984431,527625,0.24803257,-0.29404035,-0.49993172,0.5,0.0025000002,0.0025000002,0.0025000002,1,0,1,0,1,0
620312651,620210089,3670026,-0.008487988,-0.002621537,0.0017846872,0.15,2.6799694e-07,2.7023793e-07,5.4271084e-07,3670026,0.011638452,0.055658817,-0.34466267,0.4,0.00049844314,0.00049844314,0.00049844314,527625,0.24803257,-0.29404035,-0.49993172,0.5,0.0025000002,0.0025000002,0.0025000002,1,0,1,0,1,0
620442593,620340291,3670026,-0.0084845815,-0.00262246,0.0017848342,0.15,2.680041e-07,2.7022887e-07,5.439945e-07,3670026,0.011706117,0.055719174,-0.34320164,0.4,0.0004984439,0.0004984439,0.0004984439,527625,0.24803257,-0.29404035,-0.49993172,0.5,0.0025000002,0.0025000002,0.0025000002,1,0,1,0,1,0
620572512,620470494,3670026,-0.008490336,-0.0026121729,0.0017845054,0.15,2.6796184e-07,2.7017074e-07,5.4528226e-07,3670026,0.01117903,0.05547742,-0.34150195,0.4,0.0004984436,0.0004984436,0.0004984436,527625,0.24803257,-0.29404035,-0.49993172,0.5,0.0025000002,0.0025000002,0.0025000002,1,0,1,0,1,0
620693194,620590681,3670026,-0.008499253,-0.0026300624,0.0017863255,0.15,2.6780182e-07,2.699923e-07,5.464747e-07,3670026,0.011872852,0.05488136,-0.34107095,0.4,0.0004984438,0.0004984438,0.0004984438,527625,0.24803257,-0.29404035,-0.49993172,0.5,0.0025000002,0.0025000002,0.0025000002,1,0,1,0,1,0
620813026,620710868,3670026,-0.008471984,-0.0026228738,0.0017850153,0.15,2.676316e-07,2.6979959e-07,5.476716e-07,3670026,0.01178102,0.056086753,-0.33978853,0.4,0.00049844425,0.00049844425,0.00049844425,527625,0.24803257,-0.29404035,-0.49993172,0.5,0.0025000002,0.0025000002,0.0025000002,1,0,1,0,1,0
620943317,620841072,3670026,-0.008479176,-0.0025955306,0.0017840678,0.15,2.6752235e-07,2.6966853e-07,5.4896776e-07,3670026,0.010544508,0.055926293,-0.338226,0.4,0.0004984431,0.0004984431,0.0004984431,527625,0.24803257,-0.29404035,-0.49993172,0.5,0.0025000002,0.0025000002,0.0025000002,1,0,1,0,1,0
621063498,620961259,3670026,-0.0084976815,-0.002618784,0.001785892,0.15,2.6730328e-07,2.694249e-07,5.501659e-07,3670026,0.011386022,0.05492371,-0.3369271,0.4,0.00049844314,0.00049844314,0.00049844314,527625,0.24803257,-0.29404035,-0.49993172,0.5,0.0025000002,0.0025000002,0.0025000002,1,0,1,0,1,0
621444196,621341854,3670026,-0.008494801,-0.0025906726,0.0017850958,0.15,2.6668383e-07,2.6871555e-07,5.539625e-07,3670026,0.010272057,0.055163033,-0.33627263,0.4,0.00049844105,0.00049844105,0.00049844105,527625,0.24803257,-0.29404035,-0.49993172,0.5,0.0025000002,0.0025000002,0.0025000002,1,0,1,0,1,0
621694866,621592242,3670026,-0.008510536,-0.002623762,0.0017863374,0.15,2.661857e-07,2.6815533e-07,5.5646626e-07,3670026,0.011451779,0.054374203,-0.33511537,0.4,0.0004984431,0.0004984431,0.0004984431,527625,0.24803257,-0.29404035,-0.49993172,0.5,0.0025000002,0.0025000002,0.0025000002,1,0,1,0,1,0
621814605,621712429,3670026,-0.008504855,-0.0025964177,0.0017860503,0.15,2.6585727e-07,2.6779293e-07,5.57668e-07,3670026,0.010467628,0.05466239,-0.33447158,0.4,0.0004984432,0.0004984432,0.0004984432,527625,0.24803257,-0.29404035,-0.49993172,0.5,0.0025000002,0.0025000002,0.0025000002,1,0,1,0,1,0
621944812,621842640,3670026,-0.00850809,-0.002558274,0.0017866704,0.15,2.6561418e-07,2.6749694e-07,5.5895663e-07,3670026,0.009102742,0.05463309,-0.33284113,0.4,0.00049843517,0.00049843517,0.00049843517,527625,0.24803257,-0.29404035,-0.49993172,0.5,0.0025000002,0.0025000002,0.0025000002,1,0,1,0,1,0
622065051,621962820,3670026,-0.008528634,-0.002592329,0.0017802578,0.15,2.6534565e-07,2.671485e-07,5.6009065e-07,3670026,0.010205522,0.05380098,-0.33219755,0.4,0.0004984427,0.0004984427,0.0004984427,527625,0.24803257,-0.29404035,-0.49993172,0.5,0.0025000002,0.0025000002,0.0025000002,1,0,1,0,1,0
622225152,622123070,3670026,-0.008505502,-0.0026062822,0.0017896598,0.15,2.654759e-07,2.6715145e-07,5.6135093e-07,3670026,0.010681605,0.054553084,-0.33159548,0.4,0.0004984424,0.0004984424,0.0004984424,527625,0.24803257,-0.29404035,-0.49993172,0.5,0.0025000002,0.0025000002,0.0025000002,1,0,1,0,1,0
622315826,622213214,3670026,-0.008508772,-0.0026088618,0.0017872003,0.15,2.650537e-07,2.6658728e-07,5.6172183e-07,3670026,0.010713765,0.054415397,-0.329751,0.4,0.0004984388,0.0004984388,0.0004984388,527625,0.24803257,-0.29404035,-0.49993172,0.5,0.0025000002,0.0025000002,0.0025000002,1,0,1,0,1,0
