timestamp,timestamp_sample,device_id,x,y,z,temperature,error_count,clip_counter[0],clip_counter[1],clip_counter[2],samples
564935494,564935119,3670026,-0.97300357,0.35913026,-10.117417,55.408813,0,0,0,0,5
564936751,564936371,3670026,-0.8078037,0.21404164,-10.270647,55.374542,0,0,0,0,5
564938022,564937623,3670026,-0.9911995,0.45825022,-9.587341,55.443085,0,0,0,0,5
564939278,564938877,3670026,-0.896868,0.3145981,-9.859801,55.408813,0,0,0,0,5
564940522,564940128,3670026,-1.0208876,0.27964276,-10.406158,55.4284,0,0,0,0,5
564941844,564941387,3670026,-0.7685388,0.24660277,-9.652943,55.41371,0,0,0,0,5
564943103,564942637,3670026,-1.0998963,0.4180276,-9.854534,55.369644,0,0,0,0,5
564944280,564943887,3670026,-0.89591026,0.34572273,-10.014467,55.35985,0,0,0,0,5
564945525,564945138,3670026,-0.91697925,0.24372974,-10.414778,55.369644,0,0,0,0,5
564946784,564946391,3670026,-0.93565404,0.39839518,-9.491573,55.34027,0,0,0,0,5
564948024,564947643,3670026,-0.9581595,0.27724856,-9.97185,55.403915,0,0,0,0,5
564949296,564948895,3670026,-0.9696517,0.27820623,-10.318051,55.4284,0,0,0,0,5
564950592,564950153,3670026,-0.7915231,0.25665843,-9.802819,55.38923,0,0,0,0,5
564951856,564951400,3670026,-1.0817003,0.4204218,-9.735782,55.379436,0,0,0,0,5
564953037,564952652,3670026,-0.9873688,0.34859577,-10.114066,55.350063,0,0,0,0,5
564956788,564956409,3670026,-0.73166806,0.73214686,-9.740091,55.354958,0,0,0,0,5
564960564,564960167,3670026,-1.4408306,0.8149863,-9.706573,55.433292,0,0,0,0,5
564963068,564962672,3670026,-0.8686164,0.59136784,-10.544543,55.452877,0,0,0,0,5
564966820,564966429,3670026,-1.295742,0.01388637,-10.031705,55.41371,0,0,0,0,5
564971857,564971438,3670026,-1.070687,0.05602432,-10.899843,55.38923,0,0,0,0,5
564973088,564972691,3670026,-0.90500826,0.65457475,-9.268434,55.38923,0,0,0,0,5
564976903,564976448,3670026,-0.78386164,0.19393034,-10.103531,55.423504,0,0,0,0,5
564980591,564980205,3670026,-0.9495404,0.113485165,-10.304166,55.38923,0,0,0,0,5
564985603,564985215,3670026,-0.24420857,-0.83701295,-10.059478,55.418606,0,0,0,0,5
564988094,564987720,3670026,-1.4618995,1.3953408,-10.08342,55.34027,0,0,0,0,5
564990697,564990225,3670026,-0.95720184,0.1934515,-10.811257,55.379436,0,0,0,0,5
564995605,564995234,3670026,-0.90261406,0.93373865,-10.371682,55.345165,0,0,0,0,5
564998185,564997739,3670026,-1.1477803,-1.2555194,-10.503841,55.33048,0,0,0,0,5
565001892,565001496,3670026,-1.6366763,2.3946805,-9.648154,55.345165,0,0,0,0,5
565005646,565005253,3670026,-0.9255984,0.3490746,-9.985258,55.369644,0,0,0,0,5
565008141,565007758,3670026,-0.41276038,0.8552089,-10.072407,55.408813,0,0,0,0,5
565011983,565011515,3670026,-0.16950949,-0.23750481,-10.160992,55.408813,0,0,0,0,5
565015721,565015274,3670026,-1.4547169,0.04165911,-9.365159,55.350063,0,0,0,0,5
565020669,565020282,3670026,-1.6208745,0.78577703,-9.13388,55.408813,0,0,0,0,5
565023214,565022788,3670026,-0.5544971,1.2392389,-10.104489,55.369644,0,0,0,0,5
565025671,565025292,3670026,-0.3323152,-0.38833952,-10.234255,55.38923,0,0,0,0,5
565029443,565029049,3670026,-0.7546524,-0.2078167,-9.581117,55.394123,0,0,0,0,5
565033206,565032807,3670026,-1.3330915,0.9385271,-10.50863,55.36475,0,0,0,0,5
565036956,565036564,3670026,-1.3215994,1.5495274,-10.029311,55.34027,0,0,0,0,5
565040697,565040321,3670026,-0.54875106,0.3725378,-9.465237,55.403915,0,0,0,0,5
565045778,565045330,3670026,-0.97013056,-0.33758244,-10.717883,55.310894,0,0,0,0,5
565046969,565046583,3670026,-1.45759,1.3637373,-9.665872,55.38433,0,0,0,0,5
565050808,565050340,3670026,-0.6062119,0.4204218,-10.374555,55.350063,0,0,0,0,5
565054480,565054097,3670026,-1.6218323,-0.014844051,-10.454042,55.354958,0,0,0,0,5
565058234,565057854,3670026,0.42185834,0.8614338,-8.288247,55.394123,0,0,0,0,5
565060803,565060359,3670026,-0.20398599,-0.87484133,-9.261251,55.369644,0,0,0,0,5
565064503,565064117,3670026,-0.7369353,0.9959879,-10.54167,55.35985,0,0,0,0,5
565069580,565069126,3670026,-0.4687847,0.048841715,-10.820355,55.394123,0,0,0,0,5
565072018,565071631,3670026,-0.93325984,-0.28778306,-10.005369,55.374542,0,0,0,0,5
565075772,565075388,3670026,-1.2425907,0.018674774,-11.105744,55.38433,0,0,0,0,5
565078309,565077893,3670026,-0.5803545,-0.52145714,-11.198639,55.394123,0,0,0,0,5
565082090,565081650,3670026,-0.07996634,1.088404,-10.08342,55.379436,0,0,0,0,5
565085791,565085407,3670026,-1.5227123,0.32704794,-9.55478,55.394123,0,0,0,0,5
565089619,565089165,3670026,-0.3854665,-0.37205896,-10.681492,55.374542,0,0,0,0,5
565092081,565091669,3670026,-1.9297266,0.8331822,-7.675811,55.394123,0,0,0,0,5
565095827,565095427,3670026,-1.0146627,1.4255077,-11.436623,55.379436,0,0,0,0,5
565099580,565099184,3670026,-0.71299326,0.14556746,-10.507194,55.403915,0,0,0,0,5
565103387,565102941,3670026,-1.6788143,1.7908629,-8.880095,55.38433,0,0,0,0,5
565107094,565106707,3670026,-0.6943185,1.4992491,-10.581893,55.379436,0,0,0,0,5
565109597,565109203,3670026,-1.109952,0.48554412,-9.436506,55.418606,0,0,0,0,5
565113435,565112967,3670026,-0.40701428,0.7714118,-9.304347,55.354958,0,0,0,0,5
565117173,565116719,3670026,-0.19297266,1.5389929,-9.855013,55.374542,0,0,0,0,5
565120887,565120475,3670026,-0.5224148,0.0272939,-11.732067,55.345165,0,0,0,0,5
565124631,565124232,3670026,-0.96103257,0.5525818,-10.036493,55.35985,0,0,0,0,5
565128391,565127991,3670026,-0.4999093,0.97731316,-9.066363,55.369644,0,0,0,0,5
565130962,565130495,3670026,-0.6090849,1.4226347,-9.55909,55.354958,0,0,0,0,5
565135889,565135508,3670026,-1.2785038,1.0366894,-9.263645,55.408813,0,0,0,0,5
565138381,565138009,3670026,-0.35673606,-0.1934515,-10.972148,55.310894,0,0,0,0,5
565142146,565141767,3670026,-1.1152191,1.0381259,-10.540712,55.41371,0,0,0,0,5
565144742,565144271,3670026,-0.8078037,-0.14652514,-10.052774,55.36475,0,0,0,0,5
565148406,565148032,3670026,-0.11827356,0.6722919,-10.245747,55.335373,0,0,0,0,5
565152162,565151785,3670026,-0.74555445,0.0746991,-10.00106,55.369644,0,0,0,0,5
565155948,565155542,3670026,-1.2363658,-0.64068836,-10.966402,55.350063,0,0,0,0,5
565159747,565159299,3670026,-0.9457097,-0.6722919,-10.902716,55.36475,0,0,0,0,5
565162188,565161805,3670026,-0.48554412,-1.154484,-9.768822,55.36475,0,0,0,0,5
565165954,565165561,3670026,-1.3148956,-0.31411928,-9.885659,55.374542,0,0,0,0,5
565169779,565169319,3670026,-0.45729253,0.6904878,-10.158598,55.354958,0,0,0,0,5
565173452,565173076,3670026,0.15466543,0.14748283,-9.9550905,55.29131,0,0,0,0,5
565177292,565176833,3670026,-0.7053318,0.28682536,-9.293812,55.354958,0,0,0,0,5
565179739,565179338,3670026,-1.2818556,-0.107739076,-8.833168,55.35985,0,0,0,0,5
565183483,565183095,3670026,-1.0553641,-0.18243816,-10.038888,55.35985,0,0,0,0,5
565187236,565186853,3670026,-1.3326126,0.9859323,-10.381738,55.38923,0,0,0,0,5
565191057,565190612,3670026,-1.7530345,0.7469909,-9.481518,55.350063,0,0,0,0,5
565194775,565194367,3670026,-0.92128885,0.5650316,-10.068097,55.34027,0,0,0,0,5
565197256,565196872,3670026,-0.80062103,0.31124622,-9.92636,55.350063,0,0,0,0,5
565201038,565200629,3670026,-0.34332854,0.06607997,-10.389399,55.4284,0,0,0,0,5
565206051,565205643,3670026,-0.6607997,0.5932832,-8.7273445,55.369644,0,0,0,0,5
565208595,565208143,3670026,-0.2360683,0.54922986,-9.851182,55.369644,0,0,0,0,5
565212350,565211901,3670026,-0.5851429,0.07086837,-10.743262,55.369644,0,0,0,0,5
565216044,565215658,3670026,-0.9471462,0.23032221,-9.380961,55.418606,0,0,0,0,5
565218568,565218163,3670026,-1.2713212,0.05315128,-11.477803,55.443085,0,0,0,0,5
565222320,565221920,3670026,-1.2943054,-0.05889736,-10.2275505,55.447983,0,0,0,0,5
565226064,565225677,3670026,-0.47309425,0.3490746,-10.090124,55.38923,0,0,0,0,5
565228572,565228182,3670026,-1.4470556,-0.43861777,-10.260112,55.34027,0,0,0,0,5
565232374,565231939,3670026,0.044532154,-0.43287167,-9.283756,55.41371,0,0,0,0,5
565236074,565235697,3670026,-0.3596091,0.96390563,-9.196608,55.38433,0,0,0,0,5
565239852,565239454,3670026,-1.0544064,1.6031575,-10.131304,55.38923,0,0,0,0,5
565243664,565243211,3670026,-1.1353304,0.9059659,-11.22306,55.315792,0,0,0,0,5
565247340,565246968,3670026,-0.9955091,0.76710224,-8.291599,55.38923,0,0,0,0,5
565249958,565249477,3670026,-0.17429788,0.98018616,-11.752658,55.374542,0,0,0,0,5
565253622,565253230,3670026,-1.0649409,-0.029209262,-10.273041,55.33048,0,0,0,0,5
565257374,565256989,3670026,-0.8987833,1.6089035,-8.042124,55.320686,0,0,0,0,5
565261148,565260745,3670026,-1.5021222,0.7417237,-9.780314,55.418606,0,0,0,0,5
565263634,565263250,3670026,-0.020590134,-0.4237737,-9.738176,55.41371,0,0,0,0,5
565267441,565267007,3670026,0.0019153614,0.455856,-8.401254,55.33048,0,0,0,0,5
565271158,565270767,3670026,-1.2780249,0.14413095,-9.139626,55.374542,0,0,0,0,5
565274923,565274521,3670026,-1.4599842,0.4237737,-10.688674,55.423504,0,0,0,0,5
565278721,565278278,3670026,-0.6100426,0.3442862,-9.011775,55.320686,0,0,0,0,5
565281165,565280783,3670026,-0.7264008,0.99646676,-9.017042,55.34027,0,0,0,0,5
565286203,565285793,3670026,-0.39217025,-0.09433155,-11.404061,55.433292,0,0,0,0,5
565288674,565288297,3670026,-1.6089035,-0.28682536,-9.873688,55.408813,0,0,0,0,5
565292495,565292055,3670026,-1.025676,-0.28969842,-9.105628,55.39902,0,0,0,0,5
565297458,565297064,3670026,-0.9600749,0.61435217,-9.82724,55.408813,0,0,0,0,5
565298700,565298317,3670026,-0.87053174,0.44532153,-7.8903313,55.403915,0,0,0,0,5
565302500,565302075,3670026,-1.7841592,-0.22601265,-9.241139,55.394123,0,0,0,0,5
565307470,565307084,3670026,-1.6505626,0.7240066,-8.699572,55.325584,0,0,0,0,5
565309989,565309588,3670026,-0.8738836,0.7354988,-11.412681,55.35985,0,0,0,0,5
565313826,565313346,3670026,-0.62009823,-0.9078813,-9.136273,55.325584,0,0,0,0,5
565316290,565315850,3670026,-1.0165781,0.66367275,-9.972808,55.325584,0,0,0,0,5
565319989,565319608,3670026,-1.1693281,1.5222335,-9.764033,55.374542,0,0,0,0,5
565323744,565323365,3670026,-0.22505496,0.31747115,-8.700529,55.374542,0,0,0,0,5
565327510,565327122,3670026,-0.83509755,1.1985373,-11.26424,55.345165,0,0,0,0,5
565331330,565330886,3670026,-0.88968533,-0.260968,-10.432974,55.39902,0,0,0,0,5
565333760,565333384,3670026,-0.9222465,0.16759412,-8.2801075,55.34027,0,0,0,0,5
565337522,565337141,3670026,0.009097966,0.46591166,-9.413523,55.39902,0,0,0,0,5
565341286,565340899,3670026,-0.27581203,0.4735731,-10.282618,55.423504,0,0,0,0,5
565347618,565347161,3670026,-1.313459,0.1637634,-10.41382,55.315792,0,0,0,0,5
565348900,565348413,3670026,-1.082658,0.40414125,-9.29908,55.35985,0,0,0,0,5
565351366,565350918,3670026,-1.3292608,0.2207454,-9.694602,55.379436,0,0,0,0,5
565356304,565355927,3670026,-1.631409,0.59855044,-10.713095,55.34027,0,0,0,0,5
565358827,565358432,3670026,-0.2810793,0.6823475,-10.600568,55.403915,0,0,0,0,5
565362559,565362189,3670026,-1.3292608,0.5137957,-10.382216,55.325584,0,0,0,0,5
565366330,565365947,3670026,-1.5591042,0.8034941,-9.837775,55.35985,0,0,0,0,5
565368847,565368452,3670026,0.3050213,0.5664681,-9.406818,55.408813,0,0,0,0,5
565372624,565372209,3670026,-0.06799533,0.14891934,-9.496362,55.354958,0,0,0,0,5
565376346,565375966,3670026,-0.6818687,0.3854665,-10.947248,55.335373,0,0,0,0,5
565380170,565379723,3670026,-1.7338809,-0.27341783,-10.923785,55.38923,0,0,0,0,5
565382609,565382228,3670026,-1.328782,0.17812862,-8.836999,55.354958,0,0,0,0,5
565386371,565385985,3670026,-0.45872906,1.3575124,-8.5722,55.369644,0,0,0,0,5
565390157,565389743,3670026,-0.6464345,0.41228154,-10.8184395,55.35985,0,0,0,0,5
565393900,565393500,3670026,-0.97970736,0.21883003,-11.721054,55.306,0,0,0,0,5
565397634,565397257,3670026,-1.2469002,0.09672575,-10.429143,55.354958,0,0,0,0,5
565400233,565399762,3670026,-1.2674904,-0.11204864,-9.446563,55.433292,0,0,0,0,5
565403948,565403519,3670026,-0.11731589,1.0874465,-9.288545,55.34027,0,0,0,0,5
565407659,565407276,3670026,-0.61674637,0.1316811,-10.728897,55.374542,0,0,0,0,5
565411481,565411036,3670026,-0.80205756,0.5884948,-10.160513,55.315792,0,0,0,0,5
565416498,565416043,3670026,0.41994298,0.71299326,-10.225636,55.36475,0,0,0,0,5
565417748,565417295,3670026,-0.9184158,-0.5305551,-10.086293,55.315792,0,0,0,0,5
565421464,565421067,3670026,0.42090067,-0.5832275,-8.684249,55.38433,0,0,0,0,5
565426441,565426062,3670026,-0.6799533,1.574427,-9.255026,55.29131,0,0,0,0,5
565428967,565428567,3670026,-0.7714118,-0.34572273,-10.336726,55.35985,0,0,0,0,5
565432710,565432324,3670026,-1.62279,-0.33039984,-11.028172,55.310894,0,0,0,0,5
565435214,565434829,3670026,-0.2705448,0.085233584,-8.426153,55.325584,0,0,0,0,5
565439005,565438586,3670026,-0.55353945,1.6438589,-9.134358,55.39902,0,0,0,0,5
565442722,565442344,3670026,-1.2229582,0.31364042,-12.018414,55.374542,0,0,0,0,5
565446540,565446101,3670026,-1.0716447,1.1994951,-11.909717,55.394123,0,0,0,0,5
565450323,565449858,3670026,-0.78529817,1.6127343,-9.5317955,55.354958,0,0,0,0,5
565452738,565452363,3670026,-1.1693281,0.93373865,-10.526347,55.394123,0,0,0,0,5
565456536,565456130,3670026,-0.5473145,-0.5401319,-10.7466135,55.33048,0,0,0,0,5
565460321,565459879,3670026,-0.9078813,-0.07230489,-10.743741,55.29131,0,0,0,0,5
565466519,565466139,3670026,-1.2435484,0.20877439,-9.855013,55.25704,0,0,0,0,5
565467789,565467391,3670026,-1.8631678,-0.2078167,-11.1349535,55.379436,0,0,0,0,5
565470362,565469897,3670026,-1.4121002,1.100375,-9.931149,55.310894,0,0,0,0,5
565476609,565476159,3670026,-1.6931795,0.899741,-10.53353,55.26683,0,0,0,0,5
565477876,565477411,3670026,0.26288334,-0.10295068,-10.342952,55.36475,0,0,0,0,5
565481543,565481168,3670026,-1.5313314,0.40031052,-11.340855,55.306,0,0,0,0,5
565486565,565486178,3670026,-0.7489063,-0.896868,-9.834902,55.335373,0,0,0,0,5
565487855,565487430,3670026,-1.025676,1.4111425,-8.922711,55.315792,0,0,0,0,5
565491649,565491203,3670026,0.09816227,0.8528147,-9.610805,55.34027,0,0,0,0,5
565496581,565496197,3670026,-0.6531382,1.379539,-8.496064,55.28641,0,0,0,0,5
565499158,565498702,3670026,-1.3225571,-0.22361845,-10.861056,55.350063,0,0,0,0,5
565501588,565501207,3670026,-1.208593,-0.50517654,-8.1862545,55.26683,0,0,0,0,5
565506586,565506216,3670026,-0.8652645,-0.48075572,-9.131965,55.36475,0,0,0,0,5
565509117,565508721,3670026,-0.33183637,0.3490746,-9.692207,55.320686,0,0,0,0,5
565512939,565512478,3670026,-1.1707647,-0.19871874,-11.318828,55.3011,0,0,0,0,5
565516671,565516235,3670026,-1.2909535,-0.3323152,-11.293449,55.36475,0,0,0,0,5
565519112,565518740,3670026,-1.2196064,0.6411672,-9.1525545,55.26683,0,0,0,0,5
565524197,565523750,3670026,-1.4925454,0.86765873,-10.88452,55.310894,0,0,0,0,5
565526636,565526255,3670026,-0.7469909,0.9255984,-9.925881,55.281517,0,0,0,0,5
565530460,565530012,3670026,-0.6090849,-1.8976443,-9.487264,55.28641,0,0,0,0,5
565534149,565533769,3670026,-1.6783354,-0.39839518,-11.470141,55.237453,0,0,0,0,5
565537917,565537526,3670026,-1.082658,0.7489063,-10.765288,55.276623,0,0,0,0,5
565540416,565540031,3670026,-0.17669208,0.45250413,-8.3040495,55.252144,0,0,0,0,5
565544234,565543788,3670026,-0.6014235,0.9911995,-8.180987,55.28641,0,0,0,0,5
565548028,565547555,3670026,-1.1659763,-0.47979802,-10.302729,55.252144,0,0,0,0,5
565551680,565551303,3670026,-1.2392389,-0.5425261,-11.1938505,55.306,0,0,0,0,5
565554207,565553808,3670026,-0.6416461,-0.05650316,-9.515994,55.310894,0,0,0,0,5
565558045,565557567,3670026,-0.40462008,0.3830723,-8.561187,55.3011,0,0,0,0,5
565561699,565561322,3670026,-0.9270349,0.81833816,-9.93067,55.26683,0,0,0,0,5
565566703,565566332,3670026,-0.8451532,0.49320555,-8.615774,55.335373,0,0,0,0,5
565569276,565568837,3670026,-0.6110003,-0.53965306,-11.302547,55.320686,0,0,0,0,5
565571723,565571341,3670026,-1.2943054,0.60286,-9.226774,55.252144,0,0,0,0,5
565576814,565576351,3670026,-0.80062103,0.93565404,-8.630139,55.310894,0,0,0,0,5
565579249,565578856,3670026,-1.130542,0.9409213,-9.583989,55.23256,0,0,0,0,5
565583002,565582613,3670026,-0.49224788,0.99886096,-10.02548,55.33048,0,0,0,0,5
565586786,565586370,3670026,0.19632454,-0.68091094,-9.31105,55.271725,0,0,0,0,5
565589353,565588884,3670026,-1.4149733,-0.48937485,-10.411426,55.29131,0,0,0,0,5
565593028,565592632,3670026,-1.8320432,0.16711529,-9.436028,55.247246,0,0,0,0,5
565596787,565596389,3670026,-0.20494367,-0.44053313,-7.735187,55.315792,0,0,0,0,5
565600539,565600146,3670026,-0.38019922,0.33566707,-10.735122,55.25704,0,0,0,0,5
565604280,565603904,3670026,-1.8334796,0.099598795,-10.96305,55.252144,0,0,0,0,5
565608042,565607661,3670026,-1.4777013,0.9054871,-10.123643,55.26683,0,0,0,0,5
565610604,565610166,3670026,-0.46016556,-0.49943048,-8.271488,55.261932,0,0,0,0,5
565614401,565613924,3670026,-1.4451401,0.41850647,-9.471462,55.276623,0,0,0,0,5
565618122,565617680,3670026,-0.9232042,0.3725378,-10.018298,55.276623,0,0,0,0,5
565620558,565620185,3670026,-0.7216124,0.7134721,-10.4301,55.310894,0,0,0,0,5
565624343,565623947,3670026,-1.217691,-0.3289633,-10.455,55.310894,0,0,0,0,5
565628091,565627700,3670026,-0.93804824,-1.2823344,-10.240958,55.222767,0,0,0,0,5
565631916,565631457,3670026,-0.6813898,-0.09193735,-10.0508585,55.227665,0,0,0,0,5
565636847,565636466,3670026,-1.3522451,0.5032612,-9.565314,55.310894,0,0,0,0,5
565638097,565637719,3670026,-1.6687586,1.130542,-10.090603,55.29131,0,0,0,0,5
565641868,565641476,3670026,-2.492843,1.9268535,-10.4851675,55.281517,0,0,0,0,5
565645690,565645233,3670026,-0.92655605,-0.39360675,-9.67018,55.320686,0,0,0,0,5
565649434,565648993,3670026,0.08762778,0.87867206,-9.210015,55.271725,0,0,0,0,5
565653141,565652748,3670026,-0.3323152,-0.40270475,-9.314403,55.34027,0,0,0,0,5
565655644,565655253,3670026,-1.9359515,0.02633622,-10.292194,55.261932,0,0,0,0,5
565659431,565659010,3670026,-0.6766014,0.39600095,-10.961614,55.296207,0,0,0,0,5
565663160,565662768,3670026,-0.39791632,-0.26862943,-10.2495775,55.25704,0,0,0,0,5
565666922,565666524,3670026,-0.18243816,0.5525818,-8.62152,55.29131,0,0,0,0,5
565670744,565670282,3670026,-1.193749,1.0103531,-10.540234,55.28641,0,0,0,0,5
565673182,565672787,3670026,-0.88346046,0.43526587,-10.771035,55.222767,0,0,0,0,5
565676940,565676543,3670026,-0.6205771,-0.3050213,-10.067618,55.296207,0,0,0,0,5
565680808,565680301,3670026,-1.3211205,0.6679823,-10.015425,55.276623,0,0,0,0,5
565684444,565684057,3670026,-1.4259865,-1.2737154,-9.957006,55.25704,0,0,0,0,5
565688207,565687815,3670026,-0.7331046,-1.1176133,-10.07528,55.315792,0,0,0,0,5
565691960,565691572,3670026,-1.3369223,-0.025857378,-10.099701,55.237453,0,0,0,0,5
565694450,565694077,3670026,-0.30214825,-1.0189723,-9.344569,55.247246,0,0,0,0,5
565698209,565697834,3670026,-1.3919889,0.06416461,-10.363542,55.217873,0,0,0,0,5
565701970,565701591,3670026,-1.7085024,0.6459556,-11.197681,55.237453,0,0,0,0,5
565708228,565707853,3670026,-1.4460979,0.59855044,-9.64576,55.25704,0,0,0,0,5
565709493,565709106,3670026,0.53247046,0.46303862,-9.698432,55.252144,0,0,0,0,5
565712049,565711610,3670026,-2.3041797,-0.15514427,-10.881168,55.276623,0,0,0,0,5
565717075,565716620,3670026,-2.1902158,1.2469002,-10.608707,55.28641,0,0,0,0,5
565719528,565719126,3670026,-0.6622362,0.01388637,-9.506417,55.24235,0,0,0,0,5
565723263,565722882,3670026,-0.55593365,0.42329487,-8.883446,55.222767,0,0,0,0,5
565727032,565726642,3670026,-1.127669,-0.39647982,-10.875422,55.237453,0,0,0,0,5
565729649,565729152,3670026,-0.7350199,2.49811,-9.10898,55.20808,0,0,0,0,5
565733286,565732902,3670026,0.46926355,-0.07374141,-8.496543,55.261932,0,0,0,0,5
565737053,565736658,3670026,-0.30597898,1.2291832,-10.895055,55.247246,0,0,0,0,5
565739605,565739163,3670026,-1.7176003,0.53917426,-10.763373,55.198288,0,0,0,0,5
565743303,565742921,3670026,-0.97779197,0.2384625,-9.716628,55.23256,0,0,0,0,5
565747114,565746678,3670026,-0.83461875,-0.2671929,-9.231563,55.26683,0,0,0,0,5
565750911,565750437,3670026,-0.8920796,-1.4159309,-10.159077,55.252144,0,0,0,0,5
565754592,565754194,3670026,-1.2071565,-0.6842629,-10.316615,55.188496,0,0,0,0,5
565758364,565757955,3670026,-0.71730286,0.035913024,-10.164344,55.19339,0,0,0,0,5
565760872,565760454,3670026,-1.3158532,1.5610195,-9.44752,55.164013,0,0,0,0,5
565764594,565764211,3670026,-1.5586253,0.56311625,-10.443987,55.173805,0,0,0,0,5
565768348,565767968,3670026,-1.3953408,0.5659893,-10.716926,55.217873,0,0,0,0,5
565772203,565771726,3670026,-0.037828386,1.2789825,-10.228988,55.237453,0,0,0,0,5
565777176,565776736,3670026,-0.6110003,-1.2516887,-10.299856,55.203182,0,0,0,0,5
565778430,565777988,3670026,-2.2069752,0.908839,-10.055647,55.217873,0,0,0,0,5
565782126,565781745,3670026,-1.20572,0.3643975,-9.079291,55.252144,0,0,0,0,5
565787143,565786754,3670026,-0.9246407,-0.7335834,-9.785582,55.198288,0,0,0,0,5
565789674,565789259,3670026,-1.1712434,-0.50038815,-10.041282,55.24235,0,0,0,0,5
565798411,565798027,3670026,-0.3773262,0.2102109,-10.6202,55.212975,0,0,0,0,5
565799664,565799278,3670026,-0.95432884,0.12210429,-9.563878,55.23256,0,0,0,0,5
565800914,565800531,3670026,-0.74603325,-0.72257006,-9.862196,55.144432,0,0,0,0,5
565803417,565803036,3670026,-0.71634513,-0.2882619,-9.567709,55.227665,0,0,0,0,5
565807188,565806793,3670026,-1.9062635,-0.8149863,-10.405201,55.173805,0,0,0,0,5
565810941,565810550,3670026,-1.2172122,-0.31268275,-10.922827,55.20808,0,0,0,0,5
565813500,565813061,3670026,-0.4271256,-1.2215217,-9.306741,55.20808,0,0,0,0,5
565817260,565816812,3670026,-0.8901642,0.8341399,-9.062532,55.164013,0,0,0,0,5
565820964,565820569,3670026,-1.0658987,-0.9342175,-9.470505,55.252144,0,0,0,0,5
565824714,565824326,3670026,-1.6563088,-0.5386954,-11.140699,55.16891,0,0,0,0,5
565827284,565826834,3670026,-0.79104424,-0.707726,-10.325713,55.222767,0,0,0,0,5
565830965,565830588,3670026,-0.39169142,-0.67085534,-9.414959,55.13464,0,0,0,0,5
565834742,565834347,3670026,-0.7704541,0.9490616,-10.448297,55.212975,0,0,0,0,5
565838493,565838103,3670026,-1.9426553,1.2320563,-10.250056,55.227665,0,0,0,0,5
565842307,565841861,3670026,-1.1224017,-0.18435353,-10.496659,55.217873,0,0,0,0,5
565844777,565844365,3670026,-0.62823856,0.70389533,-9.995314,55.188496,0,0,0,0,5
565848590,565848126,3670026,-2.0379446,0.43478703,-11.26424,55.247246,0,0,0,0,5
565852264,565851879,3670026,-2.033635,0.78529817,-9.815748,55.183598,0,0,0,0,5
565856043,565855637,3670026,-1.5801731,0.60238117,-8.102457,55.183598,0,0,0,0,5
565859789,565859394,3670026,-0.18291701,-0.6483498,-9.265561,55.16891,0,0,0,0,5
565862279,565861898,3670026,-0.9471462,0.23127988,-11.351868,55.198288,0,0,0,0,5
565867328,565866908,3670026,-1.1587937,0.78338283,-10.039367,55.183598,0,0,0,0,5
565871147,565870678,3670026,-1.3005304,1.3335704,-9.977596,55.183598,0,0,0,0,5
565873546,565873170,3670026,-1.1496956,0.67133415,-10.961614,55.23256,0,0,0,0,5
565877331,565876931,3670026,-0.6042965,0.32369608,-11.147882,55.15912,0,0,0,0,5
565879889,565879434,3670026,0.51235914,1.2837709,-9.001719,55.144432,0,0,0,0,5
565883575,565883189,3670026,-1.0433931,0.38498765,-10.125558,55.222767,0,0,0,0,5
565887378,565886947,3670026,-1.8588582,-0.0023942017,-9.883743,55.119953,0,0,0,0,5
565891083,565890704,3670026,-1.4676456,0.7776367,-9.787975,55.23256,0,0,0,0,5
565893603,565893209,3670026,0.14652514,-0.12641385,-8.568369,55.16891,0,0,0,0,5
565897384,565896966,3670026,0.09528923,0.14173675,-10.235212,55.183598,0,0,0,0,5
565901108,565900723,3670026,-0.96773636,-0.72257006,-10.810779,55.188496,0,0,0,0,5
565904871,565904480,3670026,-1.8899828,0.09481039,-10.852917,55.183598,0,0,0,0,5
565908624,565908238,3670026,-0.28299466,0.3797204,-9.662519,55.16891,0,0,0,0,5
565911189,565910742,3670026,-1.388637,1.4168886,-10.402806,55.149326,0,0,0,0,5
565914991,565914499,3670026,-1.1204864,1.7027563,-11.187147,55.188496,0,0,0,0,5
565918643,565918257,3670026,-0.87005293,-0.24133554,-10.621158,55.129745,0,0,0,0,5
565922383,565922014,3670026,-1.1257536,-0.102471836,-10.443987,55.227665,0,0,0,0,5
565927411,565927023,3670026,-0.16184804,2.1035457,-10.632649,55.20808,0,0,0,0,5
565928664,565928277,3670026,-0.4697424,-0.70197994,-9.798031,55.212975,0,0,0,0,5
565932471,565932033,3670026,-0.73885065,-0.049799398,-10.496181,55.173805,0,0,0,0,5
565936195,565935790,3670026,-0.9945514,0.7656657,-10.513418,55.183598,0,0,0,0,5
565939953,565939547,3670026,0.25378537,0.5104438,-9.587341,55.15912,0,0,0,0,5
565943748,565943304,3670026,-1.3742718,0.65696895,-9.9201355,55.13464,0,0,0,0,5
565946200,565945810,3670026,-1.6558299,0.6014235,-10.400413,55.24235,0,0,0,0,5
565949966,565949566,3670026,-1.0333375,-0.48171338,-9.323022,55.20808,0,0,0,0,5
565953726,565953324,3670026,-0.5712565,1.2717999,-9.679278,55.154224,0,0,0,0,5
565957461,565957081,3670026,-0.35769373,-0.42521024,-9.922529,55.237453,0,0,0,0,5
565961242,565960838,3670026,-1.1195288,-0.5736507,-10.808384,55.149326,0,0,0,0,5
565963733,565963344,3670026,-1.103727,-0.034955345,-9.351274,55.296207,0,0,0,0,5
565967484,565967100,3670026,-1.1295844,0.49464208,-9.4470415,55.227665,0,0,0,0,5
565971260,565970862,3670026,-0.08379706,0.41467574,-10.869676,55.178703,0,0,0,0,5
565975006,565974614,3670026,-1.1745954,0.35625723,-11.77229,55.16891,0,0,0,0,5
565978756,565978377,3670026,-1.4867992,0.23463178,-10.641747,55.24235,0,0,0,0,5
565981350,565980880,3670026,-1.346978,-0.20207062,-9.620381,55.164013,0,0,0,0,5
565985036,565984636,3670026,-1.3699622,-0.30166942,-9.797552,55.227665,0,0,0,0,5
565988773,565988391,3670026,-1.1410766,0.38498765,-9.39772,55.183598,0,0,0,0,5
565992516,565992148,3670026,-1.1798626,-0.8312668,-9.645281,55.227665,0,0,0,0,5
565996311,565995906,3670026,-0.8202535,-0.7331046,-9.730993,55.227665,0,0,0,0,5
565998795,565998410,3670026,-0.67133415,0.7216124,-10.343909,55.188496,0,0,0,0,5
566002596,566002168,3670026,-0.5171476,1.6639702,-9.6716175,55.20808,0,0,0,0,5
566008817,566008434,3670026,-1.973301,-0.115879364,-10.964965,55.20808,0,0,0,0,5
566010065,566009682,3670026,-1.0400412,0.11492168,-10.891224,55.124847,0,0,0,0,5
566012649,566012187,3670026,-1.6012421,0.8360552,-10.717883,55.252144,0,0,0,0,5
566016386,566015944,3670026,-0.7024588,0.24325089,-9.041943,55.25704,0,0,0,0,5
566020083,566019701,3670026,-0.9576807,0.19009961,-8.185776,55.203182,0,0,0,0,5
566023891,566023458,3670026,-0.82312655,-0.728795,-9.363723,55.247246,0,0,0,0,5
566027611,566027216,3670026,-0.28060043,-1.1161768,-10.470802,55.188496,0,0,0,0,5
566030159,566029720,3670026,-0.7728483,0.71490866,-9.658689,55.124847,0,0,0,0,5
566033871,566033477,3670026,-0.9279926,-0.13742718,-10.287406,55.15912,0,0,0,0,5
566037622,566037235,3670026,-1.3532028,0.53247046,-10.573752,55.198288,0,0,0,0,5
566041383,566040992,3670026,-0.95385,0.53486466,-9.642887,55.217873,0,0,0,0,5
566045163,566044749,3670026,0.69144547,0.683784,-9.501629,55.13464,0,0,0,0,5
566047669,566047254,3670026,-1.6275784,-0.41850647,-10.2036085,55.119953,0,0,0,0,5
566051464,566051011,3670026,-1.7568653,0.20925324,-9.436028,55.178703,0,0,0,0,5
566055156,566054768,3670026,-1.0778697,-0.5693412,-8.810662,55.198288,0,0,0,0,5
566058929,566058525,3670026,-0.6607997,1.0745177,-8.987833,55.178703,0,0,0,0,5
566062654,566062282,3670026,-0.64499795,0.28491,-9.759245,55.237453,0,0,0,0,5
566065190,566064788,3670026,-1.0654198,0.97970736,-10.341515,55.139534,0,0,0,0,5
566068925,566068545,3670026,-1.604594,0.7776367,-9.226295,55.198288,0,0,0,0,5
566072690,566072302,3670026,-2.276407,0.33087867,-9.527966,55.237453,0,0,0,0,5
566077743,566077311,3670026,-1.0424354,0.018195933,-9.630916,55.203182,0,0,0,0,5
566080265,566079816,3670026,-0.6435614,0.56551045,-10.608229,55.20808,0,0,0,0,5
566082696,566082321,3670026,-1.316811,0.9878476,-11.114842,55.16891,0,0,0,0,5
566089048,566088583,3670026,-0.4414908,1.2785038,-9.323979,55.212975,0,0,0,0,5
566090293,566089835,3670026,-1.3479356,0.24947582,-9.838254,55.129745,0,0,0,0,5
566093967,566093592,3670026,-1.2876017,-0.61291564,-9.203791,55.149326,0,0,0,0,5
566098988,566098602,3670026,-1.5131354,-0.41228154,-9.495883,55.173805,0,0,0,0,5
566100246,566099855,3670026,-1.4073118,0.82169,-9.852619,55.212975,0,0,0,0,5
566103998,566103612,3670026,-1.7132908,-0.9318233,-9.7434435,55.16891,0,0,0,0,5
566110349,566109875,3670026,-0.45968673,-0.21691468,-9.85214,55.25704,0,0,0,0,5
566111515,566111126,3670026,-1.017057,0.3313575,-10.165301,55.164013,0,0,0,0,5
566115331,566114883,3670026,-0.55832785,0.39552212,-9.490137,55.16891,0,0,0,0,5
566117901,566117394,3670026,-1.2995727,0.88585466,-10.448775,55.20808,0,0,0,0,5
566121537,566121145,3670026,-1.2789825,0.47500962,-11.01237,55.212975,0,0,0,0,5
566125287,566124902,3670026,-0.6301539,0.464954,-9.891405,55.15912,0,0,0,0,5
566129157,566128671,3670026,-0.5037401,1.2660539,-7.9702973,55.115055,0,0,0,0,5
566131556,566131165,3670026,-1.7559075,0.23415293,-11.255142,55.164013,0,0,0,0,5
566135359,566134922,3670026,-2.1528661,0.28874072,-11.283873,55.164013,0,0,0,0,5
566139077,566138679,3670026,-0.4544195,1.5859193,-10.7705555,55.188496,0,0,0,0,5
566142889,566142436,3670026,-0.011971009,-0.8236054,-9.359413,55.20808,0,0,0,0,5
566147910,566147449,3670026,-1.0539277,0.22361845,-8.916965,55.222767,0,0,0,0,5
566149138,566148698,3670026,-1.1444284,0.23558944,-11.133996,55.198288,0,0,0,0,5
566152842,566152455,3670026,-0.37876272,0.12641385,-10.293631,55.16891,0,0,0,0,5
566157924,566157465,3670026,0.21883003,-0.61770403,-11.139742,55.203182,0,0,0,0,5
566160384,566159970,3670026,-2.1198263,0.088585466,-9.759245,55.252144,0,0,0,0,5
566164098,566163727,3670026,-1.2291832,-0.2633622,-9.754935,55.222767,0,0,0,0,5
566169118,566168736,3670026,-1.3010092,0.6981492,-10.445423,55.217873,0,0,0,0,5
566170370,566169989,3670026,-0.6607997,0.1733402,-10.972627,55.217873,0,0,0,0,5
566174132,566173746,3670026,-1.3637373,-0.04501099,-11.521378,55.164013,0,0,0,0,5
566177892,566177504,3670026,-1.5289372,0.96199024,-10.567049,55.173805,0,0,0,0,5
566181634,566181260,3670026,-0.27198133,0.10821792,-9.006987,55.183598,0,0,0,0,5
566184141,566183767,3670026,-1.3182474,0.13359645,-10.981246,55.198288,0,0,0,0,5
566187992,566187523,3670026,-1.4360422,0.07805098,-10.772471,55.13464,0,0,0,0,5
566191657,566191280,3670026,-1.0893618,0.5683835,-9.81096,55.24235,0,0,0,0,5
566196677,566196289,3670026,-0.59376204,-1.0500969,-10.034578,55.164013,0,0,0,0,5
566199179,566198794,3670026,-1.5983691,-0.8149863,-9.372342,55.188496,0,0,0,0,5
566201678,566201299,3670026,0.13455413,0.2882619,-10.656592,55.178703,0,0,0,0,5
566208025,566207561,3670026,-1.2354081,-0.12737153,-9.611283,55.149326,0,0,0,0,5
566209277,566208813,3670026,-0.9998186,0.25426424,-10.563218,55.188496,0,0,0,0,5
566213026,566212570,3670026,-0.4639963,0.9011775,-10.3434305,55.129745,0,0,0,0,5
566217964,566217580,3670026,-0.9346964,-0.090500824,-9.19134,55.203182,0,0,0,0,5
566219223,566218840,3670026,-0.87962973,0.7469909,-10.527783,55.212975,0,0,0,0,5
566222978,566222590,3670026,-0.42281604,-0.7757214,-9.712318,55.178703,0,0,0,0,5
566228011,566227599,3670026,-0.6100426,0.5161899,-8.46446,55.217873,0,0,0,0,5
566230580,566230104,3670026,-0.8245631,0.12497733,-10.754275,55.247246,0,0,0,0,5
566234243,566233861,3670026,-1.1104307,-0.62392896,-10.60344,55.164013,0,0,0,0,5
566238006,566237618,3670026,-0.71251446,-1.892377,-9.437465,55.217873,0,0,0,0,5
566240515,566240123,3670026,-1.826297,0.29831752,-10.7466135,55.16891,0,0,0,0,5
566244315,566243881,3670026,-0.9864111,-0.10534488,-11.438539,55.16891,0,0,0,0,5
566248007,566247638,3670026,-0.941879,1.9560628,-10.548853,55.183598,0,0,0,0,5
566251867,566251395,3670026,-0.7517793,0.6909666,-9.314881,55.237453,0,0,0,0,5
566255533,566255152,3670026,-1.4542382,0.6694188,-9.522219,55.306,0,0,0,0,5
566258048,566257657,3670026,-1.4121002,-1.3761872,-11.635342,55.252144,0,0,0,0,5
566261840,566261414,3670026,-1.0639832,-0.464954,-10.6451,55.19339,0,0,0,0,5
566268056,566267677,3670026,-0.8049306,0.009097966,-11.445242,55.217873,0,0,0,0,5
566269325,566268929,3670026,-0.13599066,-0.07996634,-9.736739,55.173805,0,0,0,0,5
566271896,566271433,3670026,-1.250731,1.739627,-9.462843,55.237453,0,0,0,0,5
566275574,566275191,3670026,-0.35051113,1.3603854,-9.696996,55.25704,0,0,0,0,5
566279395,566278948,3670026,-0.39552212,0.13838486,-9.119036,55.222767,0,0,0,0,5
566283090,566282705,3670026,-1.6543934,0.42425254,-10.952037,55.198288,0,0,0,0,5
566285611,566285210,3670026,-1.0414778,0.05554548,-10.2514925,55.217873,0,0,0,0,5
566289367,566288970,3670026,-0.42808327,0.54635686,-7.69257,55.217873,0,0,0,0,5
566293103,566292724,3670026,-0.13455413,1.2847286,-8.591832,55.20808,0,0,0,0,5
566296870,566296481,3670026,-1.3508086,-1.0548853,-11.287225,55.212975,0,0,0,0,5
566300614,566300238,3670026,-0.7331046,-1.3062764,-11.110054,55.217873,0,0,0,0,5
566304382,566303996,3670026,-0.9150639,0.50709194,-10.038409,55.217873,0,0,0,0,5
566308216,566307755,3670026,-0.42521024,-0.7359776,-8.832211,55.227665,0,0,0,0,5
566310733,566310258,3670026,-0.71012026,0.7867347,-10.802159,55.276623,0,0,0,0,5
566314427,566314016,3670026,-1.4077907,-0.6373365,-11.541489,55.237453,0,0,0,0,5
566318171,566317780,3670026,-1.0855311,-0.6220136,-9.010339,55.29131,0,0,0,0,5
566320670,566320277,3670026,-1.7252618,-0.44292733,-11.154586,55.24235,0,0,0,0,5
566324428,566324034,3670026,-1.2272679,0.71873933,-9.682152,55.23256,0,0,0,0,5
566328200,566327791,3670026,-0.27437553,0.28395233,-8.25042,55.261932,0,0,0,0,5
566331941,566331555,3670026,-0.48745948,0.16950949,-9.406818,55.26683,0,0,0,0,5
566335680,566335306,3670026,-0.9054871,0.41754878,-9.615593,55.203182,0,0,0,0,5
566339438,566339063,3670026,-0.9414001,0.4189853,-10.182061,55.261932,0,0,0,0,5
566341959,566341568,3670026,-0.62392896,0.61291564,-9.502108,55.28641,0,0,0,0,5
566345794,566345325,3670026,-1.2665327,0.38498765,-9.277532,55.252144,0,0,0,0,5
566349529,566349082,3670026,-0.6722919,0.24756046,-9.426451,55.29131,0,0,0,0,5
566353308,566352839,3670026,-1.1128249,-0.23894133,-10.56657,55.23256,0,0,0,0,5
566355737,566355344,3670026,-1.1851299,1.0726024,-11.451945,55.23256,0,0,0,0,5
566359475,566359101,3670026,-0.51188034,-0.6014235,-8.870039,55.276623,0,0,0,0,5
566363242,566362859,3670026,-1.3421894,0.66846114,-9.140583,55.26683,0,0,0,0,5
566368321,566367869,3670026,-1.8531121,1.067814,-8.9887905,55.276623,0,0,0,0,5
566370776,566370373,3670026,-0.9624691,-0.7374141,-11.159374,55.261932,0,0,0,0,5
566373258,566372878,3670026,-0.65936315,1.2181698,-10.208397,55.25704,0,0,0,0,5
566377085,566376635,3670026,-1.7348386,-0.4271256,-9.60458,55.222767,0,0,0,0,5
566380788,566380392,3670026,-0.6919243,0.1436521,-9.589257,55.310894,0,0,0,0,5
566384517,566384149,3670026,-0.70916253,0.6205771,-10.337685,55.237453,0,0,0,0,5
566388337,566387907,3670026,-0.9045294,0.14748283,-9.132922,55.24235,0,0,0,0,5
566390808,566390411,3670026,-0.7278373,0.55832785,-9.6017065,55.227665,0,0,0,0,5
566394543,566394169,3670026,-1.0582372,-0.18818426,-11.432792,55.252144,0,0,0,0,5
566398349,566397926,3670026,-0.88393927,0.16041152,-10.271605,55.281517,0,0,0,0,5
566402154,566401692,3670026,-1.6510415,0.18243816,-8.540596,55.26683,0,0,0,0,5
566405859,566405442,3670026,-0.4204218,0.5856217,-8.018661,55.276623,0,0,0,0,5
566408400,566407945,3670026,-0.9131485,-0.21068975,-10.850043,55.222767,0,0,0,0,5
566412173,566411702,3670026,-0.5755661,0.07805098,-11.172303,55.25704,0,0,0,0,5
566415868,566415459,3670026,-0.11971009,-0.6871359,-8.745061,55.281517,0,0,0,0,5
566419615,566419217,3670026,-0.8145074,-0.08331822,-9.438901,55.271725,0,0,0,0,5
566423365,566422974,3670026,-1.2296621,0.4592079,-10.164823,55.28641,0,0,0,0,5
566425871,566425479,3670026,-0.43622357,-0.34811693,-10.074322,55.28641,0,0,0,0,5
566429611,566429236,3670026,-0.8078037,0.97539777,-9.371863,55.26683,0,0,0,0,5
566433393,566432993,3670026,-1.9996372,-0.8619126,-10.942459,55.3011,0,0,0,0,5
566438370,566438003,3670026,-1.6400282,1.580652,-10.418609,55.247246,0,0,0,0,5
566439634,566439255,3670026,-1.5136143,-0.52863973,-9.19996,55.23256,0,0,0,0,5
566443437,566443012,3670026,-1.1243172,-0.35865143,-11.375331,55.247246,0,0,0,0,5
566448475,566448022,3670026,-1.0611103,0.113964,-10.022607,55.203182,0,0,0,0,5
566450924,566450527,3670026,-1.5351621,0.96438444,-10.6858015,55.28641,0,0,0,0,5
566454704,566454284,3670026,-0.40318358,2.0192697,-8.3390045,55.261932,0,0,0,0,5
566458412,566458041,3670026,0.5875371,0.5928044,-8.465898,55.310894,0,0,0,0,5
566460951,566460546,3670026,-1.7630901,1.3139379,-10.490913,55.335373,0,0,0,0,5
566464684,566464303,3670026,-1.0754755,-0.70437413,-10.023565,55.350063,0,0,0,0,5
566468505,566468062,3670026,-1.0879253,0.28060043,-10.469844,55.26683,0,0,0,0,5
566473507,566473070,3670026,-0.7541735,0.98018616,-9.508812,55.271725,0,0,0,0,5
566474710,566474322,3670026,-0.5980716,0.6698976,-10.138487,55.306,0,0,0,0,5
566478488,566478080,3670026,-0.4118027,1.2574347,-10.538319,55.28641,0,0,0,0,5
566483508,566483089,3670026,-0.8925584,-0.15993267,-10.35157,55.261932,0,0,0,0,5
566486000,566485594,3670026,-1.0529699,0.64978635,-9.844,55.237453,0,0,0,0,5
566489825,566489353,3670026,-1.2330139,1.2660539,-10.066661,55.25704,0,0,0,0,5
566492251,566491856,3670026,-0.6205771,0.5683835,-10.184455,55.20808,0,0,0,0,5
566496014,566495613,3670026,-1.0213665,-0.76231384,-9.357977,55.237453,0,0,0,0,5
566499771,566499370,3670026,-2.2222981,0.2504335,-9.739134,55.227665,0,0,0,0,5
566503565,566503129,3670026,-1.850239,-1.4925454,-10.004412,55.335373,0,0,0,0,5
566508583,566508137,3670026,-1.2694057,0.64020956,-10.077195,55.252144,0,0,0,0,5
566509866,566509390,3670026,-0.65936315,0.9471462,-10.328587,55.3011,0,0,0,0,5
566513581,566513148,3670026,-1.6893487,1.07356,-10.14519,55.25704,0,0,0,0,5
566517279,566516904,3670026,-1.1530476,1.1990162,-10.213665,55.3011,0,0,0,0,5
566521091,566520678,3670026,-0.8738836,0.93086565,-11.009976,55.29131,0,0,0,0,5
566524800,566524418,3670026,-0.015801731,0.2964022,-9.549992,55.34027,0,0,0,0,5
566527329,566526923,3670026,-1.8507179,-0.02633622,-9.812875,55.276623,0,0,0,0,5
566531078,566530683,3670026,-2.210806,0.44532153,-10.50049,55.296207,0,0,0,0,5
566534831,566534438,3670026,-0.6076484,0.8762778,-9.95126,55.354958,0,0,0,0,5
566538571,566538195,3670026,-0.6526594,0.20638019,-9.074983,55.38923,0,0,0,0,5
566542402,566541953,3670026,-0.06895301,-1.0970232,-9.1544695,55.335373,0,0,0,0,5
566544893,566544457,3670026,-1.5332468,0.5827487,-10.998005,55.315792,0,0,0,0,5
566548651,566548214,3670026,-0.9246407,1.5773001,-10.138487,55.310894,0,0,0,0,5
566552411,566551973,3670026,-0.22026657,0.37349546,-8.6095495,55.227665,0,0,0,0,5
566556129,566555729,3670026,-1.2004528,0.20159179,-10.17009,55.3011,0,0,0,0,5
566558612,566558234,3670026,-1.0635045,1.1046847,-10.995611,55.23256,0,0,0,0,5
566562430,566561991,3670026,-0.48458642,-1.0845734,-9.935937,55.310894,0,0,0,0,5
566566129,566565748,3670026,-0.66606694,0.47979802,-9.026619,55.3011,0,0,0,0,5
566569913,566569505,3670026,-2.057577,0.61195797,-9.589257,55.335373,0,0,0,0,5
566573635,566573262,3670026,-1.1674128,-0.14221558,-10.2036085,55.345165,0,0,0,0,5
566578725,566578273,3670026,-1.6357186,1.1152191,-10.065702,55.335373,0,0,0,0,5
566579944,566579540,3670026,-0.932781,-0.058418524,-11.285309,55.325584,0,0,0,0,5
566583677,566583281,3670026,-1.4901512,-0.95480764,-10.868239,55.320686,0,0,0,0,5
566588737,566588291,3670026,-1.2138603,0.0014365211,-10.395624,55.33048,0,0,0,0,5
566592443,566592048,3670026,-1.8794484,-0.09576807,-10.091082,55.345165,0,0,0,0,5
566593677,566593301,3670026,-1.0208876,1.7070658,-11.369106,55.354958,0,0,0,0,5
566598702,566598310,3670026,-0.1886631,-0.5693412,-10.698251,55.25704,0,0,0,0,5
566603720,566603321,3670026,-0.42904094,-0.23894133,-9.508333,55.28641,0,0,0,0,5
566604955,566604572,3670026,-0.89064306,0.041180268,-9.9182205,55.320686,0,0,0,0,5
566608777,566608331,3670026,-1.1180922,0.7369353,-8.931809,55.3011,0,0,0,0,5
566611269,566610834,3670026,-0.6679823,0.4568137,-10.59961,55.310894,0,0,0,0,5
566615021,566614592,3670026,-0.21404164,0.6181829,-11.427525,55.271725,0,0,0,0,5
566618729,566618351,3670026,-0.78769237,-1.7697939,-9.917741,55.25704,0,0,0,0,5
566622490,566622106,3670026,-1.2526463,-1.2593501,-9.071152,55.310894,0,0,0,0,5
566626237,566625863,3670026,-1.6223111,0.8738836,-9.479123,55.217873,0,0,0,0,5
566628787,566628374,3670026,-1.1008539,1.2670115,-10.753318,55.296207,0,0,0,0,5
566632564,566632135,3670026,0.28634652,0.31076738,-9.453745,55.25704,0,0,0,0,5
566636320,566635883,3670026,-0.9528923,0.5975928,-10.493307,55.33048,0,0,0,0,5
566640048,566639640,3670026,-1.5911865,-0.69383967,-9.879913,55.28641,0,0,0,0,5
566643838,566643397,3670026,-1.8090588,0.63111156,-9.701305,55.227665,0,0,0,0,5
566646327,566645902,3670026,-0.10151415,0.1910573,-11.286267,55.271725,0,0,0,0,5
566651364,566650911,3670026,-1.0079589,-0.9557653,-8.947132,55.247246,0,0,0,0,5
566653795,566653416,3670026,-1.0568006,0.09528923,-11.651143,55.26683,0,0,0,0,5
566657569,566657173,3670026,-0.4592079,-0.4414908,-11.066958,55.315792,0,0,0,0,5
566661317,566660931,3670026,-0.5176264,0.90979666,-9.388144,55.320686,0,0,0,0,5
566663831,566663435,3670026,-1.4973338,-0.21978772,-10.123643,55.369644,0,0,0,0,5
566668890,566668445,3670026,-0.8192958,1.199974,-9.651027,55.335373,0,0,0,0,5
566671329,566670950,3670026,-0.8365341,0.8504205,-10.724109,55.296207,0,0,0,0,5
566675151,566674708,3670026,-0.88777,-0.19009961,-9.693165,55.296207,0,0,0,0,5
566677685,566677212,3670026,-1.4834474,-0.3371036,-11.498872,55.247246,0,0,0,0,5
566681381,566680969,3670026,-1.6644491,-0.740766,-10.517728,55.3011,0,0,0,0,5
566685123,566684727,3670026,-1.1286267,1.595496,-10.368809,55.34027,0,0,0,0,5
566688879,566688484,3670026,1.1209652,0.578918,-8.613859,55.306,0,0,0,0,5
566692632,566692241,3670026,-0.8384494,0.7757214,-10.603919,55.276623,0,0,0,0,5
566695140,566694746,3670026,-1.7511191,0.29927522,-10.373118,55.261932,0,0,0,0,5
566698903,566698503,3670026,-0.4462792,-1.0817003,-9.71184,55.320686,0,0,0,0,5
566702640,566702260,3670026,-0.4189853,-0.31555578,-9.138189,55.335373,0,0,0,0,5
566706447,566706017,3670026,-1.1161768,-0.31842884,-10.708306,55.315792,0,0,0,0,5
566710155,566709774,3670026,-1.4743494,-0.47788265,-11.167515,55.271725,0,0,0,0,5
566712725,566712279,3670026,-0.76231384,0.533907,-9.039548,55.227665,0,0,0,0,5
566716491,566716037,3670026,-0.6655881,-0.40653545,-11.039664,55.306,0,0,0,0,5
566720213,566719794,3670026,-0.57029885,0.2647987,-10.788752,55.261932,0,0,0,0,5
566723959,566723551,3670026,-1.3508086,0.24899697,-10.378386,55.306,0,0,0,0,5
566730269,566729815,3670026,-1.3814543,-0.14317326,-10.473196,55.276623,0,0,0,0,5
566731479,566731066,3670026,-0.9222465,0.6014235,-9.954612,55.24235,0,0,0,0,5
566733968,566733570,3670026,-2.1303606,0.19536686,-10.29794,55.276623,0,0,0,0,5
566737714,566737327,3670026,-0.49081135,-0.47022122,-9.2722645,55.24235,0,0,0,0,5
566741539,566741091,3670026,-0.35529953,0.8360552,-10.425312,55.247246,0,0,0,0,5
566745220,566744842,3670026,-0.818817,-0.26958713,-9.520782,55.34027,0,0,0,0,5
566748995,566748599,3670026,-1.0041282,0.23271641,-9.740091,55.26683,0,0,0,0,5
566751550,566751104,3670026,-1.1626244,0.7417237,-11.156022,55.19339,0,0,0,0,5
566755236,566754861,3670026,-1.1372458,0.15466543,-10.146148,55.23256,0,0,0,0,5
566759028,566758618,3670026,0.034955345,1.0151415,-8.754159,55.29131,0,0,0,0,5
566762779,566762375,3670026,-0.78290397,0.28395233,-10.902237,55.320686,0,0,0,0,5
566765269,566764880,3670026,-2.0657172,1.1635821,-10.395145,55.320686,0,0,0,0,5
566770332,566769890,3670026,-1.8756176,-0.49224788,-10.510546,55.222767,0,0,0,0,5
566772801,566772395,3670026,-1.3364434,0.77907324,-9.836817,55.281517,0,0,0,0,5
566776607,566776152,3670026,-0.54204726,-0.17764977,-9.632832,55.26683,0,0,0,0,5
566780292,566779909,3670026,-0.68330514,0.31747115,-10.427706,55.276623,0,0,0,0,5
566782842,566782414,3670026,-1.0251971,-0.3466804,-10.753318,55.29131,0,0,0,0,5
566786592,566786173,3670026,-0.97156703,-1.0658987,-9.483433,55.237453,0,0,0,0,5
566790387,566789932,3670026,-1.5816096,0.5707777,-9.989088,55.198288,0,0,0,0,5
566794051,566793685,3670026,-1.5825673,0.24133554,-10.93001,55.24235,0,0,0,0,5
566796583,566796190,3670026,-0.3466804,0.090500824,-9.11329,55.23256,0,0,0,0,5
566800324,566799947,3670026,-1.5006857,0.9016564,-9.600749,55.237453,0,0,0,0,5
566804079,566803705,3670026,-2.264436,0.11683705,-10.658029,55.26683,0,0,0,0,5
566810413,566809970,3670026,0.25091234,0.0062249247,-9.383355,55.252144,0,0,0,0,5
566811656,566811219,3670026,-1.0649409,1.8751388,-8.9040365,55.19339,0,0,0,0,5
566814163,566813724,3670026,-0.45729253,-0.24899697,-12.058637,55.296207,0,0,0,0,5
566819133,566818733,3670026,-0.7283162,-0.3500323,-10.624989,55.217873,0,0,0,0,5
566821635,566821238,3670026,-1.6203958,0.4271256,-10.817961,55.26683,0,0,0,0,5
566825374,566824996,3670026,0.09864111,-1.5519216,-8.14268,55.212975,0,0,0,0,5
566829173,566828753,3670026,-0.6861782,0.31172505,-9.104671,55.203182,0,0,0,0,5
566831697,566831257,3670026,-1.4762648,0.7896077,-11.6319895,55.252144,0,0,0,0,5
566835397,566835014,3670026,-1.0754755,0.78146744,-10.568964,55.252144,0,0,0,0,5
566839196,566838773,3670026,-0.62249243,0.3265691,-9.734345,55.3011,0,0,0,0,5
566842991,566842531,3670026,-1.0898407,-0.33039984,-9.717586,55.25704,0,0,0,0,5
566846707,566846286,3670026,-1.55671,0.25474307,-9.62517,55.23256,0,0,0,0,5
566850433,566850043,3670026,-0.8082825,0.19249383,-9.780314,55.183598,0,0,0,0,5
566853040,566852548,3670026,-1.4015657,0.662715,-11.079408,55.178703,0,0,0,0,5
566856725,566856306,3670026,-1.0175357,-0.36870706,-10.862972,55.222767,0,0,0,0,5
566860459,566860063,3670026,-1.0773908,0.63111156,-9.613678,55.252144,0,0,0,0,5
566864215,566863820,3670026,-0.8331822,0.7110779,-8.27915,55.203182,0,0,0,0,5
566866729,566866325,3670026,-1.4211981,-0.863828,-10.707349,55.198288,0,0,0,0,5
566870523,566870082,3670026,-1.9124883,1.6132132,-11.3815565,55.198288,0,0,0,0,5
566874220,566873840,3670026,-1.2220006,1.2200851,-9.99244,55.178703,0,0,0,0,5
566879324,566878849,3670026,-1.4374787,0.6421249,-10.730333,55.188496,0,0,0,0,5
566881811,566881354,3670026,-0.9174581,-1.32543,-8.96054,55.203182,0,0,0,0,5
566884241,566883868,3670026,-0.81642276,-0.26910827,-11.066,55.13464,0,0,0,0,5
566889250,566888868,3670026,0.22984336,-0.37110126,-9.081207,55.19339,0,0,0,0,5
566891749,566891373,3670026,-1.4949396,0.521936,-11.294886,55.203182,0,0,0,0,5
566895501,566895130,3670026,-1.346978,-0.707726,-9.858365,55.198288,0,0,0,0,5
566899272,566898887,3670026,-1.0692505,-0.26862943,-8.680418,55.26683,0,0,0,0,5
566901780,566901392,3670026,-0.7785944,-0.33854014,-11.382514,55.198288,0,0,0,0,5
566905543,566905149,3670026,-1.2646173,-1.4958973,-10.748529,55.144432,0,0,0,0,5
566909319,566908907,3670026,-1.5332468,0.8106767,-10.099701,55.188496,0,0,0,0,5
566913143,566912665,3670026,-1.4427459,-1.448492,-10.182061,55.173805,0,0,0,0,5
566915603,566915169,3670026,-0.45298296,0.716824,-9.339302,55.26683,0,0,0,0,5
566919316,566918926,3670026,-0.12066777,-0.47931919,-10.58285,55.23256,0,0,0,0,5
566923083,566922683,3670026,-0.48219222,-0.37588966,-10.022128,55.149326,0,0,0,0,5
566929381,566928945,3670026,-1.0563219,0.6014235,-10.489476,55.20808,0,0,0,0,5
566930654,566930197,3670026,-1.4930242,0.49416324,-10.798328,55.19339,0,0,0,0,5
566934326,566933954,3670026,-0.5813122,0.22744916,-10.720278,55.198288,0,0,0,0,5
566939348,566938964,3670026,-1.13964,0.28921956,-11.397358,55.129745,0,0,0,0,5
566940602,566940217,3670026,-1.9531897,-0.32130188,-11.369585,55.28641,0,0,0,0,5
566944397,566943973,3670026,-1.4882358,-0.09624691,-11.130165,55.237453,0,0,0,0,5
566949473,566948989,3670026,-0.35290533,-0.31794998,-11.007582,55.203182,0,0,0,0,5
566950657,566950236,3670026,-0.66127855,0.97491896,-10.477984,55.144432,0,0,0,0,5
566954392,566953993,3670026,-0.67612255,0.22649148,-11.575965,55.164013,0,0,0,0,5
566958154,566957750,3670026,-1.5088259,0.2576161,-11.038228,55.188496,0,0,0,0,5
566961899,566961507,3670026,-0.24181437,-0.87196827,-9.8961935,55.237453,0,0,0,0,5
566965650,566965264,3670026,1.2124238,0.8580819,-10.769598,55.203182,0,0,0,0,5
566970665,566970274,3670026,-0.44005427,-0.74603325,-10.232819,55.154224,0,0,0,0,5
566971929,566971526,3670026,-0.79583263,0.58418524,-9.425972,55.183598,0,0,0,0,5
566975747,566975283,3670026,-1.9718646,-0.56072205,-11.255621,55.178703,0,0,0,0,5
566979410,566979041,3670026,-0.59184664,-0.9816227,-9.495883,55.188496,0,0,0,0,5
566983180,566982798,3670026,-0.47740382,0.13982138,-10.448297,55.222767,0,0,0,0,5
566986950,566986556,3670026,-2.1049821,-1.7645267,-10.431058,55.164013,0,0,0,0,5
566989503,566989060,3670026,-1.6759412,-1.3570335,-10.077674,55.115055,0,0,0,0,5
566993211,566992817,3670026,-3.5017595,-0.69479734,-9.755893,55.173805,0,0,0,0,5
566997053,566996574,3670026,-0.46016556,1.4738706,-12.01602,55.173805,0,0,0,0,5
567000723,567000332,3670026,0.78817123,0.42760444,-10.125079,55.129745,0,0,0,0,5
567003287,567002836,3670026,0.30933085,0.3572149,-8.443392,55.178703,0,0,0,0,5
567006976,567006593,3670026,-4.465665,-0.19249383,-12.191754,55.129745,0,0,0,0,5
567010737,567010351,3670026,-0.7000646,-0.78146744,-8.887755,55.198288,0,0,0,0,5
567014583,567014108,3670026,-1.5514427,2.4703374,-10.482294,55.212975,0,0,0,0,5
567019524,567019118,3670026,-0.079008654,-2.9233203,-9.284235,55.252144,0,0,0,0,5
567020845,567020370,3670026,-2.4210167,1.1506534,-10.550289,55.105267,0,0,0,0,5
567024506,567024127,3670026,3.0818164,-0.76949644,-7.063374,55.129745,0,0,0,0,5
567028303,567027884,3670026,4.0797195,-4.5044513,-14.173196,55.149326,0,0,0,0,5
567032026,567031641,3670026,0.51427454,-2.9735985,-11.354741,55.164013,0,0,0,0,5
567035781,567035398,3670026,2.76243,1.1994951,-6.9197216,55.183598,0,0,0,0,5
567039533,567039156,3670026,3.28676,3.9489963,-11.219708,55.20808,0,0,0,0,5
567042050,567041661,3670026,-3.908295,3.0516496,-3.554432,55.173805,0,0,0,0,5
567045868,567045418,3670026,-6.565859,8.615774,-11.285309,55.15912,0,0,0,0,5
567049560,567049175,3670026,-2.129403,2.8682537,-9.172187,55.154224,0,0,0,0,5
567052072,567051680,3670026,2.9084764,2.3017855,-7.20128,55.15912,0,0,0,0,5
567055838,567055437,3670026,-0.6220136,0.31124622,-9.759724,55.227665,0,0,0,0,5
567059583,567059194,3670026,-1.2981362,-0.80301523,0.43766007,55.212975,0,0,0,0,5
567063350,567062955,3670026,-3.3030407,-0.8686164,-15.491443,55.139534,0,0,0,0,5
567067146,567066709,3670026,-0.929908,0.4879383,-14.2842865,55.115055,0,0,0,0,5
567070849,567070466,3670026,-3.3901896,-2.9865272,-10.483252,55.115055,0,0,0,0,5
567073419,567072971,3670026,2.237142,-0.9969456,-17.047195,55.149326,0,0,0,0,5
567077224,567076729,3670026,-0.6818687,-3.7359123,-9.629958,55.066093,0,0,0,0,5
567080873,567080485,3670026,-0.8829816,0.62871736,-10.749487,55.19339,0,0,0,0,5
567084618,567084242,3670026,-1.5825673,-4.3679814,-9.9594,55.090576,0,0,0,0,5
567087135,567086747,3670026,-0.47405195,8.670362,-5.710171,55.154224,0,0,0,0,5
567091006,567090505,3670026,-1.6400282,-1.1252748,-9.789891,55.178703,0,0,0,0,5
567094665,567094262,3670026,-1.9924546,-1.7650055,-15.656164,55.178703,0,0,0,0,5
567099700,567099277,3670026,-2.7341783,4.694072,-6.5218053,55.16891,0,0,0,0,5
567102244,567101776,3670026,2.5139117,2.426284,-8.862856,55.164013,0,0,0,0,5
567105948,567105533,3670026,1.109952,3.883874,-12.329182,55.154224,0,0,0,0,5
567109675,567109290,3670026,-1.23876,5.162378,1.7204734,55.139534,0,0,0,0,5
567112172,567111795,3670026,2.2452824,1.715685,-8.738836,55.164013,0,0,0,0,5
567116018,567115552,3670026,-2.8682537,4.704128,1.68887,55.178703,0,0,0,0,5
567119787,567119309,3670026,-5.288313,6.5347342,-10.699688,55.13464,0,0,0,0,5
567122196,567121815,3670026,-1.2574347,3.338475,-4.9536033,55.11016,0,0,0,0,5
567125968,567125571,3670026,-3.3930626,0.5808333,-6.6716824,55.183598,0,0,0,0,5
567129722,567129329,3670026,1.4618995,3.6976051,-16.769947,55.16891,0,0,0,0,5
567133475,567133086,3670026,-2.638889,2.7930758,-8.836999,55.144432,0,0,0,0,5
567137224,567136843,3670026,-3.8144422,0.18004397,-8.258559,55.13464,0,0,0,0,5
567139747,567139348,3670026,-0.830788,-1.8737023,-6.868007,55.154224,0,0,0,0,5
567143555,567143105,3670026,-5.95007,0.20733787,-13.283989,55.198288,0,0,0,0,5
567147305,567146862,3670026,2.5948358,3.0286653,-12.661975,55.16891,0,0,0,0,5
567151086,567150619,3670026,0.5736507,3.2910697,-10.858184,55.164013,0,0,0,0,5
567154833,567154377,3670026,-5.800672,2.0077775,-8.790072,55.090576,0,0,0,0,5
567157270,567156881,3670026,0.5875371,0.32609028,-8.429027,55.129745,0,0,0,0,5
567161032,567160639,3670026,-3.2910697,-4.5422797,-14.110467,55.13464,0,0,0,0,5
567164780,567164396,3670026,-1.7041928,0.96677864,-7.0322495,55.222767,0,0,0,0,5
567169846,567169405,3670026,-1.7132908,-2.0628443,-4.031357,55.080784,0,0,0,0,5
567172330,567171913,3670026,-1.0539277,4.2396526,-11.364797,55.075886,0,0,0,0,5
567174799,567174417,3670026,-5.612009,0.44532153,-11.967178,55.15912,0,0,0,0,5
567179875,567179424,3670026,-0.37828386,0.23798366,-10.639354,55.119953,0,0,0,0,5
567182307,567181929,3670026,-0.012928689,0.27389666,-17.060123,55.066093,0,0,0,0,5
567186073,567185686,3670026,0.96151143,1.7688363,-8.829816,55.115055,0,0,0,0,5
567189903,567189444,3670026,-4.0409336,2.600582,-12.464214,55.129745,0,0,0,0,5
567192336,567191949,3670026,-0.6315904,-6.4322624,-17.515501,55.080784,0,0,0,0,5
567196081,567195705,3670026,-1.0994174,-7.141904,-7.7011895,55.075886,0,0,0,0,5
567199843,567199463,3670026,-6.3987436,0.5837064,-3.055959,55.07099,0,0,0,0,5
567203623,567203220,3670026,6.754522,0.5602432,-11.071268,55.15912,0,0,0,0,5
567206120,567205725,3670026,-4.5839386,2.6724079,-14.038162,55.090576,0,0,0,0,5
567209901,567209482,3670026,0.9481039,-2.0685904,-20.708887,55.046513,0,0,0,0,5
567213690,567213239,3670026,-1.199974,1.9503168,-10.326192,55.11016,0,0,0,0,5
567217390,567216996,3670026,3.6894648,4.06296,-7.353072,55.01224,0,0,0,0,5
567221146,567220753,3670026,2.198835,1.7841592,-14.429375,55.026928,0,0,0,0,5
567223655,567223259,3670026,-1.1032481,-4.4565673,-4.9559975,55.13464,0,0,0,0,5
567227433,567227030,3670026,-2.108334,-3.4601004,-12.441709,55.115055,0,0,0,0,5
567231229,567230773,3670026,-2.690604,2.1408951,-4.7070007,55.09547,0,0,0,0,5
567234916,567234530,3670026,0.5951986,-0.99167836,-25.363214,55.08568,0,0,0,0,5
567239918,567239539,3670026,3.092351,0.49416324,-8.765652,54.9388,0,0,0,0,5
567241184,567240792,3670026,0.31603462,1.1745954,-16.67753,55.056305,0,0,0,0,5
567245011,567244549,3670026,-2.7217286,1.5524004,3.60471,55.066093,0,0,0,0,5
567249991,567249560,3670026,-5.1513643,-2.4243686,-2.012566,55.075886,0,0,0,0,5
567252469,567252064,3670026,4.294719,2.2017078,-15.781141,55.03672,0,0,0,0,5
567256210,567255820,3670026,-9.442253,5.4669204,-5.467399,55.115055,0,0,0,0,5
567259978,567259578,3670026,3.8991969,4.415866,-8.967243,55.090576,0,0,0,0,5
567262497,567262083,3670026,-7.5795636,6.1588445,-7.4483614,55.026928,0,0,0,0,5
567266220,567265840,3670026,1.7314867,7.4407,-10.595779,54.992657,0,0,0,0,5
567270003,567269597,3670026,0.52385134,0.5602432,-11.236467,55.056305,0,0,0,0,5
567273745,567273354,3670026,-7.977001,-6.2579646,-17.587807,55.031826,0,0,0,0,5
567276295,567275859,3670026,4.220499,3.0746338,-9.790849,55.01224,0,0,0,0,5
567280006,567279619,3670026,-4.918169,3.1311371,-11.319307,55.07099,0,0,0,0,5
567283796,567283373,3670026,1.5361198,-8.652166,-3.1862037,55.031826,0,0,0,0,5
567287523,567287130,3670026,-1.6021998,-7.342538,-27.064056,54.977966,0,0,0,0,5
567291333,567290887,3670026,-2.6570852,7.339186,-0.52863973,54.992657,0,0,0,0,5
567293843,567293394,3670026,3.2288206,-8.864292,-25.713247,54.997555,0,0,0,0,5
567297525,567297149,3670026,-3.971023,-3.6257792,-9.231084,54.997555,0,0,0,0,5
567301283,567300907,3670026,-1.7262194,6.0127983,3.0272286,55.01224,0,0,0,0,5
567305046,567304666,3670026,-0.9840169,-0.6421249,-37.14652,54.90453,0,0,0,0,5
567307547,567307169,3670026,-5.375941,1.673547,1.049618,54.948593,0,0,0,0,5
567311357,567310926,3670026,8.660786,3.3672054,-23.126553,54.958385,0,0,0,0,5
567315126,567314684,3670026,-2.0149603,0.46686932,-11.27286,54.86536,0,0,0,0,5
567320090,567319693,3670026,-5.3936577,1.514572,-2.89459,54.953487,0,0,0,0,5
567322598,567322197,3670026,6.001306,-1.1008539,-26.4023,54.884945,0,0,0,0,5
567325118,567324702,3670026,-5.9768853,4.388093,-0.47070006,54.845776,0,0,0,0,5
567330189,567329717,3670026,-1.0342952,7.2486854,7.246291,54.860466,0,0,0,0,5
567332614,567332217,3670026,-2.6623523,-12.236765,-39.000587,54.860466,0,0,0,0,5
567336379,567335974,3670026,-6.121495,3.136883,1.0175357,54.90453,0,0,0,0,5
567340114,567339731,3670026,1.4274231,2.1691468,-9.292376,54.80661,0,0,0,0,5
567343957,567343488,3670026,-0.87915087,-4.8267107,-35.400665,54.821297,0,0,0,0,5
567346416,567345994,3670026,-0.10869676,-0.61243683,-7.309498,54.835987,0,0,0,0,5
567350206,567349759,3670026,2.6082435,-8.131187,-34.415215,54.826195,0,0,0,0,5
567353916,567353507,3670026,-4.9895163,-5.0168104,-12.677299,54.835987,0,0,0,0,5
567357648,567357264,3670026,1.3814543,0.8145074,25.846844,54.78213,0,0,0,0,5
567360151,567359769,3670026,-4.9210424,2.7356148,-41.265984,54.826195,0,0,0,0,5
567363951,567363526,3670026,-2.8869286,1.343626,1.0941502,54.78213,0,0,0,0,5
567367729,567367283,3670026,4.7979803,5.98311,-6.616137,54.796818,0,0,0,0,5
567371427,567371041,3670026,2.1078553,-3.8115692,-37.31507,54.75765,0,0,0,0,5
567375184,567374798,3670026,-2.6168625,-2.036029,-2.2189462,54.752754,0,0,0,0,5
567377753,567377303,3670026,-0.3145981,1.4350845,-28.695944,54.723377,0,0,0,0,5
567382687,567382312,3670026,2.6503813,-6.642473,-38.97186,54.76744,0,0,0,0,5
567385213,567384817,3670026,2.123657,3.9456444,20.843441,54.74296,0,0,0,0,5
567390267,567389828,3670026,9.4968405,7.8793178,26.330473,54.78213,0,0,0,0,5
567392712,567392331,3670026,-7.693049,-7.2980056,-46.06109,54.649937,0,0,0,0,5
567395205,567394836,3670026,10.97119,4.1400537,30.662542,54.762547,0,0,0,0,5
567400264,567399845,3670026,5.5349154,7.1744647,14.193307,54.703796,0,0,0,0,5
567402740,567402350,3670026,-3.4337642,-7.5953655,-36.586277,54.65973,0,0,0,0,5
567406485,567406107,3670026,13.050315,-0.4663905,19.94753,54.73317,0,0,0,0,5
567410261,567409864,3670026,-7.538862,2.0925324,-17.295713,54.703796,0,0,0,0,5
567412849,567412369,3670026,-1.3354857,-1.646732,-27.596048,54.6989,0,0,0,0,5
567416576,567416127,3670026,0.49176905,-2.7284322,17.20665,54.664627,0,0,0,0,5
567420264,567419883,3670026,-13.041696,0.20829555,-35.938404,54.66952,0,0,0,0,5
567424051,567423640,3670026,10.48373,-1.9804837,-12.025597,54.63525,0,0,0,0,5
567427811,567427400,3670026,-3.1723173,-5.61153,-28.231468,54.68911,0,0,0,0,5
567430374,567429903,3670026,-2.2936451,1.6486473,-30.5888,54.67442,0,0,0,0,5
567434039,567433659,3670026,7.275979,0.4271256,-11.500309,54.60098,0,0,0,0,5
567437813,567437417,3670026,-5.868667,-6.07409,-29.415163,54.65973,0,0,0,0,5
567441556,567441174,3670026,-1.7539922,-2.0738575,13.458286,54.59119,0,0,0,0,5
567444114,567443680,3670026,4.8401184,-0.79726917,-29.72593,54.59119,0,0,0,0,5
567447823,567447438,3670026,-4.730464,-7.08971,-12.330618,54.571606,0,0,0,0,5
567451600,567451193,3670026,4.7754745,2.9060822,2.753811,54.532436,0,0,0,0,5
567455355,567454950,3670026,6.0386558,2.105461,-34.364456,54.522644,0,0,0,0,5
567460347,567459959,3670026,0.5736507,0.36822823,-23.576662,54.61567,0,0,0,0,5
567461601,567461212,3670026,6.585491,-4.373249,-9.867463,54.498165,0,0,0,0,5
567465361,567464970,3670026,-0.26767176,8.3279915,-7.0231514,54.556915,0,0,0,0,5
567472919,567472484,3670026,-1.4753071,-10.30225,-36.64613,54.52754,0,0,0,0,5
567474126,567473735,3670026,2.690125,-9.193255,7.9262443,54.522644,0,0,0,0,5
567476686,567476240,3670026,1.0773908,-3.1325736,-13.859555,54.552017,0,0,0,0,5
567479210,567478745,3670026,6.8014483,-0.34620157,-0.2207454,54.547123,0,0,0,0,5
567482899,567482502,3670026,-2.5589228,-9.204748,-46.236824,54.48348,0,0,0,0,5
567486638,567486259,3670026,-4.096958,-0.49416324,2.0077775,54.49327,0,0,0,0,5
567490463,567490016,3670026,1.8981231,0.4036624,1.3685257,54.51775,0,0,0,0,5
