timestamp,timestamp_sample,accel_device_id,gyro_device_id,delta_angle[0],delta_angle[1],delta_angle[2],delta_velocity[0],delta_velocity[1],delta_velocity[2],delta_angle_dt,delta_velocity_dt,delta_angle_clipping,delta_velocity_clipping,accel_calibration_count,gyro_calibration_count
564944480,564943965,2490386,2490386,-9.54267e-06,1.4623811e-05,8.0906375e-06,-0.0037229138,0.0009027369,-0.048921578,4943,4943,0,0,1,1
564949439,564948907,2490386,2490386,-7.250265e-06,1.4553449e-05,8.187796e-06,-0.003622281,0.0007375605,-0.049023714,4942,4942,0,0,1,1
564954345,564953849,2490386,2490386,-1.2674619e-05,1.7096016e-05,7.854343e-06,-0.0037495329,0.00084935187,-0.048984263,4942,4942,0,0,1,1
564959101,564958792,2490386,2490386,-9.922074e-06,2.2250293e-05,6.100083e-07,-0.0034921588,0.000897582,-0.048904758,4943,4943,0,0,1,1
564964095,564963735,2490386,2490386,-2.591827e-05,-6.082808e-07,-5.9964346e-05,-0.0036506378,0.0012476059,-0.048888393,4943,4943,0,0,1,1
564969085,564968678,2490386,2490386,-2.1500657e-05,1.7606926e-05,-2.6524494e-05,-0.0040765484,0.00011614902,-0.04869703,4943,4943,0,0,1,1
564974795,564973619,2490386,2490386,-1.286333e-05,1.6535852e-05,3.0428588e-05,-0.0033747335,0.0008471244,-0.048682023,4941,4941,0,0,1,1
564978922,564978562,2490386,2490386,3.2332282e-05,-1.1971625e-05,9.558202e-05,-0.0030003416,0.00081478787,-0.049048323,4943,4943,0,0,1,1
564984616,564983504,2490386,2490386,1.3291506e-05,8.636685e-06,0.00015657276,-0.003634477,0.0010194975,-0.048564345,4942,4942,0,0,1,1
564988735,564988446,2490386,2490386,1.4288626e-05,-4.7089365e-05,0.00021463128,-0.0026772136,-0.000429313,-0.048420183,4942,4942,0,0,1,1
564994442,564993389,2490386,2490386,5.015542e-05,7.0308733e-06,9.825966e-05,-0.0048394497,0.002862701,-0.04899986,4943,4943,0,0,1,1
564998682,564998331,2490386,2490386,-5.797031e-05,7.3139716e-05,-5.464807e-05,-0.0055519887,0.0009708224,-0.050026447,4942,4942,0,0,1,1
565004431,565003274,2490386,2490386,-3.4415898e-05,-3.9973343e-06,-0.00017327661,-0.0035810925,0.0009515865,-0.047885984,4943,4943,0,0,1,1
565008615,565008216,2490386,2490386,-9.8671626e-05,0.00012704606,-0.00026440097,-0.0033843548,0.00093937106,-0.049464583,4942,4942,0,0,1,1
565014979,565013158,2490386,2490386,-5.0848208e-05,1.26323475e-05,-0.0002324734,-0.0025658063,0.0004258863,-0.049840532,4942,4942,0,0,1,1
565018650,565018101,2490386,2490386,2.6563794e-05,-2.015918e-05,-0.00010003016,-0.0037943535,0.00051502534,-0.0474835,4943,4943,0,0,1,1
565024181,565023043,2490386,2490386,-9.141637e-05,0.00010275319,1.284577e-05,-0.004612232,0.0015501163,-0.047873076,4942,4942,0,0,1,1
565028726,565027986,2490386,2490386,2.9272198e-06,-5.2298365e-05,0.00013152097,-0.001086998,-0.00048297236,-0.0508236,4943,4943,0,0,1,1
565034539,565032928,2490386,2490386,0.00010672233,-1.4378849e-05,0.00020886883,-0.0035362528,0.0005041362,-0.04852073,4942,4942,0,0,1,1
565038710,565037871,2490386,2490386,-9.425521e-06,5.1578605e-05,0.00021099547,-0.0055956114,0.0013584106,-0.048201308,4943,4943,0,0,1,1
565044851,565042814,2490386,2490386,2.4493472e-06,-4.1565963e-05,0.00011842148,-0.0032480129,0.00060638983,-0.049397368,4943,4943,0,0,1,1
565048530,565047755,2490386,2490386,2.086596e-05,2.6520023e-05,4.7717596e-05,-0.0035228247,0.0010200628,-0.047858987,4941,4941,0,0,1,1
565054542,565052698,2490386,2490386,1.0850644e-06,5.0544422e-05,-6.333016e-05,-0.0048703505,0.0011771761,-0.04957557,4943,4943,0,0,1,1
565057950,565057640,2490386,2490386,-5.9419046e-05,5.2968462e-05,-0.00012882856,-0.0041208407,0.0019796987,-0.04974502,4942,4942,0,0,1,1
565062910,565062582,2490386,2490386,-7.910531e-05,5.340657e-05,-0.0001473628,-0.0030108364,0.0009650514,-0.048070345,4942,4942,0,0,1,1
565067827,565067525,2490386,2490386,-8.900078e-06,7.430136e-05,-0.000100785626,-0.0035092372,-0.0006302026,-0.04831846,4943,4943,0,0,1,1
565072801,565072468,2490386,2490386,-5.8923088e-05,3.0166251e-05,-4.336324e-05,-0.002901803,0.0015258815,-0.050291825,4943,4943,0,0,1,1
565077720,565077410,2490386,2490386,1.1245608e-05,-5.9022555e-06,3.7983966e-05,-0.0030933884,0.00020657708,-0.048935074,4942,4942,0,0,1,1
565082697,565082352,2490386,2490386,1.05105755e-05,7.877666e-06,0.00011900539,-0.0040144366,0.0007603875,-0.047924332,4942,4942,0,0,1,1
565087593,565087295,2490386,2490386,2.0999787e-05,1.11226855e-05,0.00013001889,-0.003765761,0.0003765196,-0.047281902,4943,4943,0,0,1,1
565092553,565092239,2490386,2490386,4.797574e-05,-3.6502915e-05,0.00013718342,-0.0029800525,0.00014593628,-0.04952262,4944,4944,0,0,1,1
565097472,565097179,2490386,2490386,-2.4275429e-05,-1.02898875e-05,6.391583e-05,-0.0034918415,0.0029832048,-0.050520893,4940,4940,0,0,1,1
565102414,565102122,2490386,2490386,9.585225e-06,1.4195899e-05,1.7502175e-06,-0.0041167163,0.0002976852,-0.048923742,4943,4943,0,0,1,1
565107397,565107075,2490386,2490386,-3.598413e-05,-9.206613e-06,-4.6383953e-05,-0.0039778925,0.00103922,-0.04849923,4953,4953,0,0,1,1
565112455,565112008,2490386,2490386,-3.637021e-05,2.4222712e-05,-0.00011233229,-0.0040747635,0.0007627372,-0.048443448,4933,4933,0,0,1,1
565117445,565116952,2490386,2490386,-3.4173852e-05,1.898316e-05,-0.000108812,-0.0043638386,0.00069290824,-0.049033646,4944,4944,0,0,1,1
565122340,565121891,2490386,2490386,-1.6646512e-05,3.983278e-06,-5.9238406e-05,-0.0029829456,0.0010110434,-0.04951086,4939,4939,0,0,1,1
565127353,565126836,2490386,2490386,-4.2011332e-05,1.6554925e-05,-1.1534868e-05,-0.0031032634,-0.00016295466,-0.04826705,4945,4945,0,0,1,1
565132300,565131777,2490386,2490386,2.674949e-06,-2.7399014e-05,6.460178e-05,-0.0040166047,0.0011965686,-0.048431322,4941,4941,0,0,1,1
565137269,565136719,2490386,2490386,3.9707935e-05,6.9632097e-06,9.3993425e-05,-0.0030448413,0.00029273788,-0.04823603,4942,4942,0,0,1,1
565142188,565141661,2490386,2490386,-1.4090675e-05,-2.9674391e-05,0.00010613447,-0.003483742,0.001471575,-0.048130643,4942,4942,0,0,1,1
565146925,565146603,2490386,2490386,4.6128825e-06,1.4325853e-06,6.699328e-05,-0.004395189,0.0009461224,-0.049281545,4942,4942,0,0,1,1
565151877,565151546,2490386,2490386,-1.904911e-05,1.7243043e-05,2.7054723e-05,-0.0039296285,0.0006107707,-0.04950668,4943,4943,0,0,1,1
565156833,565156488,2490386,2490386,-2.4177454e-05,1.5916377e-05,-2.773785e-05,-0.003555971,0.001570014,-0.049693376,4942,4942,0,0,1,1
565161727,565161431,2490386,2490386,-4.2634765e-05,6.0971288e-05,-6.309654e-05,-0.0038820377,0.00047354357,-0.049114797,4943,4943,0,0,1,1
565166673,565166373,2490386,2490386,-2.3835843e-05,2.6587972e-05,-6.257171e-05,-0.004339752,0.0014214561,-0.048424926,4942,4942,0,0,1,1
565171616,565171316,2490386,2490386,1.5772752e-05,5.819375e-05,-4.290405e-05,-0.0026568787,0.00014253413,-0.04874521,4943,4943,0,0,1,1
565176615,565176258,2490386,2490386,-1.5363306e-05,2.5564346e-05,-8.311683e-06,-0.0028461213,0.00033395248,-0.048716024,4942,4942,0,0,1,1
565181490,565181200,2490386,2490386,3.9387203e-05,4.8780075e-06,3.581112e-05,-0.0042088195,0.000899738,-0.048626497,4942,4942,0,0,1,1
565186438,565186143,2490386,2490386,-3.895465e-06,3.0134508e-05,5.069829e-05,-0.0038583125,0.00036085004,-0.04902911,4943,4943,0,0,1,1
565191427,565191085,2490386,2490386,-4.2291917e-06,2.2807188e-05,5.5512053e-05,-0.0036151675,0.0015772785,-0.049382497,4942,4942,0,0,1,1
565196315,565196028,2490386,2490386,-7.125492e-06,1.9160918e-05,4.4685803e-05,-0.0034098318,0.0005241068,-0.04845469,4943,4943,0,0,1,1
565201398,565200970,2490386,2490386,-4.8553164e-05,3.778949e-05,1.6758297e-05,-0.003989107,0.0009832585,-0.04902539,4942,4942,0,0,1,1
565206368,565205926,2490386,2490386,2.4977885e-06,-1.4794825e-06,1.3553615e-06,-0.0042780605,0.0009801704,-0.048799917,4956,4956,0,0,1,1
565211414,565210855,2490386,2490386,-4.6136967e-05,-2.3073868e-08,-2.8344873e-05,-0.0028614667,0.001108031,-0.048641365,4929,4929,0,0,1,1
565216196,565215797,2490386,2490386,-4.078581e-05,2.659022e-05,-2.8002394e-05,-0.0033010186,0.0012061442,-0.04903522,4942,4942,0,0,1,1
565221218,565220740,2490386,2490386,-1.0229941e-05,5.638314e-06,-2.8932789e-06,-0.0039038374,0.00049558544,-0.048859227,4943,4943,0,0,1,1
565226192,565225688,2490386,2490386,-2.849629e-05,6.3535385e-06,-6.6301154e-06,-0.0036591077,0.000831944,-0.048628796,4948,4948,0,0,1,1
565231293,565230624,2490386,2490386,7.232558e-06,3.7616294e-06,2.6112357e-05,-0.0039048344,0.0005247137,-0.049122993,4936,4936,0,0,1,1
565235883,565235567,2490386,2490386,1.211673e-06,1.2432405e-05,3.4718512e-05,-0.0041057933,0.0014310429,-0.04927587,4943,4943,0,0,1,1
565240895,565240509,2490386,2490386,5.0953087e-05,2.8043623e-05,2.6573856e-05,-0.0031580934,-5.0662682e-05,-0.04945717,4942,4942,0,0,1,1
565245781,565245457,2490386,2490386,2.3988041e-05,-1.844123e-05,3.901934e-05,-0.0030656504,0.0014559741,-0.04916546,4948,4948,0,0,1,1
565250715,565250394,2490386,2490386,-6.593231e-06,1.4704474e-05,1.9994131e-06,-0.0044563287,0.00077070144,-0.049003158,4937,4937,0,0,1,1
565255638,565255336,2490386,2490386,1.4404931e-06,-3.876944e-06,-9.808791e-06,-0.003547484,0.0006254591,-0.04869905,4942,4942,0,0,1,1
565260610,565260279,2490386,2490386,-1.2480807e-05,4.3472006e-05,-2.5142594e-05,-0.0039445814,0.00079486636,-0.048610248,4943,4943,0,0,1,1
565265510,565265222,2490386,2490386,-4.6192665e-05,2.274371e-05,-3.0945408e-05,-0.003310348,0.0006093251,-0.048506904,4943,4943,0,0,1,1
565270459,565270164,2490386,2490386,-2.4588679e-05,3.0286192e-05,-2.3411496e-05,-0.0035083313,0.0011835453,-0.0485544,4942,4942,0,0,1,1
565275397,565275106,2490386,2490386,-2.6840884e-05,3.0910294e-05,-2.5355978e-06,-0.0036364577,0.0006068523,-0.04906594,4942,4942,0,0,1,1
565280353,565280049,2490386,2490386,-3.3979046e-05,2.7408314e-06,2.5268188e-05,-0.003573176,0.00079244294,-0.04838389,4943,4943,0,0,1,1
565285283,565284991,2490386,2490386,4.22791e-06,1.4866778e-05,5.315463e-05,-0.0041311327,0.0008296416,-0.04871153,4942,4942,0,0,1,1
565290255,565289935,2490386,2490386,-7.2538455e-06,3.107924e-06,6.067813e-05,-0.003696153,0.0012375036,-0.048801422,4944,4944,0,0,1,1
565295254,565294876,2490386,2490386,-1.974079e-05,1.8395007e-05,5.656374e-05,-0.0033351078,0.00090059283,-0.048391942,4941,4941,0,0,1,1
565300266,565299818,2490386,2490386,1.106587e-05,2.4699844e-05,2.6437432e-05,-0.0034336778,0.0006701382,-0.04882758,4942,4942,0,0,1,1
565305293,565304761,2490386,2490386,-1.3335017e-05,7.5646244e-06,-8.773799e-06,-0.003801374,0.0010400068,-0.04902035,4943,4943,0,0,1,1
565310144,565309703,2490386,2490386,1.23864165e-05,1.5452873e-05,-3.0098527e-05,-0.0040293024,0.0007855639,-0.049418673,4942,4942,0,0,1,1
565315479,565314646,2490386,2490386,-1.566185e-05,3.69921e-05,-4.8093192e-05,-0.003816978,0.00056626805,-0.04904078,4943,4943,0,0,1,1
565320138,565319588,2490386,2490386,7.5164016e-06,2.9774816e-05,-4.745971e-05,-0.0036025697,0.0008399388,-0.049050845,4942,4942,0,0,1,1
565325050,565324530,2490386,2490386,-9.3824965e-06,-1.3608551e-05,-2.2970722e-05,-0.003055442,0.00038518413,-0.04895647,4942,4942,0,0,1,1
565330275,565329473,2490386,2490386,-1.690604e-05,1.414614e-05,8.592629e-06,-0.0035170706,0.0009710512,-0.04816862,4943,4943,0,0,1,1
565335091,565334417,2490386,2490386,-2.3331424e-05,-1.381986e-05,3.1338055e-05,-0.003708037,0.0009963196,-0.048613295,4944,4944,0,0,1,1
565339747,565339358,2490386,2490386,-3.9862283e-05,5.919696e-06,5.118082e-05,-0.004015939,0.00083740434,-0.04909479,4941,4941,0,0,1,1
565345118,565344300,2490386,2490386,-1.7626242e-05,-6.008375e-06,5.3708725e-05,-0.0036635858,0.0006940199,-0.048426323,4942,4942,0,0,1,1
565349550,565349242,2490386,2490386,-5.5214973e-06,5.4366898e-05,4.53672e-05,-0.0040741535,0.0007905598,-0.049489502,4942,4942,0,0,1,1
565355532,565354185,2490386,2490386,-8.589325e-06,1.1182361e-05,3.4581415e-05,-0.0037781212,0.0012304519,-0.049237315,4943,4943,0,0,1,1
565359418,565359128,2490386,2490386,-1.4798582e-06,1.988837e-05,3.106379e-07,-0.002987571,0.00095585996,-0.04948995,4943,4943,0,0,1,1
565365094,565364070,2490386,2490386,-2.5133782e-05,4.528535e-06,-1.3890121e-05,-0.003643382,0.0010604954,-0.04916792,4942,4942,0,0,1,1
565369327,565369012,2490386,2490386,-1.8218562e-07,3.9289685e-06,-3.0388248e-05,-0.0035307005,0.0007107003,-0.048438452,4942,4942,0,0,1,1
565375249,565373954,2490386,2490386,-1.2582689e-05,1.6428448e-05,-2.394002e-05,-0.0034384327,0.0010197506,-0.048512515,4942,4942,0,0,1,1
565379545,565378897,2490386,2490386,-1.6926157e-05,-5.3181884e-06,-2.8928212e-05,-0.003738099,0.00041722794,-0.048871323,4943,4943,0,0,1,1
565384880,565383843,2490386,2490386,1.0036674e-05,2.6234025e-05,-1.132592e-05,-0.0049437406,0.00087711803,-0.048609532,4946,4946,0,0,1,1
565389359,565388782,2490386,2490386,-9.941836e-07,1.443018e-05,1.1831828e-05,-0.0028026379,0.00021867613,-0.049650848,4939,4939,0,0,1,1
565395210,565393725,2490386,2490386,-1.1760922e-06,1.5733296e-05,1.8505703e-05,-0.0031619114,0.001803898,-0.049158975,4943,4943,0,0,1,1
565399352,565398667,2490386,2490386,-1.47909e-05,3.166903e-07,2.95329e-05,-0.0041414835,0.00015422165,-0.04899611,4942,4942,0,0,1,1
565405248,565403609,2490386,2490386,-3.629047e-05,2.8130403e-06,2.8370232e-05,-0.0034865371,0.0012967363,-0.048973568,4942,4942,0,0,1,1
565409335,565408554,2490386,2490386,-1.7950497e-05,1.46775365e-05,2.3562336e-05,-0.00366193,0.0006246457,-0.048831206,4945,4945,0,0,1,1
565415558,565413496,2490386,2490386,-5.9476806e-06,1.9759344e-05,2.3520686e-05,-0.0041040876,0.0007585025,-0.04865082,4942,4942,0,0,1,1
565419962,565418436,2490386,2490386,-3.1056923e-05,3.0452846e-05,1.7918926e-05,-0.0041267397,0.0017926912,-0.048698835,4940,4940,0,0,1,1
565423701,565423378,2490386,2490386,-1.23746e-05,-7.016118e-07,1.2401102e-05,-0.00306845,0.0002504229,-0.049676917,4942,4942,0,0,1,1
565428651,565428321,2490386,2490386,3.5173132e-05,2.5941803e-05,1.3593286e-06,-0.003734161,0.00056220836,-0.049729533,4943,4943,0,0,1,1
565433564,565433264,2490386,2490386,-1.081605e-05,1.159562e-05,-1.0130412e-05,-0.0038429569,0.0011791352,-0.049753383,4943,4943,0,0,1,1
565438496,565438206,2490386,2490386,1.5215296e-07,-2.2524e-07,-1.8097933e-05,-0.0038133794,0.0004496952,-0.048939057,4942,4942,0,0,1,1
565443442,565443148,2490386,2490386,4.555711e-06,4.468075e-05,-1.9215446e-05,-0.0040019318,0.00064392533,-0.04902964,4942,4942,0,0,1,1
565448448,565448090,2490386,2490386,-2.910561e-05,2.157017e-05,-1.3652657e-05,-0.0034979235,0.0015824785,-0.048928633,4942,4942,0,0,1,1
565453321,565453033,2490386,2490386,-2.1575424e-05,5.463349e-06,-5.313974e-06,-0.002626509,0.0003677426,-0.048388924,4943,4943,0,0,1,1
565458270,565457975,2490386,2490386,-8.319307e-06,5.62829e-06,1.904359e-05,-0.0035059017,0.0009653279,-0.048819058,4942,4942,0,0,1,1
565463207,565462918,2490386,2490386,-4.4971533e-05,-3.936474e-05,2.1196513e-05,-0.003641227,0.00076933776,-0.048551276,4943,4943,0,0,1,1
565468175,565467861,2490386,2490386,-2.5471882e-05,-1.1262867e-06,1.6153064e-05,-0.0038168153,0.0010870808,-0.049771875,4943,4943,0,0,1,1
565473148,565472811,2490386,2490386,-3.6527947e-06,3.4639952e-06,3.4586017e-05,-0.0044455323,0.00010081423,-0.049602948,4950,4950,0,0,1,1
565478198,565477745,2490386,2490386,-2.6623715e-05,3.76821e-05,3.5216468e-05,-0.0038899458,0.0016923922,-0.048359886,4934,4934,0,0,1,1
565483114,565482689,2490386,2490386,-1.2675649e-06,3.7408758e-05,3.3358217e-05,-0.0034556768,0.00046053837,-0.04907711,4944,4944,0,0,1,1
565488137,565487630,2490386,2490386,4.7715366e-06,2.9083487e-05,2.1876545e-05,-0.0036714945,0.0010336526,-0.048332863,4941,4941,0,0,1,1
565493099,565492572,2490386,2490386,-4.0254813e-06,4.4416333e-06,1.0973395e-05,-0.0022937458,0.0010862743,-0.049342465,4942,4942,0,0,1,1
565498017,565497515,2490386,2490386,2.0161633e-05,-2.1608657e-06,-6.0799225e-06,-0.0034926878,0.0007357823,-0.04893894,4943,4943,0,0,1,1
565503025,565502457,2490386,2490386,-9.9589e-06,1.616383e-05,-2.4169585e-05,-0.005251255,0.00067696726,-0.04891112,4942,4942,0,0,1,1
565507939,565507399,2490386,2490386,-1.5013134e-05,1.19141805e-05,-3.0384077e-05,-0.0029709323,0.0004469346,-0.049576744,4942,4942,0,0,1,1
565513037,565512342,2490386,2490386,-2.1861742e-05,5.4016844e-05,-2.8241186e-05,-0.0037675619,0.00061237084,-0.049248423,4943,4943,0,0,1,1
565517656,565517284,2490386,2490386,-2.6837442e-05,1.3360186e-05,-1.556213e-05,-0.005305451,0.0010831748,-0.04877899,4942,4942,0,0,1,1
565522571,565522228,2490386,2490386,9.871386e-06,5.9126833e-05,-7.6027272e-06,-0.0019188813,0.0006103951,-0.04905171,4944,4944,0,0,1,1
565527470,565527169,2490386,2490386,-4.7802187e-05,-6.797541e-06,4.9282688e-05,-0.0019984385,0.0018692754,-0.049250633,4941,4941,0,0,1,1
565532413,565532111,2490386,2490386,-1.200448e-05,-2.8133716e-05,3.2266173e-05,-0.005401064,0.00020859002,-0.04829735,4942,4942,0,0,1,1
565537361,565537054,2490386,2490386,-3.2263873e-05,7.530317e-06,4.1479743e-05,-0.0042222426,0.0007338259,-0.048879486,4943,4943,0,0,1,1
565542293,565541997,2490386,2490386,1.07598125e-05,-8.47785e-06,4.2162457e-05,-0.0021716969,0.0013461726,-0.049900908,4943,4943,0,0,1,1
565547272,565546944,2490386,2490386,2.5609693e-06,5.066255e-05,3.3957334e-05,-0.00541074,0.00030816934,-0.04891807,4947,4947,0,0,1,1
565552174,565551881,2490386,2490386,-2.1284657e-06,3.253716e-05,8.1499265e-06,-0.0041326354,0.0012247612,-0.049356177,4937,4937,0,0,1,1
565557154,565556836,2490386,2490386,2.5931407e-05,2.6005131e-05,-1.4571151e-05,-0.0019162587,0.00047357523,-0.049402215,4955,4955,0,0,1,1
565562059,565561766,2490386,2490386,-1.3733814e-05,5.45324e-07,-3.1909116e-05,-0.0035397122,0.00090518966,-0.049683183,4930,4930,0,0,1,1
565567011,565566715,2490386,2490386,3.5950714e-07,1.8304123e-05,-2.0490337e-05,-0.0047891634,0.0011184101,-0.04875492,4949,4949,0,0,1,1
565572032,565571651,2490386,2490386,-2.100432e-05,-4.2039333e-06,-2.7770515e-05,-0.0030575409,0.0007359203,-0.04838241,4936,4936,0,0,1,1
565580745,565576593,2490386,2490386,-2.9734418e-05,-1.6941925e-05,-1.8406092e-05,-0.0036078456,0.0013975406,-0.048132896,4942,4942,0,0,1,1
565582024,565581535,2490386,2490386,-4.241857e-05,8.194971e-07,1.6928389e-05,-0.0044297026,-0.00024719676,-0.04946348,4942,4942,0,0,1,1
565586950,565586478,2490386,2490386,-1.7932816e-05,8.582417e-06,1.9785039e-05,-0.0028921976,0.0011023099,-0.04935676,4943,4943,0,0,1,1
565591929,565591420,2490386,2490386,-3.2054442e-05,-5.230508e-06,4.696653e-05,-0.0025477298,0.00086475565,-0.049971905,4942,4942,0,0,1,1
565596879,565596363,2490386,2490386,-3.109317e-05,3.6678916e-06,5.144663e-05,-0.004936237,0.0009832267,-0.048844516,4943,4943,0,0,1,1
565601811,565601305,2490386,2490386,-1.0881779e-05,2.558296e-05,2.8630888e-05,-0.0036214937,0.00045979102,-0.04876418,4942,4942,0,0,1,1
565606817,565606248,2490386,2490386,-6.9134046e-08,1.4694028e-06,1.7587889e-05,-0.0033733372,0.001293591,-0.048209105,4943,4943,0,0,1,1
565611567,565611190,2490386,2490386,2.3770586e-05,1.5347461e-05,4.1363155e-06,-0.0039744037,0.0009787194,-0.048747577,4942,4942,0,0,1,1
565616462,565616133,2490386,2490386,2.7659471e-05,2.8735454e-05,-1.0200058e-05,-0.0041234232,0.0006557885,-0.049080145,4943,4943,0,0,1,1
565621366,565621075,2490386,2490386,9.849452e-06,2.692783e-05,-1.2435869e-05,-0.0027523434,0.00077430176,-0.048936658,4942,4942,0,0,1,1
565626307,565626017,2490386,2490386,2.302958e-06,4.747025e-05,-1.6422773e-05,-0.004236583,0.0013229772,-0.049817234,4942,4942,0,0,1,1
565631303,565630960,2490386,2490386,-2.4360183e-05,3.5979367e-05,-9.178438e-06,-0.0034162241,-6.3981934e-06,-0.04935938,4943,4943,0,0,1,1
565636197,565635902,2490386,2490386,-1.1369875e-05,3.9593626e-05,-2.0336483e-06,-0.00351817,0.0009273073,-0.04913028,4942,4942,0,0,1,1
565646087,565645787,2490386,2490386,-1.8367635e-05,9.109064e-07,1.1788544e-05,-0.0036491116,0.0004745175,-0.04784196,4942,4942,0,0,1,1
565651049,565650731,2490386,2490386,-5.7662386e-05,-3.840814e-05,2.7285958e-05,-0.0034117175,0.0010807319,-0.048868254,4944,4944,0,0,1,1
565655977,565655672,2490386,2490386,-2.4794075e-05,9.155219e-06,2.074293e-05,-0.0045822514,0.0010245956,-0.049392905,4941,4941,0,0,1,1
565661071,565660614,2490386,2490386,-3.7402984e-05,1.2825138e-05,3.9467643e-05,-0.003745876,0.00094791123,-0.049869154,4942,4942,0,0,1,1
565665957,565665557,2490386,2490386,-3.6877598e-06,3.4556335e-05,2.5425186e-05,-0.0029986755,0.001123682,-0.049578395,4943,4943,0,0,1,1
565671084,565670501,2490386,2490386,-3.7199177e-05,2.8801172e-05,2.5051499e-05,-0.0046866187,0.0010539911,-0.048704628,4944,4944,0,0,1,1
565675872,565675441,2490386,2490386,4.4413315e-05,7.230701e-06,-9.715292e-06,-0.0033498397,0.00046991798,-0.048982427,4940,4940,0,0,1,1
565680992,565680384,2490386,2490386,4.016434e-05,4.447179e-06,1.5020692e-06,-0.0032236474,0.00039613977,-0.0488011,4943,4943,0,0,1,1
565685838,565685326,2490386,2490386,-1.0830332e-05,1.0041363e-05,-1.3724699e-05,-0.0043201414,0.0016058801,-0.04898096,4942,4942,0,0,1,1
565690991,565690268,2490386,2490386,2.1820413e-05,4.0055536e-05,-1.1172443e-05,-0.0036214655,0.00022477892,-0.048927136,4942,4942,0,0,1,1
565695752,565695211,2490386,2490386,-2.655179e-05,-2.4464698e-05,-1.409708e-05,-0.0027206645,0.00043891877,-0.049144037,4943,4943,0,0,1,1
565700475,565700153,2490386,2490386,-4.173726e-05,1.1746058e-05,2.1283873e-05,-0.0039851186,0.0017779487,-0.04872541,4942,4942,0,0,1,1
565705440,565705096,2490386,2490386,-5.0276736e-05,3.2766737e-05,7.916192e-06,-0.0036028756,0.00028392128,-0.049188536,4943,4943,0,0,1,1
565710420,565710038,2490386,2490386,-1.5693184e-05,-3.1994387e-05,2.1921609e-05,-0.0028500662,0.0008288228,-0.048803702,4942,4942,0,0,1,1
565716616,565714981,2490386,2490386,-6.0654824e-05,-3.1415263e-06,2.4410321e-05,-0.004187263,0.0009950608,-0.048424233,4943,4943,0,0,1,1
565720297,565719923,2490386,2490386,-6.5783365e-06,2.062808e-05,3.113023e-05,-0.0047932207,0.001101483,-0.049476296,4942,4942,0,0,1,1
565726198,565724866,2490386,2490386,-4.5982197e-06,-3.1391432e-06,7.38887e-06,-0.002893779,0.00020435621,-0.04903557,4943,4943,0,0,1,1
565730234,565729814,2490386,2490386,-2.1529442e-05,-1.1232875e-05,1.34429165e-05,-0.0029206392,0.0011923377,-0.049571272,4948,4948,0,0,1,1
565735837,565734756,2490386,2490386,2.3745599e-05,5.155288e-05,3.4359052e-06,-0.004529261,0.00092080084,-0.049882416,4942,4942,0,0,1,1
565740102,565739693,2490386,2490386,-3.5753696e-06,1.8028419e-05,-2.7379217e-06,-0.003599106,0.00014665755,-0.049040947,4937,4937,0,0,1,1
565746230,565744635,2490386,2490386,3.9209222e-05,2.3370087e-05,-2.8238032e-06,-0.0033520565,0.0015698805,-0.04886497,4942,4942,0,0,1,1
565751232,565749577,2490386,2490386,2.5952913e-05,7.4843345e-05,8.638827e-07,-0.005493984,0.00077650364,-0.049237397,4942,4942,0,0,1,1
565755947,565754520,2490386,2490386,1.2944321e-05,4.7701127e-05,-7.733451e-06,-0.0030528875,0.00051250064,-0.050013717,4943,4943,0,0,1,1
565760102,565759463,2490386,2490386,-1.5377946e-05,2.6559535e-06,-9.19595e-06,-0.002023956,0.0005000969,-0.04884381,4943,4943,0,0,1,1
565765608,565764407,2490386,2490386,-5.198191e-05,-6.7506826e-06,7.719683e-06,-0.004366516,0.001958973,-0.049668886,4944,4944,0,0,1,1
565770091,565769347,2490386,2490386,-2.8663168e-05,1.3706271e-05,1.6819842e-05,-0.0042959834,-7.0267335e-05,-0.048618738,4940,4940,0,0,1,1
565776013,565774289,2490386,2490386,-7.7182594e-05,1.2041684e-05,1.8872475e-05,-0.0031114807,0.0010963079,-0.048802465,4942,4942,0,0,1,1
565780954,565779231,2490386,2490386,-3.7546073e-05,9.369255e-06,3.08591e-05,-0.0036414878,0.0017313889,-0.049608983,4942,4942,0,0,1,1
565785487,565784174,2490386,2490386,-1.3299472e-05,1.6199197e-05,3.3503045e-05,-0.0038667005,0.0006887594,-0.049125005,4943,4943,0,0,1,1
565790043,565789131,2490386,2490386,-6.5977742e-06,2.5761768e-05,-3.092602e-06,-0.0036581834,0.0003532745,-0.049169853,4957,4957,0,0,1,1
565794375,565794059,2490386,2490386,-2.5308933e-05,-1.2103168e-05,6.4643173e-06,-0.0036187014,0.0016361332,-0.04965814,4928,4928,0,0,1,1
565804242,565803944,2490386,2490386,2.4417655e-05,-1.1526093e-05,1.1185009e-06,-0.0040437905,0.0014045726,-0.048561916,4941,4941,0,0,1,1
565809190,565808886,2490386,2490386,-4.8946195e-06,1.912355e-05,-2.33046e-06,-0.004338288,0.0009056994,-0.04873422,4942,4942,0,0,1,1
565814170,565813828,2490386,2490386,1.3737084e-05,1.5133284e-05,4.8074203e-06,-0.0036510373,0.0003833231,-0.049342453,4942,4942,0,0,1,1
565819152,565818776,2490386,2490386,2.4621482e-05,1.7042123e-05,6.967866e-06,-0.0024778496,0.0008301676,-0.049653646,4948,4948,0,0,1,1
565824005,565823713,2490386,2490386,-4.593944e-05,3.3775155e-05,2.4030196e-05,-0.0037428678,0.00059477275,-0.04931805,4937,4937,0,0,1,1
565828961,565828656,2490386,2490386,-3.7379286e-05,1.4055253e-06,-8.539768e-06,-0.0042611384,0.0005690037,-0.049250983,4943,4943,0,0,1,1
565833900,565833598,2490386,2490386,-6.716534e-06,-1.2970182e-05,4.198366e-05,-0.0032368437,0.0010584866,-0.04887801,4942,4942,0,0,1,1
565838857,565838540,2490386,2490386,-6.189074e-05,4.3584887e-06,6.8201975e-06,-0.0040845154,0.0012467026,-0.049237184,4942,4942,0,0,1,1
565843865,565843484,2490386,2490386,-3.569089e-05,1.0725007e-05,2.09354e-05,-0.0039672307,0.001323295,-0.049113963,4944,4944,0,0,1,1
565848915,565848426,2490386,2490386,-2.1583488e-05,1.6551086e-05,1.1232252e-05,-0.0023793506,0.0002862468,-0.049804308,4942,4942,0,0,1,1
565853802,565853368,2490386,2490386,-2.3297225e-05,-7.145081e-06,1.959496e-06,-0.004959215,0.00163398,-0.049160574,4942,4942,0,0,1,1
565858834,565858310,2490386,2490386,5.5065633e-05,5.525681e-05,-8.176317e-06,-0.004482516,0.00018603397,-0.049770314,4942,4942,0,0,1,1
565863719,565863252,2490386,2490386,-1.4837037e-05,6.767973e-05,-6.174279e-06,-0.00254628,0.000987034,-0.049262,4942,4942,0,0,1,1
565868721,565868195,2490386,2490386,4.0611394e-05,-1.6999062e-05,-7.273605e-06,-0.0035102554,0.001104819,-0.049483463,4943,4943,0,0,1,1
565873667,565873137,2490386,2490386,2.0625472e-05,5.144227e-05,-7.496853e-06,-0.004698895,0.00010049457,-0.048377465,4942,4942,0,0,1,1
565878805,565878080,2490386,2490386,-1.18324415e-05,2.334125e-05,3.0374895e-06,-0.0025744569,0.0005931023,-0.049965896,4943,4943,0,0,1,1
565883332,565883022,2490386,2490386,-1.264513e-05,-2.7687875e-05,1.7352155e-05,-0.0031976956,0.0012382205,-0.04850896,4942,4942,0,0,1,1
565888282,565887964,2490386,2490386,-3.5468423e-05,5.7699275e-05,1.3047743e-05,-0.004893453,0.0006334847,-0.048929844,4942,4942,0,0,1,1
565893243,565892913,2490386,2490386,-2.6605967e-05,2.3737784e-05,3.600859e-05,-0.00365966,0.00085619534,-0.049840327,4949,4949,0,0,1,1
565898137,565897849,2490386,2490386,-8.45725e-05,9.702649e-06,2.2864144e-05,-0.0020661075,0.0018348519,-0.04902449,4936,4936,0,0,1,1
565903089,565902792,2490386,2490386,-1.4875825e-05,7.617073e-06,3.507484e-05,-0.004127066,0.00017194993,-0.048901517,4943,4943,0,0,1,1
565908032,565907734,2490386,2490386,-3.171916e-05,-2.329789e-06,3.5420903e-06,-0.0038145196,0.0010432767,-0.049290754,4942,4942,0,0,1,1
565913033,565912676,2490386,2490386,-4.5643716e-05,-5.4944918e-05,7.726006e-06,-0.002761878,0.0007591519,-0.0488685,4942,4942,0,0,1,1
565917941,565917619,2490386,2490386,2.53927e-05,2.7733993e-05,-7.65112e-06,-0.0047212364,0.0015289953,-0.04978972,4943,4943,0,0,1,1
565922873,565922561,2490386,2490386,4.9718292e-05,5.8412247e-06,-3.4328812e-05,-0.0046422696,-0.00066337275,-0.04987518,4942,4942,0,0,1,1
565927818,565927508,2490386,2490386,-1.7424045e-05,-2.1848004e-05,3.2242247e-07,-0.0027214547,0.0020317938,-0.048737157,4947,4947,0,0,1,1
565932779,565932447,2490386,2490386,3.6657133e-05,6.5973516e-05,-5.727531e-06,-0.0033833086,0.0005685621,-0.0492273,4939,4939,0,0,1,1
565937792,565937388,2490386,2490386,7.888181e-06,-2.0023252e-05,5.4534894e-06,-0.0039466913,0.00055488496,-0.04936571,4941,4941,0,0,1,1
565942788,565942331,2490386,2490386,-9.028394e-06,9.69273e-07,2.4203418e-06,-0.0022435163,0.0005000148,-0.049419545,4943,4943,0,0,1,1
565947687,565947280,2490386,2490386,-3.9769817e-05,-2.092408e-06,3.254468e-05,-0.004684183,0.0015250788,-0.049238015,4949,4949,0,0,1,1
565952698,565952215,2490386,2490386,1.4378392e-06,4.6581816e-05,1.1802978e-05,-0.0051609646,-0.00013914645,-0.048900813,4935,4935,0,0,1,1
565957614,565957158,2490386,2490386,-3.5782938e-05,4.0386716e-05,4.211054e-05,-0.003128537,0.0011377446,-0.049565595,4943,4943,0,0,1,1
565962611,565962100,2490386,2490386,-5.9307844e-05,2.1961432e-05,2.3710194e-05,-0.002735669,0.0017985981,-0.049457062,4942,4942,0,0,1,1
565967564,565967043,2490386,2490386,-1.9544823e-05,4.392186e-05,1.4713388e-05,-0.0043434557,0.00039070807,-0.049333256,4943,4943,0,0,1,1
565972646,565971986,2490386,2490386,-1.2928558e-05,-1.45291715e-05,1.2857516e-05,-0.0021906535,0.00042120743,-0.049390946,4943,4943,0,0,1,1
565977278,565976929,2490386,2490386,-4.830507e-05,2.9398721e-05,-7.466932e-06,-0.0036384696,0.0020193635,-0.049368497,4943,4943,0,0,1,1
565982277,565981870,2490386,2490386,3.73593e-05,2.5010473e-05,-2.2157383e-05,-0.0047319606,-0.00020095952,-0.048860226,4941,4941,0,0,1,1
565987095,565986812,2490386,2490386,3.509455e-05,1.3449835e-05,7.652091e-06,-0.0041705137,0.00073108566,-0.04841747,4942,4942,0,0,1,1
565992050,565991755,2490386,2490386,-2.0430958e-05,3.333671e-05,-2.5470294e-05,-0.0034290901,0.0016360495,-0.049258955,4943,4943,0,0,1,1
565996997,565996697,2490386,2490386,1.4104956e-05,5.1337483e-06,2.262107e-06,-0.0029366345,-0.000110182526,-0.0495607,4942,4942,0,0,1,1
566001941,566001640,2490386,2490386,2.339295e-05,-8.3156365e-06,-9.049694e-07,-0.0027155215,0.0009204726,-0.0497505,4943,4943,0,0,1,1
566006927,566006582,2490386,2490386,-4.3780994e-05,-3.940115e-05,1.9550775e-05,-0.003632711,0.0008006204,-0.048747633,4942,4942,0,0,1,1
566011880,566011524,2490386,2490386,-2.0733172e-05,3.652085e-05,1.8213583e-05,-0.005023101,0.00066212437,-0.04882418,4942,4942,0,0,1,1
566016849,566016467,2490386,2490386,-1.227618e-05,2.3491799e-05,5.1044495e-05,-0.0038144146,0.0006899199,-0.048071872,4943,4943,0,0,1,1
566021699,566021409,2490386,2490386,-3.732323e-05,2.4583112e-05,3.822862e-05,-0.0034562424,0.001507362,-0.048295543,4942,4942,0,0,1,1
566026707,566026351,2490386,2490386,-3.0174318e-05,-3.2516791e-06,3.18604e-05,-0.0034546184,0.0009437258,-0.04966193,4942,4942,0,0,1,1
566031730,566031294,2490386,2490386,-4.8728874e-05,2.1632066e-05,2.2623817e-06,-0.0029323874,0.00096138456,-0.050179552,4943,4943,0,0,1,1
566036645,566036237,2490386,2490386,4.6119767e-06,-5.1733885e-05,6.24367e-07,-0.00328887,0.00029939783,-0.04909941,4943,4943,0,0,1,1
566046543,566046125,2490386,2490386,5.89154e-06,3.2921667e-05,-6.2796234e-06,-0.0035423203,0.0007705527,-0.049129777,4946,4946,0,0,1,1
566051654,566051063,2490386,2490386,3.165947e-05,5.661525e-06,-6.104712e-06,-0.00302913,0.0014049563,-0.04831066,4938,4938,0,0,1,1
566056577,566056006,2490386,2490386,-7.967819e-06,2.4704566e-05,-8.332437e-06,-0.0042279856,-0.00010568907,-0.048847742,4943,4943,0,0,1,1
566061510,566060948,2490386,2490386,-5.6974623e-06,-3.6068814e-05,-1.6997476e-06,-0.0028485237,0.0012265734,-0.050085176,4942,4942,0,0,1,1
566066518,566065891,2490386,2490386,-3.54764e-05,-1.53475e-05,5.5971364e-06,-0.0027943666,0.0009651188,-0.049006514,4943,4943,0,0,1,1
566071507,566070833,2490386,2490386,-8.588314e-06,3.6148645e-05,1.8879291e-05,-0.0057183886,0.00017891804,-0.050329514,4942,4942,0,0,1,1
566076234,566075779,2490386,2490386,-2.9500776e-05,5.0761373e-05,1.771621e-05,-0.0043641212,0.0005745512,-0.04876193,4946,4946,0,0,1,1
566081019,566080718,2490386,2490386,-4.8623067e-05,6.748578e-05,5.3411684e-05,-0.002419164,0.0017675792,-0.047809433,4939,4939,0,0,1,1
566086541,566085660,2490386,2490386,1.4624993e-05,2.353086e-05,3.0114326e-05,-0.0035583319,0.00047547085,-0.048524957,4942,4942,0,0,1,1
566090921,566090603,2490386,2490386,-5.1210805e-05,-4.268844e-06,2.6449365e-05,-0.0033790108,0.001342481,-0.04949325,4943,4943,0,0,1,1
566096625,566095545,2490386,2490386,-9.980405e-06,3.877547e-06,-4.3464433e-06,-0.0023857087,0.0006980655,-0.049897276,4942,4942,0,0,1,1
566100794,566100487,2490386,2490386,-2.9615348e-05,8.519231e-06,-3.096619e-06,-0.0056291968,0.0010828179,-0.049105916,4942,4942,0,0,1,1
566106718,566105430,2490386,2490386,2.8406963e-05,5.3960466e-05,-3.3611825e-05,-0.005189511,-0.00037221774,-0.04920741,4943,4943,0,0,1,1
566111120,566110372,2490386,2490386,3.3605415e-05,6.484104e-05,-1.6010425e-05,-0.0017771347,0.0020258918,-0.048912264,4942,4942,0,0,1,1
566117543,566115315,2490386,2490386,1.7562221e-06,1.2724476e-05,-1.3018277e-05,-0.003342568,0.00090913894,-0.04919997,4943,4943,0,0,1,1
566120790,566120257,2490386,2490386,3.7202353e-05,-2.500076e-05,-2.0936413e-06,-0.0035115045,5.795598e-05,-0.04865177,4942,4942,0,0,1,1
566126252,566125200,2490386,2490386,-2.2203689e-05,-1.2940806e-05,-1.3516896e-07,-0.002699989,0.0011428677,-0.048949257,4943,4943,0,0,1,1
566130897,566130151,2490386,2490386,-7.027548e-05,-5.0209546e-05,2.8686922e-05,-0.003642136,0.0013626135,-0.048452396,4951,4951,0,0,1,1
566136699,566135084,2490386,2490386,-6.9701587e-06,2.0732077e-05,9.564644e-06,-0.006143452,2.2096703e-05,-0.048766434,4933,4933,0,0,1,1
566141842,566140026,2490386,2490386,-2.6805847e-05,1.6055132e-05,5.2240313e-05,-0.0034454982,0.0008765352,-0.05037947,4942,4942,0,0,1,1
566146247,566144975,2490386,2490386,-3.200088e-05,5.1246807e-05,3.500129e-05,-0.0023744258,0.0020259146,-0.049461443,4949,4949,0,0,1,1
566150790,566149911,2490386,2490386,-3.0696905e-05,5.3649464e-06,2.5346399e-05,-0.0038943456,-0.0002218043,-0.04939239,4936,4936,0,0,1,1
566156289,566154854,2490386,2490386,-5.410644e-06,4.4423858e-05,9.41681e-06,-0.003147793,0.0012200625,-0.049616005,4943,4943,0,0,1,1
566161339,566159796,2490386,2490386,-5.091436e-06,-8.885692e-06,-2.2508235e-05,-0.0036917892,0.0006221949,-0.04903632,4942,4942,0,0,1,1
566165068,566164738,2490386,2490386,-8.14667e-06,1.7906043e-05,-3.1612788e-05,-0.0054057213,0.0012586922,-0.04825067,4942,4942,0,0,1,1
566169979,566169681,2490386,2490386,1.9975221e-05,2.4004356e-05,-1.621601e-05,-0.0042525325,4.610383e-05,-0.049196746,4943,4943,0,0,1,1
566174977,566174623,2490386,2490386,3.5978326e-05,3.9704442e-05,-1.759911e-05,-0.0026691018,0.0020903288,-0.049568243,4942,4942,0,0,1,1
566179895,566179565,2490386,2490386,4.5715232e-08,2.541465e-06,-9.414145e-06,-0.0023875686,6.547613e-05,-0.04950466,4942,4942,0,0,1,1
566184818,566184508,2490386,2490386,5.372725e-06,2.371013e-05,1.6852855e-05,-0.0032136515,0.001014687,-0.04977671,4943,4943,0,0,1,1
566189803,566189450,2490386,2490386,-2.6520189e-05,-3.9215356e-05,1.6207354e-05,-0.0037787438,-2.0779176e-05,-0.048832,4942,4942,0,0,1,1
566194684,566194393,2490386,2490386,-3.7936188e-05,2.5300506e-06,1.8110568e-05,-0.004799476,0.0010669227,-0.048177384,4943,4943,0,0,1,1
566199637,566199335,2490386,2490386,-1.0471201e-05,5.7088066e-05,2.6394857e-05,-0.004434375,0.00035225027,-0.048737656,4942,4942,0,0,1,1
566204572,566204278,2490386,2490386,-5.0181126e-05,-4.8917113e-06,4.6370635e-05,-0.0032168743,0.0015108634,-0.04917639,4943,4943,0,0,1,1
566209622,566209220,2490386,2490386,-5.3752856e-06,8.864232e-06,1.4952076e-05,-0.0032311452,0.000965461,-0.048670217,4942,4942,0,0,1,1
566214627,566214162,2490386,2490386,-4.251029e-05,3.1162283e-05,2.7369857e-05,-0.0028053494,0.0008598869,-0.049477126,4942,4942,0,0,1,1
566219519,566219105,2490386,2490386,-3.2897915e-05,2.1977847e-05,-2.7267943e-06,-0.0041767093,0.0015663988,-0.049415007,4943,4943,0,0,1,1
566224566,566224047,2490386,2490386,-1.6938093e-06,2.1403568e-05,-1.9884185e-06,-0.0040535857,0.000143022,-0.049017195,4942,4942,0,0,1,1
566229419,566228993,2490386,2490386,3.0577135e-05,5.5333378e-05,-1.9092216e-05,-0.0047010975,0.00076532474,-0.048392713,4946,4946,0,0,1,1
566234427,566233932,2490386,2490386,1.8120212e-05,1.6763523e-05,-4.53727e-06,-0.0030074555,0.0010924514,-0.048998363,4939,4939,0,0,1,1
566239491,566238878,2490386,2490386,2.9183935e-05,-1.071814e-05,-1.7723283e-05,-0.0028793262,0.00052672555,-0.049192,4946,4946,0,0,1,1
566244469,566243830,2490386,2490386,2.0289184e-05,-1.681935e-05,-1.1636435e-05,-0.0031704656,0.0007067679,-0.0501295,4952,4952,0,0,1,1
566249065,566248759,2490386,2490386,-2.1765572e-05,-3.6132522e-05,6.499523e-06,-0.0034612492,0.0011459608,-0.04936973,4929,4929,0,0,1,1
566254030,566253702,2490386,2490386,-2.1670485e-05,-7.3870456e-07,1.440167e-05,-0.0043482985,0.00074306247,-0.04890789,4943,4943,0,0,1,1
566258975,566258644,2490386,2490386,-3.186368e-05,4.7401816e-05,2.973528e-05,-0.0048785564,0.0009856777,-0.048797213,4942,4942,0,0,1,1
566263900,566263586,2490386,2490386,-5.2105723e-05,-2.8163338e-06,4.8840797e-05,-0.0027999883,0.00065529876,-0.048831668,4942,4942,0,0,1,1
566268830,566268529,2490386,2490386,-2.1176906e-05,2.9661445e-05,2.6793356e-05,-0.0041355346,0.0009099733,-0.048800357,4943,4943,0,0,1,1
566273794,566273471,2490386,2490386,-7.666231e-06,-2.506158e-05,9.424013e-06,-0.003379129,0.0005551834,-0.049601994,4942,4942,0,0,1,1
566278726,566278414,2490386,2490386,-4.4300203e-05,1.5795626e-05,-8.54479e-06,-0.003285012,0.0011076579,-0.048848268,4943,4943,0,0,1,1
566283735,566283356,2490386,2490386,-2.218709e-06,2.221561e-05,-8.679514e-06,-0.0041383784,0.00061962777,-0.050056748,4942,4942,0,0,1,1
566288661,566288298,2490386,2490386,2.9174142e-05,4.9877122e-05,-1.3570571e-05,-0.004260674,0.00069159904,-0.0492206,4942,4942,0,0,1,1
566293541,566293241,2490386,2490386,-1.9286124e-05,7.555076e-05,-7.868616e-06,-0.003475637,0.0016316968,-0.047634855,4943,4943,0,0,1,1
566298482,566298183,2490386,2490386,2.1300662e-05,4.423463e-05,3.6129038e-06,-0.002890347,0.00017035403,-0.04870944,4942,4942,0,0,1,1
566303418,566303129,2490386,2490386,-7.683146e-06,5.9054496e-06,-8.5188985e-06,-0.003640383,0.0008467172,-0.049347505,4946,4946,0,0,1,1
566308559,566308068,2490386,2490386,4.242767e-05,7.5813244e-07,5.5582937e-06,-0.003131976,0.001292156,-0.049263123,4939,4939,0,0,1,1
566313580,566313013,2490386,2490386,-4.8194594e-05,-5.1630086e-05,1.6797554e-05,-0.0031446454,0.0007991909,-0.048603397,4945,4945,0,0,1,1
566318474,566317953,2490386,2490386,-1.35187365e-05,-2.7889569e-06,6.8912873e-06,-0.0050703404,0.00030641377,-0.049210824,4940,4940,0,0,1,1
566323335,566322895,2490386,2490386,-1.7562641e-05,3.1795997e-05,4.923588e-05,-0.003580842,0.000504697,-0.04872989,4942,4942,0,0,1,1
566328353,566327837,2490386,2490386,-4.4751287e-05,5.039537e-07,3.1425e-05,-0.0024100228,0.0015797812,-0.048761558,4942,4942,0,0,1,1
566333415,566332780,2490386,2490386,-3.951947e-05,6.639272e-06,3.0843214e-05,-0.0038598147,0.00034760995,-0.048497368,4943,4943,0,0,1,1
566338215,566337722,2490386,2490386,-3.781719e-06,1.06477714e-07,4.6190808e-06,-0.004004049,0.001083695,-0.050264966,4942,4942,0,0,1,1
566343315,566342665,2490386,2490386,-1.900753e-05,-1.2217966e-05,-2.3346915e-06,-0.0037040955,0.0012905078,-0.048561484,4943,4943,0,0,1,1
566347954,566347607,2490386,2490386,-1.8213377e-05,2.5737886e-06,-3.3549317e-05,-0.0037757347,0.00035707018,-0.04949817,4942,4942,0,0,1,1
566352953,566352550,2490386,2490386,6.8682406e-05,4.461698e-05,-9.908463e-06,-0.0047168317,0.0010015062,-0.04996217,4943,4943,0,0,1,1
566357803,566357497,2490386,2490386,-2.4733054e-05,4.664514e-05,-1.4268152e-05,-0.0032800904,0.00087556936,-0.048542902,4947,4947,0,0,1,1
566362727,566362434,2490386,2490386,1.3139257e-05,1.3935714e-05,-1.5986401e-05,-0.0028019743,0.00052971725,-0.048477612,4937,4937,0,0,1,1
566367672,566367377,2490386,2490386,-2.6335674e-05,1.5599946e-05,1.2462763e-05,-0.0037304705,0.0007157341,-0.04932885,4943,4943,0,0,1,1
566377568,566377261,2490386,2490386,2.47388e-05,1.4419622e-05,1.6647436e-05,-0.0029995833,0.00073291373,-0.0484005,4942,4942,0,0,1,1
566382497,566382204,2490386,2490386,-5.020855e-05,2.3503515e-05,4.5281464e-05,-0.004672193,0.0011104045,-0.04878056,4943,4943,0,0,1,1
566387453,566387146,2490386,2490386,-6.4246747e-06,1.0015297e-05,3.7974514e-05,-0.0035603999,0.0004677195,-0.048657086,4942,4942,0,0,1,1
566392384,566392089,2490386,2490386,-4.1341198e-05,1.85236e-05,1.5305523e-05,-0.0033552987,0.000524482,-0.048906747,4943,4943,0,0,1,1
566397401,566397031,2490386,2490386,-4.4618737e-05,5.6454824e-06,2.9308821e-05,-0.002558197,0.0015328502,-0.04937707,4942,4942,0,0,1,1
566402424,566401973,2490386,2490386,-2.4406188e-05,3.2073465e-05,6.672135e-06,-0.00505232,1.9467592e-05,-0.049035456,4942,4942,0,0,1,1
566407388,566406916,2490386,2490386,-1.2510114e-05,-1.442134e-05,-1.2120253e-05,-0.0042011566,0.0015228865,-0.04893002,4943,4943,0,0,1,1
566412370,566411860,2490386,2490386,2.3691304e-05,5.9954178e-05,-1.1033434e-05,-0.0030585695,0.00038912852,-0.048560027,4944,4944,0,0,1,1
566417265,566416801,2490386,2490386,-5.98169e-06,3.034463e-05,-7.97364e-06,-0.0037069302,0.0009940756,-0.049270537,4941,4941,0,0,1,1
566422238,566421747,2490386,2490386,3.2873377e-05,-1.3531973e-05,-1.3649777e-05,-0.0031621093,0.0006729666,-0.049392194,4946,4946,0,0,1,1
566427197,566426685,2490386,2490386,5.374728e-07,-1.3511053e-06,-1.5254389e-05,-0.003224013,0.00047036077,-0.04908666,4938,4938,0,0,1,1
566431926,566431627,2490386,2490386,-3.184565e-05,-6.106996e-06,1.5774742e-05,-0.0027403345,0.0016024283,-0.04884269,4942,4942,0,0,1,1
566437171,566436570,2490386,2490386,-1.2189673e-05,3.383466e-05,5.081243e-06,-0.0057219113,0.00010749249,-0.04884222,4943,4943,0,0,1,1
566441893,566441512,2490386,2490386,1.5239039e-05,-2.8656846e-06,3.357837e-05,-0.0034252664,0.0015601021,-0.049327303,4942,4942,0,0,1,1
566446955,566446455,2490386,2490386,-3.478516e-05,3.594347e-05,4.223636e-05,-0.00275326,0.0010291595,-0.048481345,4943,4943,0,0,1,1
566451733,566451398,2490386,2490386,-1.861688e-05,-1.685402e-05,2.9343535e-05,-0.0038100744,-4.0320333e-06,-0.048936613,4943,4943,0,0,1,1
566457386,566456340,2490386,2490386,1.1568785e-05,-2.5893596e-05,1.2740229e-05,-0.0037242882,0.001607491,-0.04946312,4942,4942,0,0,1,1
566461609,566461284,2490386,2490386,-5.251996e-05,2.2902052e-06,-3.3510385e-06,-0.0026388972,0.00014749033,-0.049557317,4944,4944,0,0,1,1
566466986,566466225,2490386,2490386,-2.829201e-05,2.418819e-05,-5.700109e-06,-0.004986249,0.00130992,-0.04926624,4941,4941,0,0,1,1
566471509,566471167,2490386,2490386,1.8949119e-06,5.176244e-05,-2.2944854e-05,-0.005843362,0.00057218445,-0.04843598,4942,4942,0,0,1,1
566477334,566476110,2490386,2490386,1.4814885e-05,5.7763085e-05,5.3001745e-06,-0.0027865914,0.0018032327,-0.04868493,4943,4943,0,0,1,1
566481636,566481052,2490386,2490386,-3.246769e-05,2.6926858e-05,-2.8143973e-05,-0.0024058728,0.00022533648,-0.048924897,4942,4942,0,0,1,1
566487695,566485994,2490386,2490386,-2.9017912e-07,2.411396e-05,9.688018e-06,-0.004004145,0.00076844945,-0.048751142,4942,4942,0,0,1,1
566491543,566490937,2490386,2490386,2.3022525e-05,-1.2811973e-05,4.3109817e-06,-0.00315054,0.0008109958,-0.049476266,4943,4943,0,0,1,1
566497333,566495879,2490386,2490386,-6.443993e-05,-3.675011e-06,2.5208892e-05,-0.003820344,0.0015214884,-0.04861762,4942,4942,0,0,1,1
566501503,566500824,2490386,2490386,-4.45913e-07,8.215803e-05,2.4430816e-05,-0.0053443247,-0.00019958815,-0.04895303,4945,4945,0,0,1,1
566506939,566505791,2490386,2490386,1.4266468e-06,3.413314e-05,5.3409516e-05,-0.0035537083,0.0019950457,-0.04936768,4967,4967,0,0,1,1
566511721,566510706,2490386,2490386,-1.5574424e-05,2.1452519e-05,3.165954e-05,-0.0019639267,0.0004851234,-0.049086113,4915,4915,0,0,1,1
566517418,566515648,2490386,2490386,-2.9254843e-06,3.9717365e-06,6.7848996e-06,-0.0034158446,6.645119e-05,-0.048937608,4942,4942,0,0,1,1
566521437,566520591,2490386,2490386,-3.4104826e-06,-1.28603815e-05,3.270652e-06,-0.0039051948,0.0018669933,-0.048930086,4943,4943,0,0,1,1
566525860,566525533,2490386,2490386,-4.93304e-06,-5.3763357e-05,-1.821896e-05,-0.0026060913,-2.5293624e-05,-0.048566196,4942,4942,0,0,1,1
566531371,566530476,2490386,2490386,-7.3209803e-06,4.5670742e-05,-2.356277e-05,-0.0055379597,0.0008852024,-0.0492037,4943,4943,0,0,1,1
566535748,566535418,2490386,2490386,-4.027997e-06,1.3584515e-05,6.839317e-06,-0.004394373,0.0011578834,-0.048797917,4942,4942,0,0,1,1
566540669,566540361,2490386,2490386,-2.0597015e-05,4.2757063e-05,-1.285889e-05,-0.0021094799,0.00087583123,-0.04866576,4943,4943,0,0,1,1
566545636,566545303,2490386,2490386,-6.581181e-06,5.7091797e-06,1.1971676e-05,-0.003372579,0.00033529705,-0.049973972,4942,4942,0,0,1,1
566550543,566550245,2490386,2490386,-1.783645e-05,1.630277e-05,-1.2019681e-05,-0.0040152525,0.0012948215,-0.04920665,4942,4942,0,0,1,1
566555494,566555188,2490386,2490386,-7.1909276e-06,-3.898921e-05,8.274774e-06,-0.0030937712,0.000524005,-0.048625637,4943,4943,0,0,1,1
566560454,566560130,2490386,2490386,-8.190578e-06,-3.5530902e-06,1.149826e-05,-0.0048485408,0.0012762106,-0.048584472,4942,4942,0,0,1,1
566565376,566565073,2490386,2490386,-2.871743e-05,4.453213e-05,3.2755644e-05,-0.004759756,0.00031946067,-0.049010944,4943,4943,0,0,1,1
566570307,566570015,2490386,2490386,-1.6145708e-05,1.6117376e-05,4.2160755e-05,-0.002008209,0.0020246373,-0.04933465,4942,4942,0,0,1,1
566575259,566574962,2490386,2490386,-1.0466069e-05,3.7317524e-05,1.6978778e-05,-0.003916967,-0.00014703773,-0.048207317,4947,4947,0,0,1,1
566580245,566579900,2490386,2490386,-2.8867405e-06,3.0950425e-05,2.6711985e-05,-0.004291565,0.001732918,-0.049590018,4938,4938,0,0,1,1
566585243,566584842,2490386,2490386,7.918301e-07,3.2284032e-07,-2.3066297e-05,-0.0028631408,0.0001443771,-0.04887825,4942,4942,0,0,1,1
566590251,566589785,2490386,2490386,1.7152268e-05,-4.7694693e-06,6.067961e-07,-0.0039608073,0.000836381,-0.04919111,4943,4943,0,0,1,1
566595208,566594733,2490386,2490386,1.276438e-05,4.987545e-05,-1.0738422e-05,-0.0047011017,0.00064969435,-0.049035043,4948,4948,0,0,1,1
566600159,566599669,2490386,2490386,-2.017742e-05,2.9108549e-05,7.2218863e-06,-0.0026388103,0.00068883697,-0.048293374,4936,4936,0,0,1,1
566605163,566604612,2490386,2490386,-1.12121725e-05,-1.21315425e-05,-3.3599988e-06,-0.0029578642,0.000445773,-0.04810888,4943,4943,0,0,1,1
566610229,566609554,2490386,2490386,-4.6510468e-05,4.2124033e-05,1.0540006e-05,-0.004333317,0.0013420088,-0.048672777,4942,4942,0,0,1,1
566615142,566614499,2490386,2490386,-2.1406087e-05,1.0649586e-05,1.4685266e-07,-0.0033216062,0.0010434567,-0.049374655,4945,4945,0,0,1,1
566619758,566619439,2490386,2490386,-6.313892e-05,4.719405e-06,1.3858399e-05,-0.0033582954,0.0010858825,-0.049074806,4940,4940,0,0,1,1
566624716,566624382,2490386,2490386,1.3550179e-05,4.76804e-05,1.6527265e-05,-0.0051169354,0.00058133795,-0.049066838,4943,4943,0,0,1,1
566629730,566629324,2490386,2490386,-1.947801e-05,-1.7629727e-05,3.6592824e-05,-0.0023964462,0.0011562809,-0.048483755,4942,4942,0,0,1,1
566634558,566634266,2490386,2490386,-1.5934123e-05,4.2805266e-05,1.5537407e-05,-0.00348542,0.0008953647,-0.04849935,4942,4942,0,0,1,1
566639518,566639223,2490386,2490386,-2.6164187e-06,-4.471423e-06,1.822219e-05,-0.0039756764,0.0006227287,-0.049140602,4957,4957,0,0,1,1
566644497,566644151,2490386,2490386,2.1921966e-05,2.3419343e-06,9.874607e-08,-0.0044036824,0.001390549,-0.048816625,4928,4928,0,0,1,1
566649415,566649103,2490386,2490386,1.0297899e-05,1.0949434e-06,3.1908705e-06,-0.0028737711,-0.00012655478,-0.04952669,4952,4952,0,0,1,1
566654325,566654036,2490386,2490386,2.2929753e-05,4.00773e-05,-1.5883776e-05,-0.005020891,0.0014359559,-0.04960076,4933,4933,0,0,1,1
566659276,566658979,2490386,2490386,2.1349551e-05,-1.39786935e-05,6.6674856e-06,-0.00252799,0.0005119936,-0.048840836,4943,4943,0,0,1,1
566664219,566663921,2490386,2490386,8.383565e-08,4.262687e-05,-6.6502353e-06,-0.0031909582,0.0003210169,-0.048644036,4942,4942,0,0,1,1
566669228,566668864,2490386,2490386,-3.9543487e-05,-3.7485481e-06,-3.5611044e-06,-0.004876389,0.0010066853,-0.04886075,4943,4943,0,0,1,1
566674140,566673805,2490386,2490386,-2.026671e-05,-8.74924e-08,4.524441e-06,-0.0032304525,0.0011597198,-0.048380267,4941,4941,0,0,1,1
566679161,566678749,2490386,2490386,-8.832383e-05,1.3094005e-05,1.6988135e-05,-0.003154677,0.0009314732,-0.04887024,4944,4944,0,0,1,1
566689037,566688637,2490386,2490386,-3.0275693e-05,5.6387198e-05,4.029791e-05,-0.0033590589,0.0014567412,-0.048987065,4944,4944,0,0,1,1
566694045,566693575,2490386,2490386,-4.075169e-06,4.6975047e-06,3.3796234e-05,-0.0027570112,0.0012174918,-0.049082566,4938,4938,0,0,1,1
566699025,566698518,2490386,2490386,-2.819378e-06,2.3468949e-05,3.673641e-06,-0.0042615333,-0.00018979098,-0.048304114,4943,4943,0,0,1,1
566703966,566703460,2490386,2490386,1.1638858e-05,4.076967e-05,7.691182e-06,-0.0041807005,0.0017352321,-0.049160857,4942,4942,0,0,1,1
566708945,566708403,2490386,2490386,2.3732962e-05,2.854972e-06,-1.690181e-05,-0.002730207,0.0006629026,-0.048234835,4943,4943,0,0,1,1
566713709,566713345,2490386,2490386,2.242024e-05,2.451586e-05,-2.8728142e-05,-0.0043535535,0.0006764911,-0.04902804,4942,4942,0,0,1,1
566718664,566718288,2490386,2490386,4.1442872e-05,1.8294115e-05,1.9062257e-06,-0.0041841436,0.0008286398,-0.04931085,4943,4943,0,0,1,1
566723543,566723230,2490386,2490386,-4.496026e-06,-1.51184295e-05,8.879425e-08,-0.0019153091,0.0009010246,-0.04871475,4942,4942,0,0,1,1
566728470,566728172,2490386,2490386,1.0918509e-05,3.2534692e-05,6.9596817e-06,-0.0042534955,0.00034025055,-0.048914723,4942,4942,0,0,1,1
566738353,566738057,2490386,2490386,-3.2011973e-05,2.1870514e-05,1.8651557e-05,-0.002559586,0.001090484,-0.048569724,4934,4934,0,0,1,1
566743344,566742999,2490386,2490386,-6.677356e-05,1.3552787e-05,1.6454094e-05,-0.00444777,0.0011496359,-0.0491049,4942,4942,0,0,1,1
566748244,566747942,2490386,2490386,-4.2298096e-05,1.313138e-06,2.4559604e-05,-0.004394966,0.00077812234,-0.049276367,4943,4943,0,0,1,1
566753178,566752884,2490386,2490386,-4.7862704e-05,3.169427e-05,2.8598839e-05,-0.0030385088,0.0010485485,-0.049234197,4942,4942,0,0,1,1
566758159,566757827,2490386,2490386,-1.8706347e-05,2.3101507e-05,1.8833747e-07,-0.004073909,0.0005492683,-0.04869719,4943,4943,0,0,1,1
566763071,566762769,2490386,2490386,1.0446749e-05,1.841818e-05,5.0129956e-06,-0.0037254517,0.0011758002,-0.049666416,4942,4942,0,0,1,1
566768079,566767711,2490386,2490386,-8.414442e-06,4.0189818e-05,-1.5651525e-05,-0.002915351,0.0011185606,-0.04948428,4942,4942,0,0,1,1
566773116,566772654,2490386,2490386,3.4282082e-05,4.382594e-05,-7.3245933e-06,-0.0039392416,0.00064930186,-0.048689708,4943,4943,0,0,1,1
566778445,566777597,2490386,2490386,2.8463734e-05,2.7326745e-05,-4.126649e-06,-0.0040117805,0.00075095095,-0.047836043,4943,4943,0,0,1,1
566783002,566782539,2490386,2490386,1.8837443e-05,6.1591873e-06,-2.1097031e-07,-0.0029340433,0.000728002,-0.04940004,4942,4942,0,0,1,1
566787969,566787481,2490386,2490386,2.4424528e-05,-9.691179e-06,2.5298536e-06,-0.0036534297,-0.0002341172,-0.04828301,4942,4942,0,0,1,1
566792958,566792423,2490386,2490386,-6.223286e-06,1.41193195e-05,1.1788034e-05,-0.003765575,0.0015510038,-0.04953886,4942,4942,0,0,1,1
566797986,566797366,2490386,2490386,-1.669489e-05,-2.918303e-05,2.3930646e-05,-0.0028053285,0.00031644394,-0.049124844,4943,4943,0,0,1,1
566803049,566802308,2490386,2490386,-6.778125e-05,2.5820196e-05,3.5329922e-05,-0.004413738,0.0014862831,-0.048547503,4942,4942,0,0,1,1
566807598,566807251,2490386,2490386,-4.5940178e-05,5.8005346e-05,1.8572515e-05,-0.0042255134,0.00030733438,-0.048723042,4943,4943,0,0,1,1
566812578,566812193,2490386,2490386,-5.85006e-05,-3.1045704e-05,3.545502e-05,-0.0023239264,0.0015969176,-0.048960175,4942,4942,0,0,1,1
566817985,566817136,2490386,2490386,-2.8306711e-05,1.453363e-05,1.1222138e-05,-0.0037145268,0.00043777341,-0.048933126,4943,4943,0,0,1,1
566822367,566822078,2490386,2490386,-3.97441e-05,3.406916e-05,-1.0107697e-05,-0.0053298995,0.0009970341,-0.04935623,4942,4942,0,0,1,1
566827669,566827021,2490386,2490386,1.6758117e-05,-3.328193e-05,-2.852824e-05,-0.0029436178,0.0008918245,-0.049257807,4943,4943,0,0,1,1
566832306,566831969,2490386,2490386,4.9164402e-05,1.9141631e-05,-5.204895e-06,-0.0029500043,0.001141305,-0.049078625,4948,4948,0,0,1,1
566837670,566836905,2490386,2490386,1.8245477e-05,3.9818806e-05,-2.2306172e-05,-0.00528361,0.0008507515,-0.049905226,4936,4936,0,0,1,1
566842144,566841847,2490386,2490386,3.740718e-05,2.798807e-05,6.187727e-06,-0.003299233,0.0014743544,-0.048722416,4942,4942,0,0,1,1
566847710,566846790,2490386,2490386,1.9349252e-05,1.06912e-05,1.6703317e-06,-0.0021872502,7.77984e-06,-0.0490981,4943,4943,0,0,1,1
566852197,566851732,2490386,2490386,-2.0825848e-05,6.52136e-06,1.8901408e-05,-0.0047226166,0.0004676917,-0.048526708,4942,4942,0,0,1,1
566858540,566856675,2490386,2490386,-3.239906e-07,3.9381125e-06,8.537045e-07,-0.003839042,0.0011725118,-0.049188662,4943,4943,0,0,1,1
566862224,566861617,2490386,2490386,-5.0678187e-05,-1.0087132e-05,2.8282897e-05,-0.0030540796,0.0010158486,-0.048855823,4942,4942,0,0,1,1
566868000,566866559,2490386,2490386,-2.4856905e-05,3.1392898e-05,2.5094874e-05,-0.004958919,0.00018252736,-0.049338643,4942,4942,0,0,1,1
566872172,566871502,2490386,2490386,-5.2220716e-05,4.1603715e-05,4.1740914e-05,-0.003338155,0.0016137472,-0.04907738,4943,4943,0,0,1,1
566878108,566876444,2490386,2490386,-6.911554e-05,3.8725382e-05,2.2709643e-05,-0.0021668796,0.0014808751,-0.048587255,4942,4942,0,0,1,1
566883136,566881388,2490386,2490386,-5.5272914e-05,1.2896279e-05,1.1136276e-05,-0.0039626327,-0.00023537542,-0.048685297,4944,4944,0,0,1,1
566887563,566886329,2490386,2490386,-4.4044442e-05,1.1638466e-05,-9.855572e-06,-0.0047612176,0.0020627785,-0.04902308,4941,4941,0,0,1,1
566892064,566891271,2490386,2490386,3.7236536e-05,2.7940076e-05,-9.968587e-06,-0.0027646697,0.00027872325,-0.049045924,4942,4942,0,0,1,1
566896533,566896214,2490386,2490386,2.5947118e-05,2.653918e-05,-3.3133394e-05,-0.004694006,0.0009625761,-0.049210526,4943,4943,0,0,1,1
566901479,566901156,2490386,2490386,4.5708104e-05,-7.390193e-06,-2.28698e-06,-0.0035719695,0.00031262927,-0.04959711,4942,4942,0,0,1,1
566906398,566906099,2490386,2490386,4.4151155e-05,4.9030903e-05,-9.3627605e-06,-0.002441713,0.0010531787,-0.049459238,4943,4943,0,0,1,1
566911449,566911041,2490386,2490386,-1.5761003e-05,2.0933924e-06,6.964612e-06,-0.0036698624,1.5865751e-05,-0.0488514,4942,4942,0,0,1,1
566916328,566915983,2490386,2490386,7.4283093e-06,2.102828e-06,1.7590437e-05,-0.0043652183,0.0013220645,-0.048722375,4942,4942,0,0,1,1
566921215,566920926,2490386,2490386,-1.9308767e-05,-1.2399398e-05,2.3357345e-05,-0.0021186036,0.00023299837,-0.049041227,4943,4943,0,0,1,1
566926165,566925868,2490386,2490386,-2.5829348e-05,-3.89094e-06,3.7195718e-05,-0.004277753,0.0018094231,-0.04860626,4942,4942,0,0,1,1
566931116,566930811,2490386,2490386,-4.7683276e-05,-1.17127e-05,3.1554693e-05,-0.004550318,0.00019048955,-0.049629834,4943,4943,0,0,1,1
566936055,566935753,2490386,2490386,-2.1156236e-05,-4.906536e-06,3.2580556e-05,-0.00298221,0.0010763428,-0.04951368,4942,4942,0,0,1,1
566940998,566940695,2490386,2490386,-6.2721076e-05,3.0806335e-05,5.0858844e-06,-0.0037356475,0.0004503485,-0.04927021,4942,4942,0,0,1,1
566946001,566945638,2490386,2490386,-5.4178796e-05,1.26582545e-05,-1.8680843e-06,-0.00463998,0.0013649889,-0.04937259,4943,4943,0,0,1,1
566950964,566950580,2490386,2490386,-4.140067e-06,3.9871105e-05,-1.6944023e-05,-0.0030135766,0.0008797303,-0.048462156,4942,4942,0,0,1,1
566955917,566955523,2490386,2490386,-1.1970309e-05,2.543825e-06,-2.247657e-05,-0.00340044,0.0012415906,-0.04888166,4943,4943,0,0,1,1
566960951,566960471,2490386,2490386,3.5142268e-05,2.3658527e-05,-3.315253e-05,-0.004900594,0.0008927669,-0.048751168,4948,4948,0,0,1,1
566965856,566965407,2490386,2490386,1.2361942e-05,9.0027424e-07,-3.8799666e-07,-0.002111658,0.0006493138,-0.04945794,4936,4936,0,0,1,1
566970956,566970350,2490386,2490386,5.1665407e-05,4.7076037e-07,-1.095538e-05,-0.0038784852,0.00014120498,-0.048993334,4943,4943,0,0,1,1
566976056,566975294,2490386,2490386,-3.500146e-05,4.885231e-05,2.3866061e-05,-0.0060909344,0.0012935114,-0.049141023,4944,4944,0,0,1,1
566980899,566980234,2490386,2490386,4.1428957e-05,9.2124166e-05,3.977635e-06,-0.0024196948,0.0004963534,-0.048426468,4940,4940,0,0,1,1
566985473,566985177,2490386,2490386,-2.4566665e-05,1.7382708e-05,5.1509298e-05,-0.00031622034,0.001199593,-0.04954705,4943,4943,0,0,1,1
566990461,566990119,2490386,2490386,-5.73937e-05,2.9509722e-05,1.6502525e-05,-0.007056852,0.0014759505,-0.04758062,4942,4942,0,0,1,1
566995387,566995062,2490386,2490386,-2.3225552e-05,0.00014403516,2.8374114e-05,-0.00801882,-0.0006953771,-0.049428996,4943,4943,0,0,1,1
567000296,567000004,2490386,2490386,-1.6878494e-05,0.00029422124,3.329553e-05,-0.0020046805,0.0026711256,-0.0485496,4942,4942,0,0,1,1
567005235,567004947,2490386,2490386,-7.987993e-05,6.1000443e-05,2.757653e-05,-5.628372e-05,-0.00057869224,-0.049743988,4943,4943,0,0,1,1
567010182,567009889,2490386,2490386,5.298249e-06,0.00029905647,-4.4107695e-05,-0.0074600233,0.0021016772,-0.048502557,4942,4942,0,0,1,1
567015201,567014833,2490386,2490386,-2.2174047e-05,0.00032860375,2.8031356e-05,-0.0057147266,-0.0006445921,-0.050653316,4944,4944,0,0,1,1
567020099,567019788,2490386,2490386,0.00018556582,0.00033853517,-3.487642e-05,-0.0024996703,0.00017631649,-0.049055964,4955,4955,0,0,1,1
567025007,567024716,2490386,2490386,-5.9396148e-06,0.00040137387,-3.8376356e-06,-0.004228416,0.0032390566,-0.048789527,4928,4928,0,0,1,1
567030027,567029659,2490386,2490386,4.9918683e-05,0.0004184837,-6.1612336e-05,-0.0036132238,-0.00063377136,-0.049096614,4943,4943,0,0,1,1
567034893,567034601,2490386,2490386,0.00035200498,0.00040174153,0.00013850153,-0.005615001,0.0038814438,-0.049300306,4942,4942,0,0,1,1
567039851,567039544,2490386,2490386,-0.0002011426,0.00032335587,2.6981901e-05,0.002043774,0.0035779674,-0.047572605,4943,4943,0,0,1,1
567044973,567044487,2490386,2490386,0.00015031919,0.0004176824,4.3981905e-05,-0.0039019417,-0.003277085,-0.048791815,4943,4943,0,0,1,1
567049894,567049430,2490386,2490386,0.00028895953,0.00026939175,-5.6264977e-05,-0.0071093,0.0020147592,-0.049577788,4943,4943,0,0,1,1
567054874,567054371,2490386,2490386,-4.3385822e-05,0.0003070736,-4.9599563e-05,-0.0031766417,-0.0033759766,-0.04915855,4941,4941,0,0,1,1
567059737,567059313,2490386,2490386,5.4733246e-05,0.0003906601,3.5894158e-05,-0.001983994,0.002170322,-0.051806945,4942,4942,0,0,1,1
567064751,567064255,2490386,2490386,2.3757662e-05,0.00035837415,6.0094168e-05,-0.0041456013,0.00047351807,-0.051350787,4942,4942,0,0,1,1
567069718,567069198,2490386,2490386,-0.0001361533,0.00034052212,-1.9705356e-05,-0.0015123062,0.002942332,-0.04929153,4943,4943,0,0,1,1
567074696,567074140,2490386,2490386,9.1570764e-05,0.00021055255,-7.374813e-05,-0.0029376808,-0.0009382198,-0.04649437,4942,4942,0,0,1,1
567079727,567079083,2490386,2490386,-0.00012770074,8.9653564e-05,-8.768978e-05,-0.005031609,0.00028386564,-0.04971882,4943,4943,0,0,1,1
567084342,567084025,2490386,2490386,-3.6454483e-05,0.00036880482,4.2897314e-05,-0.0025422063,0.0009700524,-0.050021373,4942,4942,0,0,1,1
567089334,567088967,2490386,2490386,-7.574487e-05,0.00039126014,-1.7361554e-05,-0.007469158,0.0033278682,-0.049465746,4942,4942,0,0,1,1
567094206,567093910,2490386,2490386,-5.584449e-05,0.00027952928,3.6061247e-05,0.00045821618,-0.002290383,-0.04619145,4943,4943,0,0,1,1
567099200,567098852,2490386,2490386,0.00025914918,0.00016507551,-5.3661166e-05,-0.0031582545,0.0013282283,-0.049202908,4942,4942,0,0,1,1
567109092,567108743,2490386,2490386,0.00021693952,0.00048519947,6.62645e-05,-0.007143004,0.0017149091,-0.0580759,4948,4948,0,0,1,1
567113982,567113679,2490386,2490386,-0.00015078984,0.00015932079,-1.9535044e-05,-0.002994885,0.00030760225,-0.04859116,4936,4936,0,0,1,1
567119124,567118622,2490386,2490386,0.00026913764,0.0001868693,6.548045e-05,-0.0003685784,-0.0028243652,-0.04137101,4943,4943,0,0,1,1
567123877,567123564,2490386,2490386,-0.00017202669,0.0005095491,-4.1454885e-05,-0.00952284,0.00504345,-0.04657005,4942,4942,0,0,1,1
567128812,567128507,2490386,2490386,0.0002803673,0.00041123707,9.3437324e-05,-0.0052281185,-0.0017500467,-0.053663716,4943,4943,0,0,1,1
