timestamp,accel_device_id,gyro_device_id,accel_clipping[0],accel_clipping[1],accel_clipping[2],gyro_clipping[0],gyro_clipping[1],gyro_clipping[2],accel_error_count,gyro_error_count,accel_rate_hz,gyro_rate_hz,accel_raw_rate_hz,gyro_raw_rate_hz,accel_vibration_metric,gyro_vibration_metric,delta_angle_coning_metric,mean_accel[0],mean_accel[1],mean_accel[2],mean_gyro[0],mean_gyro[1],mean_gyro[2],var_accel[0],var_accel[1],var_accel[2],var_gyro[0],var_gyro[1],var_gyro[2],temperature_accel,temperature_gyro
564913297,3670026,3670026,0,0,0,1,1,1,0,0,798.5022,798.5022,3992.5112,7985.0225,0.036429267,0.0021538143,4.195353e-10,-0.700621,0.25312668,-9.990607,-0.030858444,-0.0039545367,0.001672974,0.007929667,0.005257345,0.079965934,3.5913665e-05,5.3803404e-05,3.3462984e-05,55.38966,55.38966
565013480,3670026,3670026,0,0,0,1,1,1,0,0,798.50214,798.50214,3992.5107,7985.0215,0.066804715,0.0041888226,1.1113058e-09,-0.6957354,0.2646973,-10.003342,-0.03197993,-0.0041970424,-0.0013539996,0.115023024,0.24555583,0.15502231,0.0003000088,0.00012254778,0.00065131503,55.38017,55.38017
565113788,3670026,3670026,0,0,0,1,1,1,0,0,798.502,798.502,3992.5103,7985.0205,0.13145572,0.007327139,1.5621131e-09,-0.70480347,0.24079788,-9.972001,-0.029903954,-0.0034472013,0.005081832,0.27413794,0.6935976,0.6636791,0.000536621,0.0002735338,0.0006193989,55.371784,55.371784
565213817,3670026,3670026,0,0,0,1,1,1,0,0,798.502,798.502,3992.5105,7985.021,0.16298522,0.008210112,1.1516809e-09,-0.70297706,0.24468726,-9.995226,-0.030729743,-0.0040166634,0.0020547505,0.2433262,0.57366025,0.6074175,0.0003543636,0.00022733462,0.00024675915,55.37693,55.37693
565314023,3670026,3670026,0,0,0,1,1,1,0,0,798.50195,798.50195,3992.51,7985.02,0.19391188,0.008560694,1.1900954e-09,-0.71564555,0.24866317,-9.977773,-0.030328842,-0.0043941056,0.0019722462,0.22977392,0.41965452,1.1852238,0.00059628964,0.00023023435,0.00011942734,55.373695,55.373695
565414125,3670026,3670026,0,0,0,1,1,1,0,0,798.50195,798.50195,3992.5098,7985.0195,0.21330854,0.008757253,9.930097e-10,-0.7069779,0.2509723,-10.039592,-0.031639367,-0.0052855355,0.0024667357,0.21804889,0.33525,0.64707226,0.00038661825,0.00028132155,0.00017113204,55.36219,55.36219
565514320,3670026,3670026,0,0,0,1,1,1,0,0,798.5019,798.5019,3992.5093,7985.0186,0.22167209,0.008804504,1.1941034e-09,-0.70257556,0.24969597,-10.064618,-0.030648498,-0.0044133742,0.0009443973,0.359757,0.43346256,0.9483912,0.0003910034,0.00037002788,0.00014398515,55.32663,55.32663
565614554,3670026,3670026,0,0,0,1,1,1,0,0,798.5018,798.5018,3992.5093,7985.0186,0.25926664,0.009038143,1.4786328e-09,-0.70880157,0.25945064,-10.076129,-0.031209353,-0.0049804063,0.0032249824,0.34280723,0.526772,1.0531852,0.0003772341,0.00073194783,0.00014646322,55.28808,55.28808
565714728,3670026,3670026,0,0,0,1,1,1,0,0,798.5018,798.5018,3992.509,7985.018,0.27168345,0.009473353,1.6782111e-09,-0.6827912,0.26266262,-10.077704,-0.031660207,-0.0050367257,0.0016141442,0.36004558,0.45917913,0.4913959,0.00047725387,0.00069537404,0.00021247771,55.264137,55.264137
565814911,3670026,3670026,0,0,0,1,1,1,0,0,798.5017,798.5017,3992.5088,7985.0176,0.2952096,0.009576251,1.5152484e-09,-0.7047914,0.2381407,-10.1205,-0.029499864,-0.0038173893,0.0013963197,0.35195282,0.6781315,0.59125346,0.00071176037,0.0005337863,0.00018828065,55.22877,55.22877
565915144,3670026,3670026,0,0,0,1,1,1,0,0,798.5017,798.5017,3992.5085,7985.017,0.3103267,0.009469024,1.7136494e-09,-0.7037821,0.2585661,-10.085954,-0.032468937,-0.0048242663,0.0027342148,0.35087547,0.54295534,0.8383144,0.0003507452,0.0005779961,0.00013573938,55.204643,55.204643
566015305,3670026,3670026,0,0,0,1,1,1,0,0,798.50165,798.50165,3992.5083,7985.0166,0.31838122,0.010641034,1.197223e-09,-0.7186758,0.23859206,-10.055861,-0.02964037,-0.004418539,0.0015067402,0.24532878,0.51375103,0.6782073,0.00038699684,0.0004407935,0.00014020629,55.20061,55.20061
566115576,3670026,3670026,0,0,0,1,1,1,0,0,798.5016,798.5016,3992.508,7985.016,0.3431698,0.010871849,1.1776996e-09,-0.6912465,0.25855944,-10.081144,-0.03071671,-0.0039157127,0.0014003998,0.2650522,0.47111815,0.7133361,0.0002726501,0.00042918595,0.00013057418,55.191547,55.191547
566215633,3670026,3670026,0,0,0,1,1,1,0,0,798.5016,798.5016,3992.5078,7985.0156,0.35189444,0.010924222,1.6589162e-09,-0.7030064,0.25167486,-10.072365,-0.03171429,-0.005348844,0.0031746347,0.32913002,0.46766892,0.69984233,0.00026971693,0.0008382928,0.00017153329,55.192955,55.192955
566315892,3670026,3670026,0,0,0,1,1,1,0,0,798.50146,798.50146,3992.5076,7985.015,0.34416282,0.01131809,1.4654163e-09,-0.6988627,0.24043787,-9.9895315,-0.029869609,-0.0042310515,0.001151708,0.20853586,0.6836441,0.8686713,0.00043680854,0.0008648305,0.00026882207,55.211315,55.211315
566416023,3670026,3670026,0,0,0,1,1,1,0,0,798.50146,798.50146,3992.5073,7985.0146,0.34073567,0.011476268,1.3705773e-09,-0.7107999,0.2514912,-9.972616,-0.03154208,-0.00406387,0.002353249,0.23651363,0.38273108,0.8674106,0.00047294528,0.00029698975,0.00020011405,55.253548,55.253548
566516178,3670026,3670026,0,0,0,1,1,1,0,0,798.50134,798.50134,3992.5068,7985.0137,0.35586363,0.011423715,1.3381684e-09,-0.69952923,0.2529807,-9.972481,-0.030002503,-0.0042902553,0.0023883227,0.30666637,0.61484665,0.52725995,0.00040262565,0.00041667002,0.0001574622,55.278755,55.278755
566616337,3670026,3670026,0,0,0,1,1,1,0,0,798.50134,798.50134,3992.5068,7985.0137,0.36570835,0.011247964,1.5032913e-09,-0.69540685,0.26014128,-10.033009,-0.031315725,-0.004793882,0.0007743511,0.3292683,0.5115465,0.6885315,0.00054404914,0.00048377996,0.00021120832,55.31139,55.31139
566716666,3670026,3670026,0,0,0,1,1,1,0,0,798.50134,798.50134,3992.5066,7985.013,0.37165517,0.011315937,1.5378339e-09,-0.7261244,0.25330716,-10.05659,-0.03009442,-0.0035550098,0.0024166428,0.43608528,0.67417926,0.7251162,0.00039823365,0.0006996719,0.0001990567,55.284996,55.284996
566816726,3670026,3670026,0,0,0,1,1,1,0,0,798.5012,798.5012,3992.5063,7985.0127,0.35804734,0.010960196,1.241628e-09,-0.69208276,0.26899132,-10.058265,-0.032228846,-0.0046915244,0.0024700507,0.3431143,0.34397128,0.7081071,0.00024557672,0.00048784728,0.00013217898,55.25545,55.25545
566916936,3670026,3670026,0,0,0,1,1,1,0,0,798.50116,798.50116,3992.506,7985.012,0.37580565,0.011070746,1.173274e-09,-0.70985895,0.2283308,-10.125145,-0.029326633,-0.0039970237,0.0014209554,0.25722536,0.7266964,0.9177818,0.0004846652,0.00035002202,0.00018193493,55.217937,55.217937
567017209,3670026,3670026,0,0,0,1,1,1,0,0,798.50116,798.50116,3992.5059,7985.0117,0.44143674,0.012303395,2.9051304e-09,-0.75555897,0.2573641,-10.151618,-0.030335799,0.009156392,0.0025954123,0.8227792,0.8532252,1.3109094,0.00081174826,0.0015999579,0.00022747403,55.183174,55.183174
567117444,3670026,3670026,0,0,0,1,1,1,0,0,798.5011,798.5011,3992.5056,7985.011,0.68135375,0.020952493,1.26675035e-08,-0.62697333,0.21863729,-10.032241,-0.019927224,0.055042733,0.0016814896,6.11359,11.173491,17.789804,0.00709534,0.0032242592,0.00076059473,55.15968,55.15968
567217542,3670026,3670026,0,0,0,1,1,1,0,0,798.5011,798.5011,3992.5054,7985.0107,1.1515396,0.049396846,6.929374e-08,-0.59849393,0.24029104,-10.345627,-0.02834803,0.0935815,-0.0071408977,10.101465,8.841896,16.31871,0.027170818,0.0315274,0.002998707,55.12339,55.12339
567317805,3670026,3670026,0,0,0,1,1,1,0,0,798.50104,798.50104,3992.5051,7985.0103,1.5811975,0.07200476,2.1334161e-07,-0.32170174,0.31807366,-11.223991,0.036560383,0.19304079,0.0071632066,19.026548,16.696724,84.07925,0.15777132,0.030825935,0.0062295594,55.01891,55.01891
567417907,3670026,3670026,0,0,0,1,1,1,0,0,798.50104,798.50104,3992.5051,7985.0103,1.7827053,0.08470369,3.7923533e-07,-0.10185796,-0.07113099,-12.8881,-0.07813998,0.4123571,0.005899147,23.72316,26.900661,435.7882,0.14826775,0.022505503,0.015175254,54.782066,54.782066
567518160,3670026,3670026,0,0,0,1,1,1,0,0,798.5009,798.5009,3992.505,7985.01,1.8023876,0.09917747,2.143681e-07,0.22517826,0.047685765,-13.693802,0.19068865,0.17276135,0.044469286,29.810389,37.20055,299.63065,0.22861132,0.0477286,0.021395534,54.546642,54.546642
567618425,3670026,3670026,0,0,0,1,1,1,0,0,798.5009,798.5009,3992.505,7985.01,1.9954336,0.11525032,2.1693025e-07,0.2864123,-0.07853593,-12.20346,0.07474696,-0.0741998,0.032598887,35.245953,25.278826,166.742,0.2582804,0.045192275,0.018502688,54.374107,54.374107
567718438,3670026,3670026,0,0,0,1,1,1,0,0,798.5009,798.5009,3992.505,7985.01,2.0484076,0.11369752,1.5532906e-07,0.07093469,-0.09774918,-9.949673,-0.054500975,-0.08704917,0.039657503,13.723254,30.089828,66.68709,0.095037594,0.045170702,0.0026059258,54.35783,54.35783
567818640,3670026,3670026,0,0,0,1,1,1,0,0,798.5009,798.5009,3992.5046,7985.0093,2.120939,0.11392605,8.1623824e-08,0.27294168,0.14075394,-9.6496,0.017730596,-0.0017761968,0.034527875,11.690286,16.220015,71.176384,0.06006344,0.037505634,0.004319993,54.408875,54.408875
567918867,3670026,3670026,0,0,0,1,1,1,0,0,798.50085,798.50085,3992.5046,7985.0093,2.3192155,0.114988364,7.4551956e-08,0.067886,-0.13933331,-10.351438,-0.033958454,-0.074914664,0.053219646,26.184975,13.656231,206.33907,0.03559833,0.032619324,0.0050154333,54.467857,54.467857
568019027,3670026,3670026,0,0,0,1,1,1,0,0,798.50085,798.50085,3992.5044,7985.009,2.3455584,0.11441725,1.5560147e-07,0.1855887,-0.045822736,-9.789888,-0.074980825,-0.061885074,0.038862344,15.04975,14.718381,107.47384,0.20197316,0.02181808,0.0028396077,54.48758,54.48758
568119319,3670026,3670026,0,0,0,1,1,1,0,0,798.50085,798.50085,3992.5044,7985.009,2.2827647,0.11774681,1.5262155e-07,0.13825712,-0.040387932,-9.708919,0.07338483,0.17518416,0.052011684,21.175386,7.1742477,80.834076,0.11255303,0.024668984,0.0055821803,54.495342,54.495342
568219408,3670026,3670026,0,0,0,1,1,1,0,0,798.50085,798.50085,3992.5042,7985.0083,2.4794457,0.1180479,7.844751e-08,0.1935599,-0.12546913,-10.578882,-0.08726861,0.06666076,0.017781988,22.237959,16.614271,307.172,0.110741526,0.025214795,0.0042948215,54.49351,54.49351
568319572,3670026,3670026,0,0,0,1,1,1,0,0,798.5008,798.5008,3992.5042,7985.0083,2.7829118,0.12249443,1.03086975e-07,0.101556346,0.09397249,-12.180736,0.02150189,0.06430955,-0.0026374895,35.12554,18.699738,102.60492,0.1124731,0.029508298,0.005302918,54.490143,54.490143
568419814,3670026,3670026,0,0,0,1,1,1,0,0,798.5008,798.5008,3992.5042,7985.0083,2.979288,0.14011127,1.2782395e-07,0.26345697,-0.19293456,-13.118632,-0.13468392,-0.05636896,0.010732462,39.948788,12.166647,72.49634,0.20181714,0.036279015,0.009140315,54.462715,54.462715
568519986,3670026,3670026,0,0,0,1,1,1,0,0,798.5008,798.5008,3992.504,7985.008,2.9470377,0.14196481,1.5028175e-07,0.17159735,-0.07090267,-10.635475,-0.15420768,-0.077070504,0.02119225,17.415705,8.886845,113.97959,0.1770245,0.028384259,0.008926679,54.452446,54.452446
568620265,3670026,3670026,0,0,0,1,1,1,0,0,798.5008,798.5008,3992.504,7985.008,2.9337044,0.13975641,1.04274875e-07,0.24683207,-0.08504247,-9.307961,0.05780256,0.0535934,0.026761578,35.364788,13.564391,76.97606,0.16947232,0.031176854,0.0052405656,54.43409,54.43409
568720397,3670026,3670026,0,0,0,1,1,1,0,0,798.50073,798.50073,3992.5037,7985.0073,2.8361578,0.13823195,8.0169166e-08,0.25991642,-0.09222753,-9.877333,-0.076088734,-0.027502881,0.00928481,26.74897,6.669908,102.28464,0.078061014,0.033252813,0.0036384347,54.446392,54.446392
568820563,3670026,3670026,0,0,0,1,1,1,0,0,798.50073,798.50073,3992.5037,7985.0073,2.790852,0.13414294,9.4422e-08,0.0072083236,-0.093500376,-10.409957,0.010905473,0.014339215,0.010492819,36.440815,6.6761446,115.64473,0.12357241,0.031342782,0.005844713,54.439587,54.439587
568920729,3670026,3670026,0,0,0,1,1,1,0,0,798.50073,798.50073,3992.5037,7985.0073,2.6421866,0.13118017,8.581843e-08,0.22234526,-0.16984928,-10.143072,-0.0075129387,-0.057661492,-0.02207022,55.05593,11.2098875,145.53696,0.1102486,0.043929335,0.010882059,54.4363,54.4363
569020916,3670026,3670026,0,0,0,1,1,1,0,0,798.50073,798.50073,3992.5034,7985.007,2.7058465,0.13438489,1.4108677e-07,0.15548834,-0.1303151,-10.369039,0.12959917,0.011252142,-0.030138558,47.898518,15.779635,159.18475,0.2203507,0.036003444,0.011760928,54.45587,54.45587
569121116,3670026,3670026,0,0,0,1,1,1,0,0,798.5006,798.5006,3992.5034,7985.007,2.6670616,0.13065541,6.716678e-08,0.11442213,-0.20428465,-10.358814,-0.04136732,-0.054877084,-0.02082654,40.527756,12.851413,88.24916,0.1299462,0.012815394,0.0063534006,54.470512,54.470512
569221359,3670026,3670026,0,0,0,1,1,1,0,0,798.5006,798.5006,3992.5032,7985.0063,2.537704,0.12583318,6.654674e-08,0.13545279,-0.07803993,-10.057229,0.039603874,-0.008046914,-0.0061324947,22.184113,13.804636,78.61693,0.3007932,0.011553749,0.003734498,54.491302,54.491302
569321505,3670026,3670026,0,0,0,1,1,1,0,0,798.50055,798.50055,3992.5027,7985.0054,2.5161538,0.12277124,1.0945218e-07,0.11291052,-0.25965494,-10.339979,-0.10917246,-0.064332284,-0.0006084122,25.933727,14.561301,94.49996,0.22338432,0.026893526,0.0055071777,54.46224,54.46224
569421663,3670026,3670026,0,0,0,1,1,1,0,0,798.5006,798.5006,3992.5032,7985.0063,2.6270545,0.12044853,9.571052e-08,0.021900894,-0.15268779,-10.182838,-0.039566513,0.018584294,-0.0110544255,78.104004,13.412129,293.8984,0.053079765,0.06854851,0.011680695,54.45172,54.45172
569521894,3670026,3670026,0,0,0,1,1,1,0,0,798.50055,798.50055,3992.503,7985.006,2.6669319,0.121031106,1.2107338e-07,0.30703676,-0.24229328,-10.01738,0.099711716,0.038191166,-0.010032219,62.8099,12.935448,339.55692,0.19040976,0.047086466,0.010332433,54.44883,54.44883
569622086,3670026,3670026,0,0,0,1,1,1,0,0,798.50055,798.50055,3992.503,7985.006,2.853632,0.12222419,6.8632254e-08,0.10732553,-0.072357655,-10.668466,-0.09605913,0.01392933,-0.008970227,84.03991,14.138855,305.2532,0.07495477,0.033681676,0.014627081,54.449318,54.449318
569722282,3670026,3670026,0,0,0,1,1,1,0,0,798.50055,798.50055,3992.5027,7985.0054,2.7204833,0.122713305,6.8133616e-08,0.16551246,-0.23101193,-10.244315,-0.0049489117,0.008673873,0.017295381,33.3602,11.395917,136.59901,0.23936778,0.012885196,0.0048884526,54.444435,54.444435
569822493,3670026,3670026,0,0,0,1,1,1,0,0,798.50055,798.50055,3992.5027,7985.0054,2.6415484,0.11756686,1.00754036e-07,0.17197002,-0.17296119,-9.916267,0.017921519,-0.081386775,0.038479052,22.160877,12.285475,90.119125,0.12688178,0.026036,0.004928984,54.439415,54.439415
569922650,3670026,3670026,0,0,0,1,1,1,0,0,798.5005,798.5005,3992.5027,7985.0054,2.5151722,0.11516055,6.110555e-08,0.057647318,-0.16631244,-10.50515,0.011357109,0.039553653,0.060041934,27.003323,9.358268,164.32176,0.05161605,0.024526862,0.007916126,54.39553,54.39553
570022808,3670026,3670026,0,0,0,1,1,1,0,0,798.5005,798.5005,3992.5024,7985.005,2.449807,0.11366483,8.235723e-08,0.1453388,-0.16654247,-10.179565,-0.14437456,-0.07648396,0.02080829,15.824752,9.5168,83.428764,0.10156651,0.018182555,0.0041178456,54.341377,54.341377
570123011,3670026,3670026,0,0,0,1,1,1,0,0,798.5005,798.5005,3992.5024,7985.005,2.3718019,0.11233173,1.11918595e-07,0.124211684,-0.10517686,-10.134715,-0.022141341,0.07449973,0.017771699,22.009735,11.944138,79.73463,0.15907095,0.021862453,0.0076486114,54.325817,54.325817
570223251,3670026,3670026,0,0,0,1,1,1,0,0,798.5005,798.5005,3992.5024,7985.005,2.370705,0.11151693,1.2667536e-07,0.10637091,-0.18748108,-10.338419,-0.15534407,0.09779385,0.012261843,27.621641,8.597091,130.83817,0.10251662,0.020207284,0.006598495,54.303963,54.303963
570323360,3670026,3670026,0,0,0,1,1,1,0,0,798.5005,798.5005,3992.5022,7985.0044,2.3512993,0.11176035,1.2340438e-07,0.3076341,-0.2149977,-9.9120035,-0.093509406,0.09539277,0.024800377,32.509735,16.032597,147.28233,0.14284761,0.022345614,0.0073503805,54.290394,54.290394
570423567,3670026,3670026,0,0,0,1,1,1,0,0,798.50037,798.50037,3992.5022,7985.0044,2.3747385,0.11633699,8.187747e-08,0.076241635,-0.20721835,-10.637591,-0.10549602,0.0025804185,0.044133402,25.606764,9.094663,280.54587,0.13281032,0.029210452,0.006734776,54.295452,54.295452
570523747,3670026,3670026,0,0,0,1,1,1,0,0,798.50037,798.50037,3992.5022,7985.0044,2.4842849,0.12102707,1.0021332e-07,-0.0037308407,-0.06717309,-10.109944,0.12653454,-0.05447622,0.06665473,59.11961,20.983463,603.0273,0.07844098,0.034246765,0.006057471,54.28465,54.28465
570624025,3670026,3670026,0,0,0,1,1,1,0,0,798.50037,798.50037,3992.5022,7985.0044,2.524122,0.12047521,8.205945e-08,0.05334964,-0.106278084,-10.399379,0.0025888109,-0.035398893,0.042440742,46.867855,19.881338,195.77576,0.17608455,0.023930077,0.0037712732,54.229065,54.229065
570724176,3670026,3670026,0,0,0,1,1,1,0,0,798.5003,798.5003,3992.5017,7985.0034,2.4963589,0.12010331,9.596618e-08,0.14390513,-0.12313086,-10.021223,0.060614247,0.020666927,0.0029463456,45.329487,14.645848,137.0963,0.15024087,0.029840434,0.0061921976,54.173195,54.173195
570824358,3670026,3670026,0,0,0,1,1,1,0,0,798.50037,798.50037,3992.502,7985.004,2.466635,0.12117507,8.4599854e-08,0.2019025,-0.22493912,-10.098055,-0.08926407,-0.06811992,-0.011915001,37.94904,10.39481,156.0426,0.06360251,0.023549037,0.008228511,54.131386,54.131386
570924543,3670026,3670026,0,0,0,1,1,1,0,0,798.50037,798.50037,3992.502,7985.004,2.4425452,0.119441986,8.556057e-08,0.1602355,-0.16165285,-10.343551,-0.11317845,0.012546183,-0.008293692,51.7596,22.024092,260.37036,0.13497475,0.029637989,0.008579826,54.122215,54.122215
571024753,3670026,3670026,0,0,0,1,1,1,0,0,798.50037,798.50037,3992.502,7985.004,2.4630268,0.118293084,1.1175889e-07,0.08016326,-0.17485218,-10.19984,-0.05099121,-0.095158644,0.0065924465,59.890915,24.047407,298.7037,0.110895626,0.035110984,0.007723657,54.14405,54.14405
571124906,3670026,3670026,0,0,0,1,1,1,0,0,798.5003,798.5003,3992.5017,7985.0034,2.4871647,0.12116224,1.0157205e-07,-0.05826961,-0.22764282,-10.251657,-0.029105654,0.027011655,0.03737658,62.609695,17.393047,265.22467,0.2004199,0.033772696,0.008662637,54.15459,54.15459
571225077,3670026,3670026,0,0,0,1,1,1,0,0,798.5003,798.5003,3992.502,7985.004,2.802474,0.12378047,1.1777349e-07,-0.03489503,-0.16094176,-8.387612,-0.14058368,0.0077776075,0.01874861,49.647552,23.142609,285.34085,0.18634365,0.050688338,0.0072738007,54.127647,54.127647
571325269,3670026,3670026,0,0,0,1,1,1,0,0,798.5003,798.5003,3992.5017,7985.0034,3.2038608,0.14294559,8.181569e-08,-0.043007504,-0.20800707,-6.4491796,0.056757025,-0.06349439,0.0058828993,12.535754,30.636908,77.42601,0.07775898,0.049173586,0.011320231,54.10747,54.10747
571425462,3670026,3670026,0,0,0,1,1,1,0,0,798.5003,798.5003,3992.5017,7985.0034,3.4060614,0.159567,1.1267545e-07,0.08154334,-0.071691304,-6.9944406,-0.048066016,-0.040971573,-0.0071022394,7.935811,17.27887,34.543663,0.15465215,0.07294598,0.011817764,54.12221,54.12221
571525674,3670026,3670026,0,0,0,1,1,1,0,0,798.5003,798.5003,3992.5017,7985.0034,3.6409123,0.1599123,1.4787629e-07,0.053212054,-0.12980528,-9.809392,-0.11108557,0.13027377,0.0059326836,50.68052,23.535135,490.6198,0.12716684,0.047370642,0.012106926,54.14753,54.14753
571625845,3670026,3670026,0,0,0,1,1,1,0,0,798.5003,798.5003,3992.5017,7985.0034,3.4653964,0.15740423,1.2427108e-07,0.038128443,-0.29363135,-10.95661,-0.18614985,-0.0018461841,0.0086863795,57.44601,25.238485,261.84177,0.14269319,0.030652836,0.013318238,54.168964,54.168964
571726133,3670026,3670026,0,0,0,1,1,1,0,0,798.5003,798.5003,3992.5017,7985.0034,3.407897,0.155429,1.3221461e-07,0.1464091,-0.116891295,-10.102883,0.038759936,-0.03843846,0.016082318,71.270485,43.501427,426.02582,0.28432888,0.044715628,0.017661907,54.194725,54.194725
571826377,3670026,3670026,0,0,0,1,1,1,0,0,798.5003,798.5003,3992.5017,7985.0034,3.5500898,0.15203382,1.13406905e-07,-0.109852515,-0.32169744,-10.496861,0.04027475,-0.10465507,-0.0023112271,114.3254,41.942245,1037.8853,0.1893389,0.05573119,0.012554764,54.22283,54.22283
571926427,3670026,3670026,0,0,0,1,1,1,0,0,798.5003,798.5003,3992.5015,7985.003,3.7468665,0.14793125,7.4427874e-08,0.03009457,-0.21877865,-10.237626,0.025117027,0.029011512,0.012984257,71.676216,27.563639,893.06354,0.1534773,0.044357356,0.013468284,54.25152,54.25152
572026616,3670026,3670026,0,0,0,1,1,1,0,0,798.50024,798.50024,3992.5015,7985.003,3.6939988,0.145611,8.902552e-08,0.1821772,-0.08226395,-10.437835,-0.0075182077,0.056379646,0.007825938,80.371864,16.46743,620.55646,0.13331951,0.038122866,0.016019018,54.257713,54.257713
572126877,3670026,3670026,0,0,0,1,1,1,0,0,798.50024,798.50024,3992.5015,7985.003,3.4995608,0.17319998,2.5466414e-07,0.118507944,-0.3095804,-13.494568,-0.26194718,0.13721699,0.009016345,31.333935,21.8449,157.04578,0.16996507,0.038388155,0.010472069,54.27619,54.27619
572227088,3670026,3670026,0,0,0,1,1,1,0,0,798.50024,798.50024,3992.5015,7985.003,3.401985,0.20155415,1.2646814e-07,0.2426338,-0.20734552,-10.943869,0.12611093,-0.0033756464,0.010412536,64.39634,22.272211,242.82768,0.20066114,0.04815317,0.0070855725,54.25882,54.25882
572327174,3670026,3670026,0,0,0,1,1,1,0,0,798.5002,798.5002,3992.501,7985.002,3.242162,0.18525831,1.4913483e-07,0.055775717,-0.15743858,-9.806198,0.1164627,-0.08866508,0.0013687535,81.45852,36.072586,160.45204,0.3260926,0.031523935,0.007426676,54.271107,54.271107
572427365,3670026,3670026,0,0,0,1,1,1,0,0,798.50024,798.50024,3992.5012,7985.0024,3.2236085,0.17533097,1.2693778e-07,0.07501497,-0.1992455,-10.274993,-0.11149957,-0.053111162,-0.0034882997,65.07683,22.645815,336.9899,0.22141874,0.038871717,0.00818212,54.300922,54.300922
572527652,3670026,3670026,0,0,0,1,1,1,0,0,798.50024,798.50024,3992.5012,7985.0024,3.074249,0.16562255,1.074834e-07,0.16232063,-0.120637976,-9.729668,-0.11384257,-0.068123534,-0.012035751,46.19531,17.142365,106.07891,0.19933231,0.03431904,0.010772162,54.31822,54.31822
572627709,3670026,3670026,0,0,0,1,1,1,0,0,798.5002,798.5002,3992.501,7985.002,3.3286395,0.1579116,1.5817602e-07,-0.022610797,-0.070207916,-7.5082984,-0.09270125,-0.1579143,-0.03714806,7.0440826,19.434391,134.30147,0.11967461,0.022884822,0.00691976,54.328392,54.328392
572727947,3670026,3670026,0,0,0,1,1,1,0,0,798.5002,798.5002,3992.501,7985.002,3.4434924,0.16413316,1.2266145e-07,0.004597508,-0.22204347,-5.6932473,-0.033447124,-0.13909623,-0.036581296,7.7759347,12.91896,49.430088,0.044631395,0.03482263,0.0060040792,54.351543,54.351543
572828154,3670026,3670026,0,0,0,1,1,1,0,0,798.5002,798.5002,3992.501,7985.002,3.570933,0.1612384,8.2574424e-08,0.042382162,-0.030575324,-7.8460364,-0.17055634,-0.0646995,-0.021637583,17.979418,24.311295,100.98719,0.07666417,0.029219264,0.0048431484,54.35955,54.35955
572928348,3670026,3670026,0,0,0,1,1,1,0,0,798.5002,798.5002,3992.5007,7985.0015,3.4911344,0.15751228,2.0707061e-07,0.15205815,-0.15187407,-10.696502,-0.30616283,0.101975456,0.0059272964,50.52847,18.786295,125.38164,0.12729707,0.03779059,0.013176515,54.37197,54.37197
573028517,3670026,3670026,0,0,0,1,1,1,0,0,798.50006,798.50006,3992.5005,7985.001,3.3360255,0.15123041,1.07566656e-07,0.019756543,-0.034881387,-11.177105,-0.025367213,-0.04768303,0.023595532,78.50412,26.305412,243.21565,0.15540788,0.03634315,0.008959207,54.35386,54.35386
573128700,3670026,3670026,0,0,0,1,1,1,0,0,798.5002,798.5002,3992.5007,7985.0015,3.3412676,0.14810863,6.518984e-08,0.10299609,-0.061223418,-9.866558,0.03869633,-0.043361593,0.012154069,36.048244,22.593954,461.13632,0.09409075,0.031027306,0.0070026596,54.33891,54.33891
573229104,3670026,3670026,0,0,0,1,1,1,0,0,798.50006,798.50006,3992.5007,7985.0015,3.3054454,0.14804552,1.5206524e-07,0.1590646,-0.04417163,-10.004739,0.07636279,0.06502432,0.012076474,65.24901,31.09991,311.9567,0.23091613,0.056587987,0.005177463,54.331642,54.331642
573329222,3670026,3670026,0,0,0,1,1,1,0,0,798.50006,798.50006,3992.5005,7985.001,3.2105567,0.14243343,7.904473e-08,0.13459776,-0.050825935,-9.769764,-0.022658577,-0.021018066,0.002132286,40.456505,23.285412,338.61578,0.14224824,0.03758722,0.006500661,54.326252,54.326252
573429299,3670026,3670026,0,0,0,1,1,1,0,0,798.50006,798.50006,3992.5005,7985.001,3.1419754,0.13788907,5.2076484e-08,0.10912433,-0.11214576,-10.65759,-0.052214116,0.036101077,-0.0066150916,50.99186,18.929407,304.3519,0.06058752,0.03554357,0.006490811,54.339592,54.339592
573529519,3670026,3670026,0,0,0,1,1,1,0,0,798.50006,798.50006,3992.5005,7985.001,3.0427303,0.1356208,9.74467e-08,0.08692301,0.04289171,-10.215568,-0.0261889,-0.07531375,0.0010200612,43.760605,19.032818,46.332035,0.10967569,0.051302657,0.009752552,54.326927,54.326927
573629627,3670026,3670026,0,0,0,1,1,1,0,0,798.50006,798.50006,3992.5002,7985.0005,3.057295,0.13552713,1.4426116e-07,-0.13931489,0.06626001,-10.423023,0.0067862277,-0.12614612,0.014607836,44.333866,24.086355,122.86322,0.09656166,0.06301136,0.009285736,54.333595,54.333595
573729939,3670026,3670026,0,0,0,1,1,1,0,0,798.5,798.5,3992.5002,7985.0005,2.9444857,0.13102871,8.832961e-08,0.12078452,-0.04999638,-10.154333,0.046617117,-0.058408584,0.014836005,55.74933,30.51079,206.48424,0.13094886,0.038137127,0.007316743,54.330048,54.330048
573829999,3670026,3670026,0,0,0,1,1,1,0,0,798.5,798.5,3992.5002,7985.0005,2.9666467,0.13262059,1.2233241e-07,-0.001212214,-0.030066539,-10.167766,-0.0590139,-0.07174655,0.025453348,47.11221,19.549492,244.96727,0.117784664,0.053108655,0.0056885113,54.328392,54.328392
573930182,3670026,3670026,0,0,0,1,1,1,0,0,798.5,798.5,3992.5002,7985.0005,2.9288175,0.13767393,5.113792e-07,0.16144449,0.027051752,-9.782247,-0.6114916,0.5351665,0.039883785,34.124683,11.80878,268.98868,0.28587487,0.029628076,0.005196773,54.309303,54.309303
574030500,3670026,3670026,0,0,0,1,1,1,0,0,798.5,798.5,3992.5,7985.0,3.266311,0.14775829,2.0753196e-06,-0.05885096,-0.034250293,-11.376967,-2.2024074,0.18300007,0.042173985,266.45407,80.11041,537.4104,0.6645927,0.1779127,0.02476039,54.30213,54.30213
574130597,3670026,3670026,0,0,0,1,1,1,0,0,798.5,798.5,3992.5,7985.0,3.448811,0.15267618,1.4454505e-06,0.2958869,0.22774906,-10.650232,-1.348483,-0.15808994,0.021223973,93.62814,49.206676,572.40985,0.503927,0.11185039,0.026114674,54.31675,54.31675
574230773,3670026,3670026,0,0,0,1,1,1,0,0,798.5,798.5,3992.5,7985.0,3.4270933,0.15004675,2.9205424e-07,0.19898823,0.14530921,-10.540861,-0.4391015,-0.16599849,-0.0010123793,51.737637,16.02581,150.13089,0.13351783,0.042431287,0.0075192344,54.296074,54.296074
574330977,3670026,3670026,0,0,0,1,1,1,0,0,798.4999,798.4999,3992.4995,7984.999,3.2599862,0.14560664,1.702489e-07,-0.032100577,0.26356366,-11.468781,-0.22371197,-0.123853505,-0.010076709,50.000275,22.94021,218.39252,0.19472648,0.023712663,0.0085026575,54.272278,54.272278
574431255,3670026,3670026,0,0,0,1,1,1,0,0,798.49994,798.49994,3992.4998,7984.9995,3.1085708,0.1433786,1.3341993e-07,-0.017044673,0.35207102,-10.960315,0.021826372,-0.12791885,-0.055805884,45.029465,21.233849,189.2814,0.12759046,0.016502624,0.008588003,54.24815,54.24815
574531454,3670026,3670026,0,0,0,1,1,1,0,0,798.49994,798.49994,3992.4998,7984.9995,2.9189854,0.15280135,1.5129996e-07,0.00015776455,0.3711118,-11.919476,-0.031323135,-0.20874865,-0.058797374,71.775635,30.762323,397.11578,0.09202639,0.022090532,0.011023711,54.189903,54.189903
574631587,3670026,3670026,0,0,0,1,1,1,0,0,798.49994,798.49994,3992.4998,7984.9995,2.9558806,0.14923091,5.436695e-07,0.1960708,0.62013954,-10.635626,0.5799322,-0.27940816,-0.060097646,76.494675,38.728607,405.9299,0.53865033,0.031577766,0.016585425,54.10135,54.10135
574731703,3670026,3670026,0,0,0,1,1,1,0,0,798.49994,798.49994,3992.4998,7984.9995,3.1015537,0.15252212,2.9191358e-06,-0.20074183,0.8308502,-11.049539,3.0268679,-0.17518026,-0.04313391,161.40016,51.547535,624.2262,0.81666386,0.1465174,0.031640824,53.967194,53.967194
574831981,3670026,3670026,0,0,0,1,1,1,0,0,798.49994,798.49994,3992.4998,7984.9995,3.2165663,0.1553062,5.7506213e-06,0.025458338,0.59713846,-11.512363,3.6546013,0.083714865,-0.011174458,266.43134,109.24482,1009.71246,0.76376677,0.3664636,0.03228769,53.893513,53.893513
574932073,3670026,3670026,0,0,0,1,1,1,0,0,798.49994,798.49994,3992.4998,7984.9995,3.8824084,0.17583883,1.467316e-06,0.080673166,0.34881178,-9.978502,1.364735,0.15131846,-0.02159133,123.35867,38.467857,350.0429,0.88436365,0.08542839,0.03312258,53.928886,53.928886
575032264,3670026,3670026,0,0,0,1,1,1,0,0,798.4901,798.4901,3992.4504,7984.901,4.4059143,0.17566314,4.0266428e-07,-0.04301454,0.28123665,-9.88327,0.49776402,0.09524048,0.0017547389,79.21991,89.247665,950.06616,0.23040666,0.0732895,0.026908757,53.99639,53.99639
575132455,3670026,3670026,0,0,0,1,1,1,0,0,798.49774,798.49774,3992.489,7984.978,4.591343,0.17143324,1.5137927e-07,-0.20163924,0.12305909,-11.450382,0.23406577,0.038925953,0.011112752,113.89287,75.78671,706.69196,0.48271027,0.060616627,0.01857772,54.05857,54.05857
575232748,3670026,3670026,0,0,0,1,1,1,0,0,798.4983,798.4983,3992.4915,7984.983,4.4987216,0.1734281,4.7708266e-07,-0.044466704,0.21427949,-10.172394,-0.54008514,-0.047109157,-0.004977172,148.3362,79.92614,1043.9584,0.9132757,0.09651469,0.013559195,54.063404,54.063404
575332991,3670026,3670026,0,0,0,1,1,1,0,0,798.4985,798.4985,3992.4922,7984.9844,4.261784,0.17188825,5.2624534e-07,0.06957029,0.15734656,-11.500798,-0.8273078,-0.031437956,-0.016049864,157.98196,43.91357,485.81165,0.43240106,0.05384753,0.015765952,54.039722,54.039722
575433049,3670026,3670026,0,0,0,1,1,1,0,0,798.49854,798.49854,3992.4927,7984.9854,3.9317493,0.16705975,2.1767426e-07,-0.14210498,0.14386418,-11.309757,-0.08383198,-0.10093135,0.016248256,36.667294,16.53585,248.9342,0.3233129,0.046160582,0.007918529,54.014626,54.014626
575533228,3670026,3670026,0,0,0,1,1,1,0,0,798.4971,798.4971,3992.485,7984.97,3.7058687,0.1704189,3.4603696e-07,-0.015948996,-0.039098278,-11.260555,0.7294422,0.031553976,0.04185231,48.395782,30.614525,328.74054,0.35944623,0.023158463,0.012895068,54.006237,54.006237
575633438,3670026,3670026,0,0,0,1,1,1,0,0,798.4974,798.4974,3992.4866,7984.973,3.5699441,0.16980815,1.7281519e-07,-0.04263572,-0.0808976,-11.105503,0.30527663,0.031167822,0.08556422,66.12163,21.636894,204.94875,0.23151416,0.01982002,0.010258034,54.05722,54.05722
575733562,3670026,3670026,0,0,0,1,1,1,0,0,798.4975,798.4975,3992.4878,7984.9756,3.5526288,0.16500832,2.6296505e-07,-0.036202468,-0.21914141,-11.275085,0.12767957,-0.09792198,0.10537217,34.06075,23.9764,359.65457,0.36216605,0.019919232,0.014899519,54.089836,54.089836
575833766,3670026,3670026,0,0,0,1,1,1,0,0,798.49677,798.49677,3992.4836,7984.9673,3.337588,0.16023585,1.7676275e-07,-0.12814546,-0.31834486,-10.938278,0.05908548,-0.048817668,0.103816144,42.889355,11.373804,163.64969,0.20329866,0.033685405,0.01725747,54.081337,54.081337
575933988,3670026,3670026,0,0,0,1,1,1,0,0,798.49695,798.49695,3992.4849,7984.9697,3.1952302,0.15562364,1.9441691e-07,-0.043199643,-0.33704233,-11.137151,-0.12574586,0.1370862,0.13468935,54.7907,17.690338,292.75064,0.19618034,0.03678099,0.016734695,53.986473,53.986473
576034207,3670026,3670026,0,0,0,1,1,1,0,0,798.49713,798.49713,3992.4856,7984.971,3.2706072,0.15658726,2.6343457e-07,-0.018206077,-0.5483597,-10.99177,-0.15311018,0.004980201,0.14453594,145.23465,69.86883,401.61783,0.3894486,0.121111974,0.017384512,53.849255,53.849255
576134345,3670026,3670026,0,0,0,1,1,1,0,0,798.4887,798.4887,3992.4436,7984.887,3.1811788,0.1664033,1.4173708e-06,-0.043416,-0.82203895,-10.065691,-1.9989747,-0.10404759,0.15655099,143.98717,54.72318,351.60962,1.3593415,0.06640781,0.02134395,53.716103,53.716103
576234518,3670026,3670026,0,0,0,1,1,1,0,0,798.4988,798.4988,3992.4937,7984.9873,3.5886977,0.17427081,4.4146745e-06,-0.50095737,-0.38506758,-11.292457,-3.736629,-0.052599978,0.113773815,363.42334,258.2544,1025.4464,1.3930864,0.22466499,0.041489795,53.620586,53.620586
576334706,3670026,3670026,0,0,0,1,1,1,0,0,798.4993,798.4993,3992.4968,7984.9937,3.9445515,0.20698155,2.7452386e-06,-0.16132791,-0.4408528,-11.287881,-2.2179828,0.23636736,0.09215422,133.94165,89.179146,631.10126,1.1598262,0.27010027,0.046140287,53.606617,53.606617
576434964,3670026,3670026,0,0,0,1,1,1,0,0,798.4999,798.4999,3992.4995,7984.999,4.314897,0.23119928,6.2474885e-07,-0.19089949,-0.25733665,-10.264849,-0.63743764,0.17666747,0.09765506,81.92032,101.45185,1200.6761,0.635443,0.12396483,0.0337529,53.563587,53.563587
576535203,3670026,3670026,0,0,0,1,1,1,0,0,798.50085,798.50085,3992.5044,7985.009,4.5184264,0.24252836,5.529248e-07,-0.2047155,-0.08572493,-10.821004,-0.017327271,-0.007693834,0.056067415,241.86183,187.66603,511.92273,1.7305294,0.549729,0.046562158,53.50379,53.50379
576635373,3670026,3670026,0,0,0,1,1,1,0,0,798.4963,798.4963,3992.4814,7984.963,4.641389,0.23972134,6.896721e-07,-0.2317721,-0.10530287,-11.031886,0.41595477,-0.055276748,0.05477869,147.7464,104.00235,1286.5309,0.5367365,0.27823675,0.056144506,53.518303,53.518303
576735545,3670026,3670026,0,0,0,1,1,1,0,0,798.5016,798.5016,3992.5078,7985.0156,4.5980334,0.22815531,9.871095e-07,0.11171276,-0.19430546,-9.932411,0.65538543,0.06179606,0.04827496,189.37645,126.59934,678.04626,0.96826035,0.2571699,0.045720797,53.543995,53.543995
576835661,3670026,3670026,0,0,0,1,1,1,0,0,798.50226,798.50226,3992.5115,7985.023,4.420243,0.2207526,1.3297556e-06,-0.47536904,-0.16308527,-11.679498,0.8127504,-0.115487695,0.087966435,220.9143,80.83472,1270.9374,0.5970146,0.41722572,0.04015203,53.52876,53.52876
576935869,3670026,3670026,0,0,0,1,1,1,0,0,798.5025,798.5025,3992.5127,7985.0254,4.35144,0.21905991,6.941171e-07,-0.14827493,-0.020482533,-9.931233,0.64427465,-0.0050918106,-0.0034924666,84.238625,81.30855,712.3796,0.6065431,0.14482066,0.06355453,53.45576,53.45576
577036000,3670026,3670026,0,0,0,1,1,1,0,0,798.5031,798.5031,3992.5154,7985.031,4.145536,0.22263756,1.4067252e-06,-0.61234957,-0.4526355,-13.709335,1.093238,1.3200556,0.053852215,160.65372,52.933872,926.9375,0.6383211,1.0381405,0.038930163,53.370445,53.370445
577136202,3670026,3670026,0,0,0,1,1,1,0,0,798.50366,798.50366,3992.5183,7985.0366,3.9440398,0.22712237,2.7897054e-06,0.23332822,-0.008541363,-12.208649,0.9765633,1.6786909,0.04557664,128.03358,133.72331,1204.3997,1.1408293,0.72630095,0.021775251,53.297432,53.297432
577236389,3670026,3670026,0,0,0,1,1,1,0,0,798.50415,798.50415,3992.5208,7985.0415,3.9255662,0.21796386,5.1070765e-07,-0.24992569,0.041884318,-9.930502,0.58148503,0.17465115,0.04690047,69.543304,45.435696,473.62497,0.29428804,0.11592415,0.015710525,53.303375,53.303375
577336556,3670026,3670026,0,0,0,1,1,1,0,0,798.5046,798.5046,3992.523,7985.046,3.8211908,0.21106993,1.5527105e-07,0.016044797,-0.3263423,-11.198828,0.16500269,-0.04119644,0.07696584,55.11567,23.904696,487.23218,0.1582103,0.04072941,0.01128141,53.315186,53.315186
577436770,3670026,3670026,0,0,0,1,1,1,0,0,798.50476,798.50476,3992.5234,7985.047,3.7009497,0.20976156,4.841698e-07,0.13323596,-0.26662874,-13.821978,-0.34297374,-0.29956347,0.05076566,50.983032,37.820526,198.26749,0.2798162,0.13552724,0.019264536,53.29712,53.29712
577536942,3670026,3670026,0,0,0,1,1,1,0,0,798.5045,798.5045,3992.5222,7985.0444,3.5344615,0.20669152,9.54732e-07,0.30503464,-0.228769,-10.894531,-0.19388323,-0.787027,0.03131128,73.92711,35.64407,206.63515,0.30718055,0.05629436,0.011150671,53.250793,53.250793
577637153,3670026,3670026,0,0,0,1,1,1,0,0,798.50574,798.50574,3992.5288,7985.0576,3.4483562,0.19231404,6.382254e-07,0.052146237,-0.386449,-9.7445,-0.17489472,-0.62817556,0.002605445,79.828285,43.385105,217.17534,0.1935232,0.04535366,0.012414508,53.21114,53.21114
577737341,3670026,3670026,0,0,0,1,1,1,0,0,798.5064,798.5064,3992.532,7985.064,3.3021522,0.17809409,4.574175e-07,0.23626508,-0.2544416,-10.310271,-0.20105137,-0.47196078,0.0052244044,90.206024,22.731966,342.33783,0.15699784,0.037538886,0.012159359,53.16402,53.16402
577837505,3670026,3670026,0,0,0,1,1,1,0,0,798.5067,798.5067,3992.5334,7985.067,3.217463,0.16939297,4.593639e-07,0.221137,-0.41831478,-9.927488,-0.16089647,-0.49479377,-0.008471174,73.03477,26.159395,191.32433,0.14599366,0.036261022,0.010725686,53.11261,53.11261
577937744,3670026,3670026,0,0,0,1,1,1,0,0,798.5043,798.5043,3992.5212,7985.0425,3.103105,0.161705,3.78846e-07,0.21850802,-0.21677263,-10.611299,-0.024236215,-0.21928683,-0.0038946904,26.421988,29.658495,133.03334,0.48780605,0.033205174,0.0037810483,53.0708,53.0708
578037885,3670026,3670026,0,0,0,1,1,1,0,0,798.5078,798.5078,3992.5388,7985.0776,3.0059054,0.15140869,1.0769681e-07,0.29700863,-0.3588768,-9.462345,0.07232119,0.07305543,-0.026687715,61.69764,25.319765,459.37817,0.17290448,0.04229767,0.011446686,53.028023,53.028023
578138055,3670026,3670026,0,0,0,1,1,1,0,0,798.50824,798.50824,3992.5413,7985.0825,3.1447256,0.15201937,1.7764107e-07,0.1986211,-0.121137165,-7.9676747,0.05946392,0.12725778,-0.027527781,20.779337,26.33093,349.84244,0.20099452,0.04548091,0.0072743283,52.98838,52.98838
578238227,3670026,3670026,0,0,0,1,1,1,0,0,798.5087,798.5087,3992.5435,7985.087,3.2652912,0.1523328,2.4697172e-07,0.16837129,-0.44923735,-8.964625,-0.1142047,0.178168,-0.01165368,29.637089,32.6641,211.72012,0.28592387,0.030513316,0.009344126,52.942474,52.942474
578338407,3670026,3670026,0,0,0,1,1,1,0,0,798.5091,798.5091,3992.5457,7985.0913,3.0374398,0.14542177,2.6384276e-07,0.21744995,-0.4204221,-9.99592,-0.23943575,0.14846055,0.010602951,50.30788,23.68596,264.9173,0.24799304,0.042900395,0.008700317,52.908134,52.908134
578438587,3670026,3670026,0,0,0,1,1,1,0,0,798.5097,798.5097,3992.5488,7985.0977,3.043026,0.1412557,7.75529e-08,-0.010401877,-0.3887457,-10.796719,-0.08824393,0.017336331,0.007857028,73.18169,32.3727,288.22156,0.23766506,0.03530019,0.013317724,52.849327,52.849327
578538809,3670026,3670026,0,0,0,1,1,1,0,0,798.5104,798.5104,3992.5518,7985.1035,3.277163,0.14093491,1.9880184e-07,0.4354011,-0.42324466,-8.90146,0.039275147,0.11239559,-0.023716537,86.98429,63.42813,529.26807,0.41066444,0.06477178,0.018323734,52.80674,52.80674
578639013,3670026,3670026,0,0,0,1,1,1,0,0,798.5107,798.5107,3992.5535,7985.107,3.2504246,0.13778171,1.0459796e-07,0.16586967,-0.48635772,-9.935012,-0.014970041,0.025113173,-0.028117666,111.01717,45.04786,305.13956,0.2954283,0.06804685,0.015601395,52.724792,52.724792
578739216,3670026,3670026,0,0,0,1,1,1,0,0,798.5112,798.5112,3992.5562,7985.1123,3.206071,0.13326679,1.1685213e-07,0.5085274,-0.48700523,-9.677816,0.029607955,0.0068133413,-0.020920856,89.005135,44.31841,387.61087,0.36893988,0.06418009,0.012861589,52.664803,52.664803
578839434,3670026,3670026,0,0,0,1,1,1,0,0,798.51196,798.51196,3992.5598,7985.1196,3.220675,0.13730694,2.3193715e-07,0.07319798,-0.36001334,-10.602562,-0.13581039,-0.13448311,-0.015878271,84.26641,33.4584,570.88745,0.3869435,0.07973629,0.011143115,52.60067,52.60067
578939555,3670026,3670026,0,0,0,1,1,1,0,0,798.51196,798.51196,3992.5603,7985.1206,3.2640662,0.13636956,1.7078784e-07,0.11982123,-0.5166866,-10.388211,-0.036010277,0.08125091,0.027898585,122.8517,48.556473,426.09958,0.32155368,0.091920905,0.018075109,52.539642,52.539642
579039781,3670026,3670026,0,0,0,1,1,1,0,0,798.51306,798.51306,3992.5654,7985.131,3.3497448,0.13756515,8.436962e-08,0.56788176,-0.48062372,-10.189309,-0.047999,-0.00595386,0.012257689,141.55154,48.925632,736.7056,0.33503765,0.05368323,0.020177757,52.483288,52.483288
579139947,3670026,3670026,0,0,0,1,1,1,0,0,798.50964,798.50964,3992.5483,7985.0967,3.4456844,0.14012997,1.9242131e-07,-0.17371488,-0.43333468,-10.565643,-0.026227234,0.064202696,0.042149927,108.95094,63.99731,627.1325,0.55879295,0.09821471,0.01338213,52.4385,52.4385
579240093,3670026,3670026,0,0,0,1,1,1,0,0,798.51434,798.51434,3992.5715,7985.143,3.3864667,0.14040516,1.5639074e-07,0.36865664,-0.44411093,-9.656967,0.016973034,0.050447945,0.02790705,126.8394,64.50646,312.89478,0.48606092,0.115262955,0.021493006,52.39566,52.39566
579340255,3670026,3670026,0,0,0,1,1,1,0,0,798.5149,798.5149,3992.5745,7985.149,3.5312905,0.14328492,1.4254937e-07,0.22290733,-0.44198084,-10.489205,0.08740728,-0.04037277,0.013942591,135.75961,59.07375,864.9771,0.23553255,0.17663133,0.016996464,52.361145,52.361145
579440436,3670026,3670026,0,0,0,1,1,1,0,0,798.51544,798.51544,3992.5771,7985.1543,3.5332198,0.1442388,1.3099732e-07,0.089867294,-0.5320023,-10.171837,-0.097200595,-0.04214515,0.020288546,128.33847,50.590115,527.83514,0.261882,0.08284274,0.01950246,52.32668,52.32668
579540620,3670026,3670026,0,0,0,1,1,1,0,0,798.516,798.516,3992.5796,7985.159,3.523419,0.14428227,1.6379812e-07,0.14354743,-0.51081055,-10.125854,0.06933854,-0.043133322,-0.0042683654,115.12218,61.44038,418.26233,0.4024795,0.15968843,0.01591003,52.30459,52.30459
579640797,3670026,3670026,0,0,0,1,1,1,0,0,798.5164,798.5164,3992.582,7985.164,3.439948,0.14078626,2.433954e-07,0.3362182,-0.5947654,-10.24772,0.03746831,-0.14162567,-0.032015834,138.49695,44.240555,704.02026,0.31548747,0.12499578,0.022328397,52.263023,52.263023
579740989,3670026,3670026,0,0,0,1,1,1,0,0,798.517,798.517,3992.5852,7985.1704,3.3309963,0.14190185,2.8660284e-07,-0.24805869,-0.44364604,-10.5246935,-0.23423721,-0.08917335,-0.02176168,89.11528,44.859932,270.19647,0.28179944,0.07728784,0.0148910815,52.2128,52.2128
579841305,3670026,3670026,0,0,0,1,1,1,0,0,798.5175,798.5175,3992.5874,7985.175,3.3710618,0.14239271,2.2072692e-07,0.42545956,-0.6018094,-9.838495,-0.04694276,0.14857651,0.0075384723,116.93027,38.4851,449.56628,0.38971835,0.0990224,0.02275697,52.141487,52.141487
579941381,3670026,3670026,0,0,0,1,1,1,0,0,798.51807,798.51807,3992.5903,7985.1807,3.3219647,0.14420535,1.5464784e-07,-0.0075845667,-0.27981675,-10.383812,0.04065772,-0.018899567,-0.026436891,134.21674,48.870605,545.53186,0.32343522,0.10427941,0.017496133,52.088135,52.088135
580041653,3670026,3670026,0,0,0,1,1,1,0,0,798.51776,798.51776,3992.5886,7985.1772,3.2552335,0.14440165,1.6691736e-07,0.1482338,-0.6921638,-10.300244,0.0767821,-0.041718755,-0.033690505,136.72289,73.01469,456.82324,0.4555001,0.197831,0.014378027,52.04731,52.04731
580141954,3670026,3670026,0,0,0,1,1,1,0,0,798.5192,798.5192,3992.596,7985.192,3.2206085,0.1496801,2.7652274e-07,0.40161765,-0.667997,-10.145189,-0.16400054,-0.12152781,-0.009972015,75.26418,35.842598,272.32602,0.4293565,0.051185127,0.014180083,51.999382,51.999382
580241984,3670026,3670026,0,0,0,1,1,1,0,0,798.51996,798.51996,3992.5994,7985.1987,3.392096,0.15918344,4.2376132e-07,0.16936584,-0.58869684,-10.73812,0.018419137,0.06320139,0.077921875,86.05226,84.74565,537.9509,0.83532554,0.18572882,0.02312297,51.95098,51.95098
580342243,3670026,3670026,0,0,0,1,1,1,0,0,798.52026,798.52026,3992.6013,7985.2026,3.6308074,0.15894626,7.751908e-07,0.30069652,-0.54873157,-9.84743,-0.010724361,0.04229354,0.3965962,115.02079,81.65253,449.13943,0.53245485,0.12468408,0.037498586,51.915916,51.915916
580442479,3670026,3670026,0,0,0,1,1,1,0,0,798.5209,798.5209,3992.6045,7985.209,3.8552165,0.16667582,1.5921738e-06,0.62961715,-0.47308433,-10.619129,-0.043841153,0.14044592,0.8484701,78.772224,81.42001,320.38144,0.5111507,0.06824762,0.035995804,51.86322,51.86322
580542543,3670026,3670026,0,0,0,1,1,1,0,0,798.52167,798.52167,3992.6082,7985.2163,4.095264,0.18433258,2.1380465e-06,0.23415823,-0.775537,-10.335003,0.017177774,0.12896991,1.1743424,87.87546,74.363556,333.2367,0.64884245,0.0965475,0.027495014,51.78997,51.78997
580642738,3670026,3670026,0,0,0,1,1,1,0,0,798.5221,798.5221,3992.6104,7985.2207,4.057461,0.19230896,2.1300114e-06,0.06690479,-0.45289233,-10.2696085,-0.042921033,0.16950548,1.2480456,118.5157,58.310005,288.06195,0.4510911,0.08925403,0.022308055,51.737164,51.737164
580742965,3670026,3670026,0,0,0,1,1,1,0,0,798.5228,798.5228,3992.614,7985.228,3.9023306,0.19020738,2.1287028e-06,0.37759313,-0.49067467,-10.164502,-0.059607066,-0.056572605,0.9911112,142.5788,70.93912,202.03029,0.48949924,0.17092085,0.036650915,51.685802,51.685802
580843049,3670026,3670026,0,0,0,1,1,1,0,0,798.5234,798.5234,3992.6167,7985.2334,3.7804477,0.1894636,5.832203e-07,-0.030875823,-0.3821809,-10.533522,0.11479261,0.01724201,0.51610607,71.196785,48.381405,264.02863,0.22985838,0.19633834,0.04661928,51.626568,51.626568
580943198,3670026,3670026,0,0,0,1,1,1,0,0,798.5239,798.5239,3992.6194,7985.239,3.8476057,0.20325327,5.7437524e-07,-0.049121816,-0.32104093,-10.166277,-0.0870036,-0.27534494,-0.100866094,34.006668,56.983833,265.50284,0.522039,0.2495694,0.057809066,51.544617,51.544617
581043412,3670026,3670026,0,0,0,1,1,1,0,0,798.52344,798.52344,3992.6172,7985.2344,3.6984038,0.20683905,7.834956e-07,-0.19444302,-0.39755768,-10.601063,-0.077977486,-0.12651758,-0.5740004,26.829866,55.335728,415.68808,0.29477185,0.24254608,0.070815496,51.4724,51.4724
581143726,3670026,3670026,0,0,0,1,1,1,0,0,798.52515,798.52515,3992.6257,7985.2515,3.7335956,0.21865235,1.1658915e-06,0.02134992,-0.31658408,-10.212036,-0.124643244,-0.11428656,-0.900148,31.365738,42.669273,317.68375,0.35583442,0.14821604,0.03934295,51.400856,51.400856
581243915,3670026,3670026,0,0,0,1,1,1,0,0,798.52563,798.52563,3992.6282,7985.2563,3.9856548,0.22025444,1.8074113e-06,0.04956166,-0.35218674,-10.249214,-0.15709352,-0.06089837,-1.0960441,32.95416,36.951305,341.49744,0.28134975,0.079330705,0.0168223,51.333473,51.333473
581344067,3670026,3670026,0,0,0,1,1,1,0,0,798.52625,798.52625,3992.631,7985.262,3.8736277,0.21837817,1.3148725e-06,0.048657168,-0.3165051,-10.399445,0.023271985,0.029865928,-1.2166511,41.78838,30.839401,454.4512,0.121012926,0.068686604,0.016401475,51.285797,51.285797
581444213,3670026,3670026,0,0,0,1,1,1,0,0,798.52704,798.52704,3992.6353,7985.2705,3.9881198,0.21146193,1.5473595e-06,0.2537235,-0.3654063,-10.241122,-0.046437815,-0.014967301,-1.2655318,61.108112,36.15849,373.42474,0.18081509,0.055251855,0.010060912,51.29259,51.29259
581544340,3670026,3670026,0,0,0,1,1,1,0,0,798.5276,798.5276,3992.638,7985.276,3.745801,0.19555207,1.4171231e-06,0.3008724,-0.40288228,-10.406071,-0.12381073,-0.07872363,-1.2721469,57.60579,26.608908,247.0561,0.15926938,0.04609504,0.010975751,51.287025,51.287025
581644516,3670026,3670026,0,0,0,1,1,1,0,0,798.5282,798.5282,3992.641,7985.282,3.6950107,0.18547086,1.1313268e-06,0.24100128,-0.2792066,-10.420343,-0.18183337,0.020707075,-1.2452887,44.877926,14.292796,406.3014,0.10629799,0.028972479,0.006611726,51.264263,51.264263
581744609,3670026,3670026,0,0,0,1,1,1,0,0,798.5288,798.5288,3992.6443,7985.2886,3.3475301,0.17846853,1.0469688e-06,0.2293628,-0.28449988,-10.031537,-0.081642285,-0.013619425,-1.222197,47.699387,16.045795,480.7446,0.11519935,0.023603827,0.0063125533,51.262245,51.262245
581844876,3670026,3670026,0,0,0,1,1,1,0,0,798.52936,798.52936,3992.6465,7985.293,3.3436575,0.18104641,1.3519428e-06,0.3850577,-0.42703646,-10.33889,-0.12769166,0.07849363,-1.0726733,28.416143,26.752764,420.76346,0.23162784,0.01509656,0.010899487,51.299934,51.299934
581945084,3670026,3670026,0,0,0,1,1,1,0,0,798.5299,798.5299,3992.6497,7985.2993,3.3065274,0.16886185,1.2125024e-06,0.41570756,-0.28735337,-9.512855,-0.07781092,0.016879857,-0.84817123,34.021797,24.860369,230.5224,0.29477882,0.020872619,0.014321187,51.34192,51.34192
582045180,3670026,3670026,0,0,0,1,1,1,0,0,798.5293,798.5293,3992.6462,7985.2925,3.2245371,0.16891229,6.10421e-07,0.2967989,-0.22792134,-7.9653983,0.039329708,-0.023938118,-0.5474259,30.854733,22.372772,123.18865,0.14628959,0.042064488,0.010385408,51.354595,51.354595
582145457,3670026,3670026,0,0,0,1,1,1,0,0,798.5308,798.5308,3992.6543,7985.3086,3.3507946,0.16202538,5.321187e-07,0.48821118,-0.19773228,-11.01821,-0.25815457,-0.11793571,-0.35061994,23.325583,36.149662,217.82237,0.24572937,0.03586688,0.0132004,51.366962,51.366962
582245524,3670026,3670026,0,0,0,1,1,1,0,0,798.5314,798.5314,3992.657,7985.314,3.709985,0.16155697,2.299393e-07,0.3029331,-0.1985972,-12.334323,0.03608946,-0.016251428,-0.1560406,26.91476,67.943115,358.35867,0.22009233,0.03417743,0.017875068,51.38788,51.38788
582345704,3670026,3670026,0,0,0,1,1,1,0,0,798.53186,798.53186,3992.6592,7985.3184,3.440191,0.14620732,1.2302813e-07,0.49012074,-0.25606596,-10.470632,0.22760816,0.062334348,-0.07843354,45.31104,26.585318,342.47897,0.26372966,0.0210399,0.0150678065,51.35722,51.35722
582445932,3670026,3670026,0,0,0,1,1,1,0,0,798.5322,798.5322,3992.6611,7985.3223,3.465344,0.14348464,5.999122e-08,0.35268152,-0.22654758,-10.978166,0.045159973,0.00011418414,-0.018367104,66.84389,28.173038,827.8685,0.1635318,0.020750968,0.00536009,51.30613,51.30613
582546208,3670026,3670026,0,0,0,1,1,1,0,0,798.5326,798.5326,3992.663,7985.326,3.4287918,0.13911599,8.8798956e-08,0.3218893,-0.035887286,-9.954664,-0.13804758,0.07043924,0.021189934,19.175653,13.75362,636.82117,0.10158528,0.023886796,0.0024249766,51.307648,51.307648
582646338,3670026,3670026,0,0,0,1,1,1,0,0,798.53314,798.53314,3992.6658,7985.3315,3.388569,0.131391,1.2848805e-07,0.35823977,-0.22194056,-10.546488,-0.1752278,-0.013481599,0.033507258,58.139378,22.138166,407.8963,0.1260809,0.03049865,0.0055067176,51.31745,51.31745
582746423,3670026,3670026,0,0,0,1,1,1,0,0,798.53357,798.53357,3992.6677,7985.3354,3.4858375,0.12659428,8.3831246e-08,0.1707227,-0.18653008,-10.587039,-0.026998565,-0.0020043945,0.02485964,101.66829,37.784122,694.8818,0.11130807,0.04626882,0.010344114,51.339344,51.339344
582846560,3670026,3670026,0,0,0,1,1,1,0,0,798.534,798.534,3992.67,7985.34,3.3665297,0.1292519,9.179988e-08,0.5717624,-0.094955996,-10.2148075,0.006987068,0.056181107,0.020060567,70.975,37.90153,946.58234,0.24328415,0.041171968,0.0073902085,51.32196,51.32196
582946850,3670026,3670026,0,0,0,1,1,1,0,0,798.5339,798.5339,3992.6692,7985.3384,3.6184766,0.13150482,1.2365756e-07,0.6136585,0.031947758,-9.865551,0.035877746,0.04198687,0.010189179,133.4917,41.391323,1072.1484,0.31986308,0.06699635,0.009565511,51.297554,51.297554
583047035,3670026,3670026,0,0,0,1,1,1,0,0,798.5348,798.5348,3992.674,7985.348,4.135312,0.13563846,2.0513724e-07,0.18864599,-0.081677794,-9.816748,0.15403712,0.00968947,-0.0035889617,263.70706,53.016445,830.00397,0.4204952,0.08266263,0.011199869,51.286476,51.286476
583147135,3670026,3670026,0,0,0,1,1,1,0,0,798.5352,798.5352,3992.6758,7985.3516,4.0460706,0.1370928,2.591584e-07,0.6398542,-0.16262275,-10.50278,-0.01874397,0.017586749,0.11587091,38.459213,43.35571,308.84274,0.55916846,0.028727064,0.025583036,51.236774,51.236774
583247278,3670026,3670026,0,0,0,1,1,1,0,0,798.5356,798.5356,3992.678,7985.356,4.009301,0.14253548,5.882256e-07,0.40369055,-0.10888389,-9.964053,-0.1808403,0.083775304,0.40526614,60.578796,49.875828,329.01837,0.33165532,0.040297844,0.016994594,51.20747,51.20747
583347593,3670026,3670026,0,0,0,1,1,1,0,0,798.5359,798.5359,3992.6797,7985.3594,3.878887,0.14888903,9.628711e-07,0.6579004,-0.0175972,-9.698684,-0.09759456,0.06445591,0.6867905,62.537025,49.18063,308.39655,0.27600923,0.041912686,0.020563124,51.160347,51.160347
583447702,3670026,3670026,0,0,0,1,1,1,0,0,798.53644,798.53644,3992.6821,7985.3643,3.871447,0.14530437,1.1919136e-06,0.5406792,-0.07173389,-11.175524,-0.20406836,-0.036160946,0.84694207,41.89139,41.654655,374.0504,0.26516518,0.054703563,0.011987195,51.101578,51.101578
583547923,3670026,3670026,0,0,0,1,1,1,0,0,798.5369,798.5369,3992.6846,7985.369,3.6235871,0.14443764,1.0016764e-06,0.40509254,-0.33557492,-11.975161,-0.07221037,-0.067374274,0.911726,44.505978,41.080368,334.09518,0.22652043,0.032978017,0.010876667,51.083355,51.083355
583648042,3670026,3670026,0,0,0,1,1,1,0,0,798.53723,798.53723,3992.686,7985.372,3.3346105,0.13513282,7.212752e-07,0.554145,-0.13317792,-11.207739,-0.03694209,-0.04373195,0.7922197,36.67409,27.007757,191.9364,0.13085705,0.020468632,0.01688396,51.0839,51.0839
583748333,3670026,3670026,0,0,0,1,1,1,0,0,798.53766,798.53766,3992.6885,7985.377,3.1692758,0.13642293,8.6119326e-07,0.35179615,-0.026197866,-11.136176,0.15224305,-0.04730279,0.5876614,66.97675,46.052643,528.3998,0.29983747,0.04710445,0.009642363,51.089478,51.089478
583848522,3670026,3670026,0,0,0,1,1,1,0,0,798.5374,798.5374,3992.6873,7985.3745,3.2992854,0.14730515,3.6184878e-07,0.503395,-0.09366127,-10.448693,0.07939697,0.08293078,0.38929504,46.082127,20.988625,634.5688,0.1180032,0.039606754,0.008932242,51.06163,51.06163
583948568,3670026,3670026,0,0,0,1,1,1,0,0,798.53735,798.53735,3992.6868,7985.3735,3.1394827,0.14547113,2.4986005e-07,0.41668123,-0.0972527,-11.000718,-0.09197043,-0.10240331,0.25183442,19.876127,29.57788,394.36005,0.10692672,0.039979253,0.010641883,51.032738,51.032738
584048711,3670026,3670026,0,0,0,1,1,1,0,0,798.5388,798.5388,3992.6943,7985.3887,3.2275534,0.16222335,1.9434262e-07,0.41275713,-0.032128602,-8.789891,0.017078478,0.013983697,0.13996962,43.629494,38.128498,362.107,0.2684584,0.051754,0.011025158,50.997,50.997
584148901,3670026,3670026,0,0,0,1,1,1,0,0,798.5393,798.5393,3992.6965,7985.393,3.460202,0.1607912,2.1844616e-07,0.23003297,-0.3854007,-6.7633524,0.052880276,0.14209294,0.09502629,13.072102,26.416344,77.27588,0.18628666,0.040899083,0.008884163,50.979855,50.979855
584249173,3670026,3670026,0,0,0,1,1,1,0,0,798.53955,798.53955,3992.6978,7985.3955,3.4177363,0.16189931,2.361048e-07,0.3692722,-0.19735685,-10.4113865,-0.19224721,-0.03532127,0.0874015,40.822117,25.143486,326.8492,0.13982385,0.059299085,0.00697313,50.983654,50.983654
584349391,3670026,3670026,0,0,0,1,1,1,0,0,798.5401,798.5401,3992.7004,7985.401,3.2785537,0.15889281,2.0571949e-07,0.28073096,-0.23784438,-12.033024,-0.20773582,0.02652222,0.071878724,28.44454,19.552483,197.85684,0.113282025,0.08028226,0.012039432,50.99064,50.99064
584449528,3670026,3670026,0,0,0,1,1,1,0,0,798.5404,798.5404,3992.702,7985.404,3.2055779,0.15550883,1.13329506e-07,0.3825125,-0.25702402,-11.453211,0.017352391,0.05382856,0.07128051,27.420221,16.358833,114.53458,0.17203614,0.036875006,0.009267691,50.995533,50.995533
584549654,3670026,3670026,0,0,0,1,1,1,0,0,798.5408,798.5408,3992.704,7985.408,3.1053681,0.16369818,5.647119e-07,0.44546685,-0.29887852,-11.180872,0.10765094,-0.56036735,0.01975266,60.282227,22.098932,184.89963,0.19084227,0.25517565,0.010351794,50.98825,50.98825
584649831,3670026,3670026,0,0,0,1,1,1,0,0,798.5411,798.5411,3992.7056,7985.411,3.084245,0.1816484,2.5180354e-06,0.45746237,-0.33420655,-10.783933,-0.42697436,-1.7563037,-0.017207138,83.471375,44.261063,316.65155,0.32805735,0.08457296,0.012838331,50.943565,50.943565
584750170,3670026,3670026,0,0,0,1,1,1,0,0,798.5415,798.5415,3992.7075,7985.415,3.1209116,0.18017298,1.273979e-06,0.36806327,-0.32768008,-11.248972,-0.0255495,-1.1631622,0.009235001,35.77331,27.073051,181.44713,0.21124978,0.03612085,0.010253267,50.91059,50.91059
584850371,3670026,3670026,0,0,0,1,1,1,0,0,798.5419,798.5419,3992.7095,7985.419,3.3587348,0.19965011,1.7149642e-06,0.48300818,-0.19949467,-11.500383,0.032589126,-1.3884922,0.013409596,38.301075,32.68343,221.27193,0.26148346,0.05723515,0.01091071,50.869038,50.869038
584950470,3670026,3670026,0,0,0,1,1,1,0,0,798.5421,798.5421,3992.711,7985.422,3.1624782,0.20664966,5.246554e-07,0.35051903,-0.23001663,-11.586828,0.12893213,-0.5857744,0.0023016897,59.166645,20.045929,337.34644,0.13714734,0.10390063,0.0060484777,50.837402,50.837402
585050578,3670026,3670026,0,0,0,1,1,1,0,0,798.5426,798.5426,3992.713,7985.426,2.957209,0.19786033,1.4064993e-07,0.16427971,-0.25641912,-11.152041,0.1150043,-0.09336563,-0.015597307,21.473957,17.172476,266.714,0.12837721,0.028256167,0.0039781313,50.827415,50.827415
585150771,3670026,3670026,0,0,0,1,1,1,0,0,798.54297,798.54297,3992.7146,7985.429,3.0496545,0.19263169,6.999866e-08,0.3722926,-0.11443711,-11.062641,0.0775935,0.0087251365,-0.023012182,21.058245,7.1961417,71.48913,0.07052127,0.019877972,0.004491145,50.79915,50.79915
585250902,3670026,3670026,0,0,0,1,1,1,0,0,798.5433,798.5433,3992.7163,7985.4326,2.7854471,0.18901686,5.1060173e-08,-0.08040339,-0.20242085,-11.824762,-0.09263247,-0.038379647,-0.0052025435,24.236578,9.275042,59.520786,0.047675826,0.022177592,0.0032278537,50.777412,50.777412
585351066,3670026,3670026,0,0,0,1,1,1,0,0,798.5436,798.5436,3992.7178,7985.4355,2.7517526,0.20272829,7.846129e-08,0.047328852,-0.07279566,-11.298442,-0.051811233,0.19535808,0.01914859,25.414242,8.856332,93.3303,0.07180699,0.033321,0.00565801,50.73121,50.73121
585451317,3670026,3670026,0,0,0,1,1,1,0,0,798.5439,798.5439,3992.7195,7985.439,2.6123507,0.19743335,1.8950821e-07,-0.1406732,-0.041229486,-11.336494,0.1029016,0.32272586,-0.007304348,33.660866,14.038215,165.8143,0.09336814,0.059294164,0.006811291,50.686485,50.686485
585551566,3670026,3670026,0,0,0,1,1,1,0,0,798.5443,798.5443,3992.7214,7985.443,2.511469,0.18769614,2.9315166e-07,-0.22044934,-0.09712474,-9.189568,-0.07358474,0.39521155,0.001433098,23.880915,8.046029,125.57629,0.115650296,0.028090231,0.004274617,50.71922,50.71922
585656563,3670026,3670026,0,0,0,1,1,1,0,0,798.5447,798.5447,3992.7234,7985.447,2.621515,0.17383444,1.765227e-07,-0.4306139,0.11136838,-9.472102,0.008145523,0.20187539,0.005039562,48.583355,28.536058,387.5924,0.22528712,0.04311823,0.0089419745,50.73503,50.73503
585756798,3670026,3670026,0,0,0,1,1,1,0,0,798.545,798.545,3992.725,7985.45,2.6731145,0.18946713,4.4429237e-07,-0.5379003,0.09771494,-14.021967,-0.18892147,0.37117696,0.0044585117,34.198784,74.14315,266.10428,0.39803073,0.27993605,0.022635559,50.742176,50.742176
585856995,3670026,3670026,0,0,0,1,1,1,0,0,798.5453,798.5453,3992.7266,7985.453,3.0843227,0.21244733,4.756966e-07,-0.43230173,-0.0814581,-14.653218,-0.119452365,0.36788732,-0.020548698,30.997923,127.94113,336.25833,0.38160536,0.19821341,0.0860121,50.68923,50.68923
585957143,3670026,3670026,0,0,0,1,1,1,0,0,798.5457,798.5457,3992.7285,7985.457,3.361084,0.22929072,2.8697713e-07,-0.24095327,-0.029451327,-11.523675,-0.0015522573,0.20548403,-0.033985432,21.70241,76.25217,127.937744,0.30379137,0.11237181,0.040808883,50.64676,50.64676
586057345,3670026,3670026,0,0,0,1,1,1,0,0,798.546,798.546,3992.73,7985.46,3.2808273,0.21872982,2.9838523e-07,-0.44630685,-0.19237995,-10.496031,-0.10854068,0.17107445,-0.010398175,14.983127,22.71569,191.31918,0.21462707,0.08498133,0.014485055,50.64364,50.64364
586157573,3670026,3670026,0,0,0,1,1,1,0,0,798.54584,798.54584,3992.7292,7985.4585,3.0020041,0.21552958,3.293131e-07,-0.33648035,-0.04664442,-10.44673,-0.2262531,0.24827833,0.04721145,29.731709,38.489655,231.04326,0.25574255,0.07433065,0.014746578,50.607952,50.607952
586257646,3670026,3670026,0,0,0,1,1,1,0,0,798.54663,798.54663,3992.7332,7985.4663,2.7146912,0.24833405,2.6490264e-07,-0.47296196,-0.14358409,-10.508506,-0.18798572,0.25001678,0.019086774,34.24301,62.735016,213.57901,0.34192908,0.09809422,0.010234327,50.606678,50.606678
586357847,3670026,3670026,0,0,0,1,1,1,0,0,798.5464,798.5464,3992.732,7985.464,2.6744592,0.2753398,3.2218027e-06,-0.69812995,-0.17754492,-10.089209,-0.015796758,2.0268345,0.0212234,22.689587,72.47153,287.3117,0.43597397,0.64164275,0.046428043,50.565666,50.565666
586458012,3670026,3670026,0,0,0,1,1,1,0,0,798.5473,798.5473,3992.7368,7985.4736,2.6395411,0.28565615,4.184611e-06,-0.5541711,-0.6966703,-12.701331,0.1368382,3.2752774,0.010510967,99.2275,134.99329,647.337,0.80522007,0.44422126,0.1872813,50.504345,50.504345
586558194,3670026,3670026,0,0,0,1,1,1,0,0,798.5477,798.5477,3992.7385,7985.477,2.8481803,0.2725844,4.198989e-06,-0.30871433,-0.26627946,-12.22208,0.12801287,1.5699905,-0.0060721706,93.91354,97.63365,720.1983,1.0155238,0.51942885,0.05067289,50.47827,50.47827
586658353,3670026,3670026,0,0,0,1,1,1,0,0,798.54803,798.54803,3992.7402,7985.4805,3.0175622,0.26390207,6.3719756e-07,-0.7553176,-0.271757,-11.339672,-0.111957155,0.28094786,0.04859384,131.27756,163.40085,513.30145,1.3682837,0.2940303,0.03981019,50.441742,50.441742
586758520,3670026,3670026,0,0,0,1,1,1,0,0,798.54834,798.54834,3992.7417,7985.4834,3.0783818,0.27263525,5.0130933e-07,-0.45369092,-0.31134236,-11.900302,-0.01593325,0.20743275,-0.019253604,208.75749,151.07036,666.6708,0.98275834,0.25201806,0.029971635,50.38322,50.38322
586858742,3670026,3670026,0,0,0,1,1,1,0,0,798.5487,798.5487,3992.7437,7985.4873,3.0169067,0.2511364,3.788224e-07,-0.28121963,-0.52471226,-12.4507475,0.04626846,-0.030666739,-0.005221071,112.68204,199.3208,342.99045,1.6912823,0.48703906,0.027098892,50.3197,50.3197
586958922,3670026,3670026,0,0,0,1,1,1,0,0,798.5491,798.5491,3992.7454,7985.4907,2.9222896,0.23509425,4.145173e-07,-0.5442356,-0.24485202,-12.01012,-0.010043842,-0.07257386,-0.00401829,180.72945,114.91745,403.68683,0.8142162,0.5293458,0.033108056,50.246086,50.246086
