timestamp,timestamp_sample,device_id,x,y,z,temperature,error_count,clip_counter[0],clip_counter[1],clip_counter[2],samples
564935668,564935315,2490386,-0.016907044,0.0017986217,0.02242948,51.65459,0,0,0,0,10
564936930,564936551,2490386,-0.0064417305,-0.003104288,0.009439434,51.61836,0,0,0,0,10
564938051,564937787,2490386,-0.018052833,-0.013955972,0.012064089,51.74517,0,0,0,0,10
564939314,564939022,2490386,-0.023088975,-0.0047230474,0.020744104,51.70894,0,0,0,0,10
564940551,564940258,2490386,-0.008586753,0.0030443338,0.015634686,51.57005,0,0,0,0,10
564941886,564941493,2490386,-0.013343109,-0.010265467,0.008553445,51.630436,0,0,0,0,10
564943142,564942730,2490386,-0.019072052,-0.011337979,0.015681317,51.7029,0,0,0,0,10
564944309,564943965,2490386,-0.016294181,-0.000119908116,0.023235528,51.630436,0,0,0,0,10
564945554,564945202,2490386,-0.005975421,0.000119908116,0.011218071,51.57005,0,0,0,0,10
564946817,564946436,2490386,-0.017886294,-0.013622895,0.01177098,51.497585,0,0,0,0,10
564948052,564947674,2490386,-0.021057198,-0.008093798,0.018952144,51.52778,0,0,0,0,10
564949091,564948907,2490386,-0.011537826,0.0012457122,0.016660567,51.69686,0,0,0,0,10
564950614,564950143,2490386,-0.011524502,-0.008306968,0.008413553,51.66063,0,0,0,0,10
564951876,564951378,2490386,-0.021310337,-0.01219732,0.015741272,51.678745,0,0,0,0,10
564952795,564952614,2490386,-0.020970598,0.00061952526,0.023208883,51.690823,0,0,0,0,10
564956494,564956320,2490386,-0.020764088,-0.0047696787,0.01787297,51.648552,0,0,0,0,10
564961453,564961263,2490386,-0.021823278,-0.0069613326,0.0068480857,51.455315,0,0,0,0,10
564962667,564962499,2490386,-0.011777642,-0.0034773354,-0.002478101,51.61836,0,0,0,0,10
564966374,564966205,2490386,-0.025300613,-0.0023915009,0.016107658,51.624397,0,0,0,0,10
564971335,564971148,2490386,-0.0019718225,0.0044699083,0.017173506,51.74517,0,0,0,0,10
564973798,564973619,2490386,-0.025280628,-0.012563706,0.027612176,51.727055,0,0,0,0,10
564977505,564977326,2490386,-0.0075808577,-0.019518377,0.031802297,51.781403,0,0,0,0,10
564981205,564981033,2490386,-0.007560873,-0.011231394,0.038017534,51.666668,0,0,0,0,10
564984910,564984740,2490386,0.0017919602,-0.009519372,0.04661095,51.65459,0,0,0,0,10
564988612,564988446,2490386,-0.032814857,-0.010491961,0.093928024,51.594204,0,0,0,0,10
564991095,564990917,2490386,0.033041347,-0.037664473,0.012417152,51.65459,0,0,0,0,10
564994812,564994625,2490386,-0.01777971,-0.0050761104,-0.014049235,51.666668,0,0,0,0,10
564998501,564998331,2490386,0.015081776,-0.014322358,0.01769977,51.557972,0,0,0,0,10
565002208,565002038,2490386,-0.028138438,-0.007747397,-0.028544793,51.624397,0,0,0,0,10
565005927,565005746,2490386,-0.017306738,0.009919066,-0.03216202,51.630436,0,0,0,0,10
565008389,565008216,2490386,-0.026752833,0.029410796,-0.04861608,51.75121,0,0,0,0,10
565012171,565011923,2490386,0.0088598775,-0.004243415,-0.028651379,51.678745,0,0,0,0,10
565015904,565015633,2490386,0.0039036754,0.010345406,-0.002264931,51.678745,0,0,0,0,10
565020839,565020572,2490386,-0.057535913,0.031029556,0.006748162,51.69686,0,0,0,0,10
565023383,565023043,2490386,-0.043000385,0.008793262,0.030303447,51.449276,0,0,0,0,10
565025846,565025514,2490386,0.014662098,-0.037084915,0.029064396,51.636475,0,0,0,0,10
565029610,565029224,2490386,0.035126418,-0.012130705,0.049562022,51.727055,0,0,0,0,10
565033235,565032928,2490386,0.014935222,0.0040635527,0.05866838,51.69686,0,0,0,0,10
565036997,565036635,2490386,0.014415621,-0.00040635528,0.058328636,51.69686,0,0,0,0,10
565040708,565040342,2490386,-0.027538897,-0.03279487,0.049402144,51.630436,0,0,0,0,10
565045472,565045284,2490386,-0.02119043,-0.0015654671,0.03480666,51.74517,0,0,0,0,10
565046688,565046520,2490386,0.02178997,0.011537826,0.0025247321,51.61836,0,0,0,0,10
565050398,565050226,2490386,0.007747397,0.022955744,-0.008480169,51.648552,0,0,0,0,10
565055341,565055169,2490386,-0.04293377,-0.016613936,0.0013789433,51.52174,0,0,0,0,10
565057806,565057640,2490386,-0.006508346,0.023068989,-0.017946249,51.61232,0,0,0,0,10
565061513,565061347,2490386,-0.035652682,0.00520268,-0.018512482,51.636475,0,0,0,0,10
565065227,565065054,2490386,0.009033078,0.00831363,-0.019911408,51.61232,0,0,0,0,10
565068939,565068761,2490386,-0.015881164,0.0020650842,-0.0078073507,51.678745,0,0,0,0,10
565071407,565071232,2490386,-0.013243185,0.0036039052,0.020584228,51.624397,0,0,0,0,10
565075113,565074942,2490386,0.003470674,-0.01595444,0.018119449,51.56401,0,0,0,0,10
565078824,565078652,2490386,-0.017320061,-0.008153752,0.027991883,51.57005,0,0,0,0,10
565082536,565082352,2490386,-0.011604441,-0.0063084993,0.038390584,51.690823,0,0,0,0,10
565086230,565086059,2490386,-0.0017053599,0.0005129403,0.03851049,51.642513,0,0,0,0,10
565089952,565089766,2490386,0.013496324,-0.00066615624,0.0370183,51.61836,0,0,0,0,10
565092422,565092239,2490386,-0.004929556,-0.015787901,0.03421378,51.7029,0,0,0,0,10
565096125,565095944,2490386,-0.016147627,-0.024188131,0.018066157,51.582127,0,0,0,0,10
565099836,565099651,2490386,-0.010565237,-0.006401761,0.006401761,51.727055,0,0,0,0,10
565103557,565103365,2490386,-0.015561409,-0.011584456,-0.0021117153,51.666668,0,0,0,0,10
565107274,565107075,2490386,-0.027392343,-0.0039303214,0.003970291,51.61836,0,0,0,0,10
565111105,565110771,2490386,-0.017459955,-0.0026113323,0.0070412713,51.61232,0,0,0,0,10
565113634,565113242,2490386,-0.017886294,-0.013129939,-0.005109418,51.52174,0,0,0,0,10
565117370,565116952,2490386,-0.013909342,-0.01560804,-0.00951271,51.7029,0,0,0,0,10
565121057,565120656,2490386,0.00061952526,0.0019851455,0.0026446402,51.485508,0,0,0,0,10
565124666,565124363,2490386,-0.02178997,0.012097397,0.02789196,51.467392,0,0,0,0,10
565128420,565128069,2490386,0.003577259,-0.026206585,0.026559649,51.594204,0,0,0,0,10
565131002,565130541,2490386,0.011404594,-0.018519143,0.017706431,51.74517,0,0,0,0,10
565135652,565135483,2490386,-0.008693338,-0.01778637,0.031222742,51.551933,0,0,0,0,10
565138122,565137954,2490386,-0.011970827,-0.020231165,0.026859418,51.66063,0,0,0,0,10
565141832,565141661,2490386,-0.022163017,-0.0128434915,0.04984847,51.47947,0,0,0,0,10
565145574,565145368,2490386,-0.022222972,-0.008366922,0.045918148,51.582127,0,0,0,0,10
565149253,565149075,2490386,-0.026006738,-0.0010924962,0.008513477,51.66063,0,0,0,0,10
565151714,565151546,2490386,-0.0260134,-0.0048429556,0.021829939,51.66063,0,0,0,0,10
565155447,565155264,2490386,-0.021330321,0.003803752,0.0078006894,51.509663,0,0,0,0,10
565159139,565158960,2490386,-0.017639816,-0.0045565083,0.004962864,51.57005,0,0,0,0,10
565162838,565162666,2490386,-0.011577795,-0.009093032,0.013836064,51.588165,0,0,0,0,10
565166545,565166373,2490386,-0.041608118,-0.02409487,-0.0030043644,51.74517,0,0,0,0,10
565170262,565170080,2490386,-0.022589358,-0.006161945,0.001398928,51.57005,0,0,0,0,10
565173962,565173787,2490386,0.0017986217,0.004789663,0.011331317,51.60628,0,0,0,0,10
565176452,565176258,2490386,-0.034060568,-0.01198415,0.014801991,51.678745,0,0,0,0,10
565180152,565179965,2490386,-0.0012390505,-0.0006928025,0.024627795,51.65459,0,0,0,0,10
565183841,565183672,2490386,0.0087866,-0.0083202915,0.011577795,51.721016,0,0,0,0,10
565187548,565187379,2490386,-0.018965468,0.0006861409,0.012037443,51.533817,0,0,0,0,10
565191270,565191085,2490386,0.0015188361,0.0019451762,0.03237519,51.763287,0,0,0,0,10
565194961,565194792,2490386,-0.03761118,0.006861409,0.03773775,51.66063,0,0,0,0,10
565197433,565197263,2490386,-0.007027948,-0.017892957,0.011890888,51.672707,0,0,0,0,10
565201221,565200970,2490386,-0.016220903,0.0048429556,0.0150751155,51.65459,0,0,0,0,10
565206225,565205926,2490386,-0.024201455,-0.016900383,0.014269066,51.56401,0,0,0,0,10
565208787,565208385,2490386,-0.019911408,0.0017053599,0.00034640124,51.811596,0,0,0,0,10
565212538,565212091,2490386,0.012903445,0.016573967,0.015541424,51.624397,0,0,0,0,10
565216073,565215797,2490386,-0.031136142,-0.010811715,0.014182466,51.594204,0,0,0,0,10
565218597,565218279,2490386,0.025866846,-0.015621363,0.0011457887,51.763287,0,0,0,0,10
565222354,565221975,2490386,0.0214902,-0.01070513,0.003743798,51.47343,0,0,0,0,10
565225875,565225688,2490386,-0.05203346,0.009399464,0.024761027,51.57005,0,0,0,0,10
565229556,565229389,2490386,-0.038756967,-0.007407657,0.027465621,51.727055,0,0,0,0,10
565233268,565233096,2490386,-0.010731776,-0.0110915005,0.03394732,51.739132,0,0,0,0,10
565235748,565235567,2490386,0.010551915,0.012130705,0.013522971,51.61836,0,0,0,0,10
565239447,565239278,2490386,0.006341807,0.004596478,0.021470215,51.666668,0,0,0,0,10
565243168,565242981,2490386,0.005176034,0.001445559,0.025167381,51.47947,0,0,0,0,10
565246854,565246687,2490386,-0.048469525,-0.011977489,0.019898087,51.636475,0,0,0,0,10
565250567,565250394,2490386,-0.0025980093,0.003377412,0.00018652374,51.642513,0,0,0,0,10
565254280,565254101,2490386,-0.0015787903,-0.028431548,0.004216769,51.678745,0,0,0,0,10
565257980,565257808,2490386,-0.017939586,0.012830169,0.010531929,51.642513,0,0,0,0,10
565260461,565260279,2490386,-0.019798163,-0.01155781,0.0032974733,51.630436,0,0,0,0,10
565264162,565263986,2490386,0.005722282,-0.014622129,0.0027512251,51.557972,0,0,0,0,10
565267875,565267693,2490386,-0.018685682,-0.003270827,0.01846585,51.714977,0,0,0,0,10
565271565,565271399,2490386,-0.054571517,0.0028977795,0.011058193,51.66063,0,0,0,0,10
565275276,565275106,2490386,-0.014662098,-0.007820674,0.008240352,51.672707,0,0,0,0,10
565278994,565278813,2490386,0.012643645,-0.01454219,0.015581394,51.65459,0,0,0,0,10
565281450,565281284,2490386,-0.04635115,0.020244487,0.025766922,51.666668,0,0,0,0,10
565286417,565286229,2490386,-0.038657043,0.021936525,0.030883001,51.52778,0,0,0,0,10
565288865,565288698,2490386,0.014135835,-0.027991883,0.023781776,51.678745,0,0,0,0,10
565292683,565292405,2490386,-0.0059887446,-0.009779173,0.021463552,51.539856,0,0,0,0,10
565297632,565297347,2490386,-0.018865544,-0.012177335,0.008766616,51.582127,0,0,0,0,10
565298874,565298583,2490386,0.007667458,0.0013456355,0.028218377,51.678745,0,0,0,0,10
565302674,565302289,2490386,-0.03910337,-0.014015927,0.0069879787,51.582127,0,0,0,0,10
565307503,565307232,2490386,-0.047090583,-0.009299541,0.009719219,51.60628,0,0,0,0,10
565310018,565309703,2490386,0.026306508,-0.00328415,0.008240352,51.690823,0,0,0,0,10
565313864,565313410,2490386,-0.011464548,0.014428943,0.015874503,51.642513,0,0,0,0,10
565317596,565317117,2490386,-0.04162144,0.0025180704,0.014122511,51.630436,0,0,0,0,10
565320018,565319588,2490386,0.016260874,-0.016267534,0.0028045177,51.66063,0,0,0,0,10
565323462,565323295,2490386,0.015847856,-0.0058022207,0.010172205,51.739132,0,0,0,0,10
565327176,565327001,2490386,-0.03168239,0.02733905,0.019151991,51.672707,0,0,0,0,10
565330953,565330714,2490386,-0.055377565,-0.0092262635,0.020417688,51.69686,0,0,0,0,10
565334590,565334417,2490386,-0.015907811,-0.018086141,0.036898393,51.65459,0,0,0,0,10
565338291,565338122,2490386,-0.05044801,-0.038890198,0.027618837,51.588165,0,0,0,0,10
565340767,565340593,2490386,-5.9954058e-05,0.01586784,0.025407199,51.648552,0,0,0,0,10
565348193,565348007,2490386,-0.018878868,-0.0005129403,0.033314474,51.600243,0,0,0,0,10
565349418,565349242,2490386,-0.012170674,0.033354443,0.035759266,51.630436,0,0,0,0,10
565351892,565351714,2490386,-0.012683614,-0.0412817,0.010585222,51.672707,0,0,0,0,10
565356830,565356656,2490386,-0.028298317,-0.01595444,0.017466616,51.672707,0,0,0,0,10
565358074,565357893,2490386,-0.008759954,0.026233232,0.029537367,51.69686,0,0,0,0,10
565361770,565361598,2490386,-0.039556354,1.9984687e-05,0.01859242,51.714977,0,0,0,0,10
565366714,565366541,2490386,-0.03151585,-0.007907274,0.006515008,51.666668,0,0,0,0,10
565369185,565369012,2490386,-0.024234762,-0.005922129,0.01398928,51.70894,0,0,0,0,10
565372891,565372719,2490386,-0.016480705,0.017080246,0.006521669,51.624397,0,0,0,0,10
565376600,565376428,2490386,-0.018978791,0.009885758,0.0011790965,51.70894,0,0,0,0,10
565380354,565380144,2490386,0.008446861,0.011764319,0.010212175,51.66063,0,0,0,0,10
565382788,565382604,2490386,-0.012803522,-0.01543484,0.01275023,51.66063,0,0,0,0,10
565386543,565386311,2490386,-0.012150689,-0.01496853,0.013822742,51.60628,0,0,0,0,10
565390340,565390017,2490386,0.0052892803,0.0106385145,0.0066082696,51.684784,0,0,0,0,10
565394070,565393725,2490386,0.012650306,-0.0052093416,0.011697703,51.600243,0,0,0,0,10
565397801,565397431,2490386,-0.01305,-0.0016054364,0.025580399,51.666668,0,0,0,0,10
565400269,565399902,2490386,-0.015248315,-0.001885222,0.02447458,51.757248,0,0,0,0,10
565403981,565403609,2490386,-0.017473277,0.007314395,0.007993874,51.60628,0,0,0,0,10
565407692,565407316,2490386,-0.024381317,0.012490429,0.010218836,51.666668,0,0,0,0,10
565411502,565411023,2490386,-0.027565544,0.02426807,0.027825344,51.600243,0,0,0,0,10
565416154,565415965,2490386,-0.022669297,0.042487442,0.024721056,51.557972,0,0,0,0,10
565418603,565418436,2490386,-0.014395636,-0.02572029,0.014955207,51.642513,0,0,0,0,10
565422365,565422145,2490386,-0.0043899696,-0.04656432,0.0076474734,51.672707,0,0,0,0,10
565426024,565425850,2490386,0.0033441042,0.002098392,0.028111791,51.7029,0,0,0,0,10
565428493,565428321,2490386,0.004716386,-0.0053026034,-0.0010258806,51.52174,0,0,0,0,10
565432204,565432028,2490386,-0.0012457122,-0.043519985,-0.0016054364,51.714977,0,0,0,0,10
565435905,565435735,2490386,-0.020564241,-0.03931654,0.020111255,51.5157,0,0,0,0,10
565439613,565439441,2490386,-0.038403906,0.014555513,0.019005436,51.65459,0,0,0,0,10
565442079,565441912,2490386,0.01807948,-8.660031e-05,-0.0107517615,51.545895,0,0,0,0,10
565447034,565446855,2490386,-0.004216769,0.0060486984,-0.014062557,51.630436,0,0,0,0,10
565450750,565450562,2490386,-0.003970291,-0.0036238898,0.00976585,51.66063,0,0,0,0,10
565453198,565453033,2490386,-0.040582236,0.0019118683,0.023055667,51.684784,0,0,0,0,10
565456931,565456740,2490386,0.0039169984,-0.018652374,0.0016120981,51.75121,0,0,0,0,10
565460616,565460447,2490386,0.018192725,-0.02512075,0.0008260337,51.61836,0,0,0,0,10
565466797,565466625,2490386,-0.018825574,-0.029017765,0.013716157,51.56401,0,0,0,0,10
565468028,565467861,2490386,-0.020963935,-0.0017586524,0.023781776,51.600243,0,0,0,0,10
565470549,565470337,2490386,-0.0027045943,-0.046151303,0.017932925,51.60628,0,0,0,0,10
565476794,565476509,2490386,-0.027045943,0.02008461,0.016474044,51.684784,0,0,0,0,10
565478066,565477745,2490386,-0.039123353,0.038190737,0.026513018,51.65459,0,0,0,0,10
565481714,565481452,2490386,-0.009232925,0.02682611,0.019112023,51.739132,0,0,0,0,10
565486745,565486402,2490386,-0.02532726,0.02350199,0.015501455,51.61836,0,0,0,0,10
565488030,565487630,2490386,-0.021130474,0.017879633,0.02682611,51.666668,0,0,0,0,10
565491678,565491337,2490386,-0.029450767,0.014015927,0.018525803,51.576088,0,0,0,0,10
565496610,565496279,2490386,-0.032555055,0.030436678,0.023315467,51.557972,0,0,0,0,10
565499196,565498750,2490386,0.011691041,-0.025134074,-0.008540123,51.594204,0,0,0,0,10
565502870,565502457,2490386,0.0040102606,-0.044246096,0.01825934,51.576088,0,0,0,0,10
565507570,565507399,2490386,0.009546018,-0.008053829,0.007161179,51.551933,0,0,0,0,10
565508812,565508639,2490386,-0.0012457122,0.00831363,0.0014722053,51.666668,0,0,0,0,10
565512539,565512342,2490386,0.004729709,0.010598545,0.010665161,51.733093,0,0,0,0,10
565516268,565516049,2490386,-0.03450023,0.0050161565,0.0064883614,51.65459,0,0,0,0,10
565519939,565519756,2490386,-0.04929556,-0.01949173,0.023082312,51.666668,0,0,0,0,10
565523638,565523463,2490386,-0.040535606,-0.033174578,0.03368752,51.594204,0,0,0,0,10
565526100,565525933,2490386,-0.008646708,0.04016256,0.02073078,51.557972,0,0,0,0,10
565529818,565529640,2490386,-0.05057458,0.03420712,0.015961103,51.539856,0,0,0,0,10
565533515,565533347,2490386,-0.026073353,0.012916769,0.026233232,51.57005,0,0,0,0,10
565537233,565537054,2490386,-0.015827872,-0.07261769,0.0172268,51.545895,0,0,0,0,10
565540934,565540761,2490386,0.0058821593,-0.06149288,0.009532696,51.61836,0,0,0,0,10
565544661,565544468,2490386,-0.010531929,-0.010298775,0.01769311,51.5157,0,0,0,0,10
565547124,565546944,2490386,-0.041434918,0.009439434,0.016960338,51.75121,0,0,0,0,10
565550828,565550646,2490386,0.011278025,-0.028418224,-0.001292343,51.57005,0,0,0,0,10
565554523,565554352,2490386,0.008233691,-0.043859724,0.011664395,51.65459,0,0,0,0,10
565558244,565558062,2490386,-0.034613475,-0.006281853,0.024014931,51.74517,0,0,0,0,10
565561936,565561766,2490386,-0.029910414,0.027498929,0.018292649,51.551933,0,0,0,0,10
565565642,565565473,2490386,-0.0069013783,0.032135375,-0.004623124,51.630436,0,0,0,0,10
565569446,565569179,2490386,0.00053958653,0.008959801,0.0011524502,51.576088,0,0,0,0,10
565571898,565571651,2490386,-0.047856662,-0.025893493,0.016607275,51.600243,0,0,0,0,10
565577008,565576593,2490386,-0.031589128,-0.0060753445,0.016100995,51.672707,0,0,0,0,10
565579424,565579064,2490386,-0.0042633996,-0.019298546,0.0072477795,51.491547,0,0,0,0,10
565583035,565582771,2490386,-0.0043433383,0.028757963,0.028511485,51.630436,0,0,0,0,10
565586816,565586478,2490386,-0.055923812,0.030216847,0.034253754,51.61836,0,0,0,0,10
565590656,565590185,2490386,-0.022702605,-0.014655436,0.027239127,51.52778,0,0,0,0,10
565594289,565593895,2490386,-0.011930858,-0.07588185,0.006068683,51.600243,0,0,0,0,10
565596530,565596363,2490386,-0.031795636,0.035213016,0.034906585,51.57005,0,0,0,0,10
565600248,565600069,2490386,-0.052732926,0.05465812,0.030356739,51.636475,0,0,0,0,10
565603959,565603776,2490386,-0.033167917,0.023062328,0.013676187,51.648552,0,0,0,0,10
565607694,565607484,2490386,0.0037104902,-0.038137443,0.012890123,51.557972,0,0,0,0,10
565610146,565609958,2490386,-0.018738974,0.0131366,0.014388974,51.594204,0,0,0,0,10
565613856,565613665,2490386,-0.0058022207,0.044419296,0.009745865,51.52778,0,0,0,0,10
565617541,565617368,2490386,-0.017633155,0.026286524,0.01432902,51.509663,0,0,0,0,10
565621242,565621075,2490386,-0.012976723,0.0023515315,0.010145559,51.666668,0,0,0,0,10
565624957,565624782,2490386,0.0026179939,-0.0038170752,0.013649541,51.61836,0,0,0,0,10
565628675,565628489,2490386,-0.012816845,-0.026333155,0.009392803,51.5157,0,0,0,0,10
565631146,565630960,2490386,-0.02320222,0.016893722,0.011144794,51.69686,0,0,0,0,10
565637307,565637138,2490386,-0.030509954,-0.048676033,-0.005762251,51.545895,0,0,0,0,10
565638539,565638373,2490386,-0.065143414,0.002784533,0.01842588,51.497585,0,0,0,0,10
565642250,565642080,2490386,-0.036891732,-0.04421279,0.003757121,51.642513,0,0,0,0,10
565645962,565645787,2490386,-0.010471975,-0.07784035,0.006921363,51.642513,0,0,0,0,10
565649676,565649494,2490386,-0.0107517615,-0.05104755,0.019631624,51.557972,0,0,0,0,10
565652131,565651965,2490386,-0.051986832,0.04016922,0.03160911,51.57005,0,0,0,0,10
565655854,565655672,2490386,-0.010038974,0.00048629404,0.022009801,51.642513,0,0,0,0,10
565659604,565659379,2490386,-0.003650536,-0.07650138,0.0025647015,51.557972,0,0,0,0,10
565663334,565663085,2490386,0.042780552,-0.05548415,0.0041301684,51.533817,0,0,0,0,10
565667093,565666792,2490386,-0.0051360643,-0.015847856,0.0058488515,51.66063,0,0,0,0,10
565670936,565670501,2490386,-0.0005662328,0.020890659,0.027658805,51.582127,0,0,0,0,10
565673355,565672970,2490386,-0.0410219,-0.015448162,0.011211409,51.69686,0,0,0,0,10
565676970,565676682,2490386,-0.01424242,-0.02328216,0.0040435684,51.56401,0,0,0,0,10
565680844,565680384,2490386,-0.0044299387,-0.015041808,0.01552144,51.630436,0,0,0,0,10
565684462,565684090,2490386,-0.013869372,0.004836294,0.013229863,51.74517,0,0,0,0,10
565687990,565687801,2490386,-0.022029785,0.0029910414,0.0069613326,51.61836,0,0,0,0,10
565691673,565691504,2490386,-0.033627566,0.008306968,0.020137902,51.666668,0,0,0,0,10
565694141,565693975,2490386,-0.016134303,-0.03893017,-0.002691271,51.600243,0,0,0,0,10
565697879,565697682,2490386,0.018219372,-0.038530476,-0.010345406,51.57005,0,0,0,0,10
565702796,565702624,2490386,-0.0012057427,-0.046291195,-0.0076607964,51.57005,0,0,0,0,10
565707740,565707567,2490386,-0.031535834,-0.035492804,0.011404594,51.600243,0,0,0,0,10
565708999,565708803,2490386,-0.04900911,0.034906585,0.042114396,51.630436,0,0,0,0,10
565712697,565712510,2490386,-0.03914334,-0.0032441807,0.018219372,51.642513,0,0,0,0,10
565717627,565717455,2490386,-0.04772343,0.0363255,0.03671853,51.52778,0,0,0,0,10
565720114,565719923,2490386,0.021363629,-0.06196585,0.0049362173,51.52778,0,0,0,0,10
565722571,565722398,2490386,-0.05300605,0.055077795,0.041128483,51.497585,0,0,0,0,10
565726274,565726101,2490386,-0.042294256,0.0078140125,0.02204977,51.545895,0,0,0,0,10
565729998,565729814,2490386,-0.04209441,-0.038996786,0.016267534,51.509663,0,0,0,0,10
565733684,565733515,2490386,0.005122741,-0.011211409,0.018066157,51.600243,0,0,0,0,10
565737387,565737221,2490386,-0.026306508,-0.0044232775,0.015534763,51.557972,0,0,0,0,10
565741107,565740934,2490386,0.0042633996,0.024208117,0.009965697,51.419083,0,0,0,0,10
565743569,565743399,2490386,0.0052626343,-0.027698776,0.01880559,51.60628,0,0,0,0,10
565747288,565747107,2490386,-0.00541585,0.0062751914,0.011224732,51.600243,0,0,0,0,10
565751099,565750813,2490386,-0.014881929,-0.014528867,0.0005529097,51.557972,0,0,0,0,10
565754766,565754520,2490386,0.018459188,-0.016607275,-0.016553981,51.52174,0,0,0,0,10
565758544,565758227,2490386,-0.00013323124,-0.015621363,-0.0015121746,51.57005,0,0,0,0,10
565761042,565760698,2490386,-0.0758219,0.028364932,0.04158813,51.539856,0,0,0,0,10
565764776,565764407,2490386,-0.05760253,-0.016567305,0.013736141,51.467392,0,0,0,0,10
565768381,565768111,2490386,-0.015161715,-0.055124428,0.0046630935,51.582127,0,0,0,0,10
565773477,565773054,2490386,-0.030183539,-0.032888133,0.004882925,51.509663,0,0,0,0,10
565777208,565776766,2490386,0.008606738,-0.045085452,0.0042633996,51.557972,0,0,0,0,10
565778454,565777996,2490386,-0.024880935,-0.020664165,0.0172268,51.5157,0,0,0,0,10
565781878,565781704,2490386,-0.008247014,-0.054698087,0.0066549005,51.34662,0,0,0,0,10
565786822,565786645,2490386,-0.020291118,-0.032008804,0.006388438,51.557972,0,0,0,0,10
565789321,565789131,2490386,-0.010305436,0.00456317,0.0064617153,51.545895,0,0,0,0,10
565799176,565799003,2490386,-0.044366002,0.00046630934,0.017679786,51.443237,0,0,0,0,10
565800412,565800237,2490386,-0.0060553597,-0.03493323,0.020764088,51.400967,0,0,0,0,10
565801639,565801472,2490386,0.035026494,-0.01275023,0.011917534,51.551933,0,0,0,0,10
565802882,565802708,2490386,-0.0301036,0.018266004,0.0102721285,51.5157,0,0,0,0,10
565807828,565807651,2490386,-0.022382848,0.006161945,0.01595444,51.61232,0,0,0,0,10
565811535,565811357,2490386,0.009619296,0.009725881,0.014408959,51.533817,0,0,0,0,10
565814012,565813828,2490386,-0.018992113,-0.01411585,0.019092036,51.56401,0,0,0,0,10
565817714,565817535,2490386,-0.027578868,-0.0056689894,0.02929755,51.497585,0,0,0,0,10
565821413,565821242,2490386,-0.057549234,2.6646248e-05,0.035173047,51.60628,0,0,0,0,10
565823883,565823713,2490386,0.030130245,-0.020624196,0.0044632466,51.449276,0,0,0,0,10
565827592,565827420,2490386,-0.006068683,0.0019718225,0.019558346,51.557972,0,0,0,0,10
565831306,565831127,2490386,-0.029697243,0.023382083,0.03852381,51.66063,0,0,0,0,10
565835004,565834834,2490386,-0.040402375,0.009412787,0.009985682,51.503624,0,0,0,0,10
565837472,565837305,2490386,-0.004503216,-0.030456662,0.011324655,51.594204,0,0,0,0,10
565842491,565842249,2490386,0.0011924197,-0.05655,0.007101225,51.449276,0,0,0,0,10
565844950,565844719,2490386,-0.027225804,0.03679847,0.0331013,51.630436,0,0,0,0,10
565848786,565848426,2490386,-0.012943415,-0.0067614857,0.017793033,51.52174,0,0,0,0,10
565852435,565852133,2490386,-0.020797396,-0.049928408,-0.00020650843,51.56401,0,0,0,0,10
565856214,565855841,2490386,-0.0029777184,-0.0067614857,0.021097166,51.497585,0,0,0,0,10
565859823,565859546,2490386,-0.050920982,0.031316005,0.020031318,51.47947,0,0,0,0,10
565862308,565862017,2490386,-0.011677719,-0.012290582,0.0062885145,51.467392,0,0,0,0,10
565867357,565866959,2490386,-0.0018585759,0.00277121,0.0033374426,51.7029,0,0,0,0,10
565871169,565870688,2490386,-0.0034506891,0.0015055131,0.022749234,51.630436,0,0,0,0,10
565873308,565873137,2490386,-0.036345482,0.007827335,0.014302374,51.4372,0,0,0,0,10
565877017,565876844,2490386,-0.011364625,-0.024554517,0.0015987749,51.509663,0,0,0,0,10
565880748,565880551,2490386,0.005902144,-0.028538132,0.008899847,51.461353,0,0,0,0,10
565884471,565884259,2490386,-0.00058621744,1.3323124e-05,0.022635989,51.57005,0,0,0,0,10
565886908,565886729,2490386,-0.03926325,0.010218836,0.005922129,51.57005,0,0,0,0,10
565890609,565890437,2490386,-0.024627795,-0.03295475,0.012830169,51.52778,0,0,0,0,10
565894313,565894143,2490386,-0.011491194,-0.019565009,0.028205054,51.56401,0,0,0,0,10
565898016,565897849,2490386,-0.009945712,0.024954211,0.033147935,51.485508,0,0,0,0,10
565901721,565901556,2490386,-0.032182008,0.03607902,0.024034915,51.485508,0,0,0,0,10
565905438,565905263,2490386,-0.023655208,0.0022116387,0.007840659,51.503624,0,0,0,0,10
565907908,565907734,2490386,-0.012636984,-0.015461486,0.017240122,51.66063,0,0,0,0,10
565911620,565911441,2490386,-0.046750844,-0.01850582,0.015827872,51.539856,0,0,0,0,10
565915332,565915148,2490386,-0.012763553,0.020983921,0.015554748,51.539856,0,0,0,0,10
565919026,565918855,2490386,0.017206814,-0.020970598,-0.005216003,51.594204,0,0,0,0,10
565922730,565922561,2490386,0.02171003,-0.034726724,0.0059887446,51.491547,0,0,0,0,10
565927676,565927508,2490386,-0.020610873,-3.9969374e-05,0.0087732775,51.52778,0,0,0,0,10
565928924,565928740,2490386,-0.0072477795,0.030756433,0.022236295,51.449276,0,0,0,0,10
565932656,565932447,2490386,0.009133002,0.004716386,0.023994947,51.576088,0,0,0,0,10
565936367,565936153,2490386,0.008233691,-0.0064483923,0.010445329,51.61232,0,0,0,0,10
565940122,565939860,2490386,-0.003943645,-0.006948009,0.0011924197,51.419083,0,0,0,0,10
565943945,565943566,2490386,-0.02886455,0.009379479,0.026359802,51.52174,0,0,0,0,10
565946371,565946038,2490386,-0.014355666,-0.017360032,0.02354196,51.539856,0,0,0,0,10
565950148,565949745,2490386,0.00014655436,0.004942879,0.0070545943,51.503624,0,0,0,0,10
565953759,565953451,2490386,-0.021283692,0.021336984,0.034420293,51.57005,0,0,0,0,10
565957490,565957158,2490386,-0.048735987,0.0076874425,0.0074343034,51.394928,0,0,0,0,10
565961263,565960868,2490386,-0.014448929,-0.019085376,0.002358193,51.455315,0,0,0,0,10
565965019,565964571,2490386,0.00014655436,-0.034893263,0.013409724,51.509663,0,0,0,0,10
565967226,565967043,2490386,-0.040868685,0.020997243,0.017859649,51.539856,0,0,0,0,10
565972177,565971986,2490386,-0.05411853,0.012923431,0.022083078,51.576088,0,0,0,0,10
565974659,565974456,2490386,-0.0058355285,-0.03625222,-0.0030776416,51.407005,0,0,0,0,10
565978350,565978163,2490386,0.009859112,-0.02750559,0.008007198,51.52778,0,0,0,0,10
565982056,565981870,2490386,-0.03505314,-0.019298546,0.034593493,51.413044,0,0,0,0,10
565985752,565985577,2490386,-0.02729242,0.006981317,0.034653448,51.61232,0,0,0,0,10
565988216,565988048,2490386,-0.020197857,0.0025913476,0.0011191424,51.413044,0,0,0,0,10
565991926,565991755,2490386,0.00046630934,0.0130966315,0.01356294,51.533817,0,0,0,0,10
565996866,565996697,2490386,0.0026712865,0.0071745026,0.012530399,51.576088,0,0,0,0,10
565999336,565999168,2490386,-0.022482771,-0.020910643,0.010758423,51.684784,0,0,0,0,10
566003053,566002883,2490386,-0.040588897,-0.0411951,0.021303676,51.47947,0,0,0,0,10
566009218,566009053,2490386,-0.007774043,0.00349732,0.006128637,51.47947,0,0,0,0,10
566010458,566010289,2490386,-0.010884993,0.0031842266,0.018186064,51.56401,0,0,0,0,10
566014171,566013995,2490386,-0.011677719,0.011724349,0.011191424,51.491547,0,0,0,0,10
566016654,566016467,2490386,-0.0063817766,-0.021989817,0.040968608,51.5157,0,0,0,0,10
566020342,566020173,2490386,-0.029330857,-0.004569832,0.034893263,51.407005,0,0,0,0,10
566024088,566023880,2490386,-0.029204288,0.011524502,0.021969832,51.551933,0,0,0,0,10
566027790,566027591,2490386,-0.032008804,0.0072211334,-0.001885222,51.47343,0,0,0,0,10
566030334,566030058,2490386,-0.011178101,-0.008626723,0.026366463,51.419083,0,0,0,0,10
566034050,566033767,2490386,-0.02439464,-0.034047242,0.024141502,51.413044,0,0,0,0,10
566037798,566037472,2490386,-0.02716585,0.009879096,0.0074409647,51.455315,0,0,0,0,10
566041553,566041179,2490386,-0.0197049,0.03372749,-0.0014522205,51.557972,0,0,0,0,10
566045191,566044886,2490386,-0.0007927259,0.0075941808,0.010485299,51.56401,0,0,0,0,10
566048931,566048592,2490386,0.0174866,0.012317228,0.0050694486,51.455315,0,0,0,0,10
566051500,566051063,2490386,-0.025020827,-0.035419527,0.013416386,51.47947,0,0,0,0,10
566054966,566054774,2490386,-0.024228102,-0.00903974,0.016813783,51.557972,0,0,0,0,10
566058650,566058477,2490386,-0.0037637826,-0.013336447,0.01855245,51.455315,0,0,0,0,10
566062358,566062184,2490386,-0.0057289433,0.013522971,0.005555743,51.467392,0,0,0,0,10
566066086,566065891,2490386,-0.017333385,-0.010671822,0.006508346,51.467392,0,0,0,0,10
566069776,566069597,2490386,-0.023755131,-0.014995176,0.020524273,51.419083,0,0,0,0,10
566072274,566072069,2490386,-0.010718454,0.019391807,0.014828637,51.455315,0,0,0,0,10
566078436,566078247,2490386,-0.017433308,-0.0341938,0.0277121,51.497585,0,0,0,0,10
566079672,566079482,2490386,-0.028238362,0.051487215,0.014948545,51.52174,0,0,0,0,10
566083363,566083189,2490386,-0.015614701,0.026519679,0.016347473,51.509663,0,0,0,0,10
566088312,566088138,2490386,-0.040189203,0.026060032,0.012317228,51.576088,0,0,0,0,10
566089553,566089367,2490386,-0.03172902,-0.00733438,0.017260108,51.461353,0,0,0,0,10
566094477,566094309,2490386,-0.021130474,-0.02703262,0.018459188,51.545895,0,0,0,0,10
566098193,566098019,2490386,-0.037084915,-0.002664625,0.009152986,51.449276,0,0,0,0,10
566100666,566100487,2490386,0.008753292,-0.0051960186,0.006115314,51.4372,0,0,0,0,10
566104363,566104194,2490386,-0.01957833,-0.014135835,0.018812252,51.630436,0,0,0,0,10
566110556,566110372,2490386,0.0004396631,0.02635314,0.005562404,51.47947,0,0,0,0,10
566111825,566111608,2490386,-0.016573967,-0.029983692,0.00614196,51.467392,0,0,0,0,10
566115516,566115315,2490386,0.0024248087,-0.013849388,0.0095926495,51.485508,0,0,0,0,10
566118096,566117786,2490386,-0.008506815,0.008153752,0.014262404,51.461353,0,0,0,0,10
566121708,566121493,2490386,-0.016480705,-0.016054364,0.006954671,51.557972,0,0,0,0,10
566125457,566125200,2490386,-0.013409724,-0.06313162,0.008500153,51.42512,0,0,0,0,10
566129368,566128906,2490386,-0.044845637,-0.009152986,0.03314127,51.61232,0,0,0,0,10
566132986,566132614,2490386,-0.0054558194,0.03324786,0.016533997,51.47343,0,0,0,0,10
566135393,566135084,2490386,-0.039662942,-0.026812788,0.0136628635,51.4372,0,0,0,0,10
566139110,566138791,2490386,-0.020997243,-0.060833383,0.033294488,51.52174,0,0,0,0,10
566142925,566142502,2490386,-0.018972129,-0.029630627,0.024001608,51.497585,0,0,0,0,10
566147930,566147440,2490386,-0.014355666,-0.03202879,0.027605513,51.666668,0,0,0,0,10
566150082,566149911,2490386,-0.011284687,0.0004596478,-0.000592879,51.394928,0,0,0,0,10
566152555,566152382,2490386,-0.0064817,0.009106356,0.030050308,51.588165,0,0,0,0,10
566158758,566158564,2490386,-0.008493491,0.016407428,0.009579326,51.43116,0,0,0,0,10
566160012,566159796,2490386,-0.009919066,-0.018206049,-0.0030043644,51.582127,0,0,0,0,10
566163669,566163503,2490386,-0.018345943,0.014788668,0.0043300153,51.5157,0,0,0,0,10
566168618,566168445,2490386,-0.016187595,-0.06648905,0.0063817766,51.485508,0,0,0,0,10
566171105,566170917,2490386,-0.024614472,0.07286417,0.024634456,51.42512,0,0,0,0,10
566173555,566173388,2490386,0.005189357,-0.07110552,-0.0072211334,51.443237,0,0,0,0,10
566177274,566177094,2490386,-0.018186064,-0.060919985,0.0051960186,51.400967,0,0,0,0,10
566182205,566182037,2490386,0.0034307046,-0.048682697,0.009879096,51.5157,0,0,0,0,10
566184683,566184508,2490386,-0.037004977,0.023488669,0.02733905,51.394928,0,0,0,0,10
566188398,566188215,2490386,-0.034227107,0.000912634,0.01650069,51.576088,0,0,0,0,10
566192089,566191922,2490386,-0.036112327,-0.013509648,0.016793799,51.600243,0,0,0,0,10
566197040,566196864,2490386,-0.011617764,0.033754136,0.024034915,51.47947,0,0,0,0,10
566198265,566198100,2490386,-0.0035239663,0.02532726,0.014149158,51.594204,0,0,0,0,10
566201980,566201806,2490386,-0.008573431,0.020517612,0.035619374,51.545895,0,0,0,0,10
566208219,566207984,2490386,-0.007867305,-0.06298507,-0.0005795559,51.60628,0,0,0,0,10
566209470,566209220,2490386,-0.022056432,-0.005475804,0.02400827,51.545895,0,0,0,0,10
566213210,566212927,2490386,-0.01385605,-0.037664473,0.008080475,51.557972,0,0,0,0,10
566218135,566217869,2490386,-0.024747703,-0.0086134,0.012770214,51.557972,0,0,0,0,10
566219396,566219105,2490386,-0.042101074,0.025460491,0.03291478,51.539856,0,0,0,0,10
566223157,566222812,2490386,-0.058628406,0.039429788,0.03176899,51.491547,0,0,0,0,10
566228040,566227754,2490386,-0.0172268,0.05685643,0.026326494,51.56401,0,0,0,0,10
566230617,566230226,2490386,-0.009632619,-0.038237367,-0.0025380552,51.551933,0,0,0,0,10
566234283,566233932,2490386,-0.010825039,-0.056609955,0.0014588821,51.461353,0,0,0,0,10
566237809,566237639,2490386,-0.011231394,-0.010845023,0.009885758,51.47343,0,0,0,0,10
566240528,566240110,2490386,-0.029497396,0.01739334,0.021556815,51.467392,0,0,0,0,10
566244017,566243830,2490386,-0.0072477795,-0.021590123,-0.0012656968,51.491547,0,0,0,0,10
566247693,566247524,2490386,0.004369985,-0.07952573,0.00075275655,51.413044,0,0,0,0,10
566251448,566251231,2490386,-0.0029177642,-0.04884257,0.012017458,51.43116,0,0,0,0,10
566255113,566254937,2490386,0.0010924962,-0.00047963246,0.030350078,51.61836,0,0,0,0,10
566257578,566257408,2490386,-0.03555942,0.018066157,0.009705896,51.52778,0,0,0,0,10
566262521,566262351,2490386,-0.026246555,0.0035306278,0.027678791,51.4372,0,0,0,0,10
566268699,566268529,2490386,-0.0021983155,-0.017506585,0.0068680705,51.5157,0,0,0,0,10
566269943,566269764,2490386,-0.02264265,-0.0063084993,0.018365927,51.545895,0,0,0,0,10
566272405,566272235,2490386,0.012357198,-0.021783307,0.0042967075,51.61232,0,0,0,0,10
566276118,566275943,2490386,-0.039363172,0.019584993,0.01710023,51.358696,0,0,0,0,10
566278601,566278414,2490386,-0.04529196,-0.028724656,0.015381547,51.576088,0,0,0,0,10
566282323,566282120,2490386,0.028118454,-0.049149007,-0.010838361,51.509663,0,0,0,0,10
566285997,566285828,2490386,0.0064550536,-0.06495689,-0.005355896,51.57005,0,0,0,0,10
566289704,566289534,2490386,0.0033374426,0.013063324,0.044079557,51.509663,0,0,0,0,10
566293406,566293241,2490386,-0.05035475,0.04220766,0.042121056,51.5157,0,0,0,0,10
566297121,566296948,2490386,-0.031335987,0.04371983,0.021230398,51.551933,0,0,0,0,10
566300832,566300654,2490386,0.000319755,-0.011970827,-0.011124808,51.461353,0,0,0,0,10
566303294,566303129,2490386,-0.0064817,-0.013656203,0.018925497,51.690823,0,0,0,0,10
566308412,566308068,2490386,0.0015121746,-0.040422358,9.326187e-05,51.509663,0,0,0,0,10
566310924,566310539,2490386,-0.04099525,0.014762022,0.028391577,51.576088,0,0,0,0,10
566314602,566314246,2490386,-0.03650536,0.010898315,0.009925728,51.551933,0,0,0,0,10
566318334,566317953,2490386,-0.026073353,0.014708729,0.023388745,51.467392,0,0,0,0,10
566320699,566320424,2490386,0.0034640124,-0.023675192,0.02580023,51.588165,0,0,0,0,10
566324462,566324130,2490386,-0.011504518,-0.01752657,0.019032083,51.443237,0,0,0,0,10
566328222,566327837,2490386,-0.017439969,0.00456317,0.034520216,51.65459,0,0,0,0,10
566331744,566331545,2490386,-0.052526418,0.0260134,0.03432703,51.636475,0,0,0,0,10
566335419,566335251,2490386,-0.03160245,0.00029310872,0.010185529,51.491547,0,0,0,0,10
566339126,566338958,2490386,0.004576493,-0.03679847,-0.0050428025,51.630436,0,0,0,0,10
566341619,566341429,2490386,-0.028344946,0.0025313937,0.02643974,51.588165,0,0,0,0,10
566345359,566345136,2490386,-0.037411332,0.033187903,0.019238591,51.545895,0,0,0,0,10
566349032,566348843,2490386,-0.037977565,0.027578868,0.010125575,51.485508,0,0,0,0,10
566352734,566352550,2490386,0.009712557,0.006981317,5.9954058e-05,51.533817,0,0,0,0,10
566356438,566356257,2490386,-0.007107887,-0.020670827,-0.00793392,51.52778,0,0,0,0,10
566360134,566359963,2490386,0.019838132,-0.021390276,0.009352833,51.61232,0,0,0,0,10
566362601,566362434,2490386,-0.025560414,0.016267534,0.023042344,51.545895,0,0,0,0,10
566368804,566368612,2490386,-9.992343e-05,-0.022702605,0.0025647015,51.449276,0,0,0,0,10
566371253,566371083,2490386,-0.03787098,0.004369985,0.016893722,51.449276,0,0,0,0,10
566373725,566373555,2490386,-0.020131242,-0.01778637,0.014708729,51.52778,0,0,0,0,10
566377443,566377261,2490386,-0.03253507,-0.014135835,0.04033576,51.672707,0,0,0,0,10
566381149,566380968,2490386,-0.020004671,-0.0010991577,0.03326118,51.539856,0,0,0,0,10
566383604,566383439,2490386,-0.017140198,-0.00012656968,0.018359264,51.449276,0,0,0,0,10
566387316,566387146,2490386,-0.02720582,0.005688974,0.02081072,51.503624,0,0,0,0,10
566391023,566390853,2490386,-0.029777182,-0.03138262,0.006368453,51.449276,0,0,0,0,10
566394728,566394560,2490386,-0.0071145482,-0.052146707,0.002997703,51.461353,0,0,0,0,10
566398517,566398267,2490386,0.008919831,-0.03602573,0.006341807,51.509663,0,0,0,0,10
566402339,566401973,2490386,-0.03330115,-0.0034107198,0.021430245,51.582127,0,0,0,0,10
566406036,566405680,2490386,-0.02703928,0.0078073507,0.026966004,51.576088,0,0,0,0,10
566408593,566408151,2490386,0.012896785,-0.010518607,-0.009113017,51.485508,0,0,0,0,10
566412213,566411860,2490386,-0.019724885,-0.011444564,0.014908576,51.503624,0,0,0,0,10
566415896,566415565,2490386,-0.020104595,0.016767152,0.030030321,51.600243,0,0,0,0,10
566419651,566419272,2490386,-0.01978484,0.021543492,0.021670062,51.61232,0,0,0,0,10
566423171,566422983,2490386,-0.013030016,0.02153683,-0.0031842266,51.672707,0,0,0,0,10
566425616,566425450,2490386,-0.004123507,-0.033714164,0.021543492,51.648552,0,0,0,0,10
566429327,566429157,2490386,-0.029883768,-0.029843798,0.015927795,51.624397,0,0,0,0,10
566433058,566432863,2490386,0.007680781,-0.028118454,-0.0050161565,51.666668,0,0,0,0,10
566437973,566437806,2490386,0.007740735,-0.020371057,0.012137366,51.43116,0,0,0,0,10
566440459,566440277,2490386,0.011031547,-0.0001398928,0.027705437,51.52778,0,0,0,0,10
566444165,566443984,2490386,-0.031928867,0.04022251,0.02989043,51.449276,0,0,0,0,10
566447877,566447691,2490386,-0.024328025,-0.0048629404,0.02464778,51.449276,0,0,0,0,10
566451578,566451398,2490386,-0.023095636,-0.055524122,0.007361026,51.52174,0,0,0,0,10
566454041,566453869,2490386,-0.0044965544,0.016700536,0.03355429,51.503624,0,0,0,0,10
566457750,566457575,2490386,-0.034726724,0.045198698,0.023208883,51.400967,0,0,0,0,10
566461463,566461284,2490386,-0.054518223,0.010778408,0.011018224,51.600243,0,0,0,0,10
566465164,566464989,2490386,0.0017653139,0.0040702145,0.012676952,51.582127,0,0,0,0,10
566468881,566468697,2490386,-0.009526034,-0.004949541,0.0044632466,51.5157,0,0,0,0,10
566473811,566473641,2490386,-0.017899618,0.005509112,0.012950077,51.413044,0,0,0,0,10
566475043,566474874,2490386,-0.011404594,0.009099694,0.020057963,51.582127,0,0,0,0,10
566478760,566478581,2490386,-0.03220199,-0.004949541,0.011404594,51.690823,0,0,0,0,10
566483694,566483523,2490386,-0.014655436,0.023122283,0.01846585,51.642513,0,0,0,0,10
566486170,566485994,2490386,-0.029484075,-0.034606814,0.010511945,51.630436,0,0,0,0,10
566488683,566488466,2490386,0.016707199,0.0013789433,0.0030043644,51.497585,0,0,0,0,10
566492422,566492172,2490386,-0.04481899,0.02426807,0.030050308,51.545895,0,0,0,0,10
566496184,566495879,2490386,-0.03961631,0.032774884,0.02332879,51.576088,0,0,0,0,10
566499946,566499591,2490386,-0.043353446,0.017260108,0.03265498,51.52174,0,0,0,0,10
566503601,566503293,2490386,-0.013203216,-0.031409264,0.01560804,51.455315,0,0,0,0,10
566508619,566508235,2490386,-0.02801853,-0.026926033,0.022156356,51.5157,0,0,0,0,10
566509908,566509470,2490386,-0.03803752,0.030856356,0.042700615,51.5157,0,0,0,0,10
566513613,566513181,2490386,-0.04316026,0.022356203,0.03385406,51.57005,0,0,0,0,10
566518288,566518120,2490386,-0.054484915,0.06034043,0.038943492,51.509663,0,0,0,0,10
566520760,566520591,2490386,0.01957833,-0.06966662,-0.002951072,51.582127,0,0,0,0,10
566524466,566524298,2490386,0.008433538,-0.03872366,0.005109418,51.509663,0,0,0,0,10
566528219,566528010,2490386,0.0005129403,0.013596248,0.018019525,51.582127,0,0,0,0,10
566530649,566530476,2490386,-0.011198086,-0.015921133,0.00026646248,51.47343,0,0,0,0,10
566534355,566534182,2490386,-0.0066215927,-0.039196633,0.0048762634,51.672707,0,0,0,0,10
566538057,566537890,2490386,-0.013043338,0.0006128637,0.0062552067,51.56401,0,0,0,0,10
566543013,566542832,2490386,-0.0198781,-0.022682618,0.026832772,51.624397,0,0,0,0,10
566545488,566545303,2490386,0.009479403,-0.005935452,-0.0056623276,51.7029,0,0,0,0,10
566549191,566549013,2490386,-0.033107962,0.019125344,0.008147091,51.648552,0,0,0,0,10
566552897,566552718,2490386,-0.040562253,0.032608345,0.04465245,51.533817,0,0,0,0,10
566555358,566555188,2490386,-0.0066682235,-0.056176953,0.00037970903,51.394928,0,0,0,0,10
566559067,566558895,2490386,0.025047474,-0.040708806,-0.0064817,51.690823,0,0,0,0,10
566562777,566562602,2490386,0.01641409,0.009239587,0.037024964,51.485508,0,0,0,0,10
566566478,566566308,2490386,-0.04583821,0.047776725,0.04426608,51.52174,0,0,0,0,10
566570182,566570015,2490386,-0.031948853,0.026932696,0.028038515,51.539856,0,0,0,0,10
566573890,566573722,2490386,-0.026932696,-0.035506126,0.007141195,51.672707,0,0,0,0,10
566578897,566578664,2490386,-0.027372358,0.014815314,0.024041578,51.503624,0,0,0,0,10
566580127,566579900,2490386,-0.011244717,0.026213247,0.022509418,51.7029,0,0,0,0,10
566583863,566583608,2490386,-0.021936525,0.00985245,0.017206814,51.636475,0,0,0,0,10
566588927,566588549,2490386,0.015441501,-0.022842497,0.008386906,51.56401,0,0,0,0,10
566592610,566592256,2490386,-0.012017458,-0.023695176,0.014722052,51.672707,0,0,0,0,10
566593846,566593495,2490386,0.0048429556,0.027159188,0.011424579,51.57005,0,0,0,0,10
566598731,566598434,2490386,-0.01138461,0.022702605,0.0027179173,51.503624,0,0,0,0,10
566603748,566603377,2490386,-0.020657504,-0.03143591,0.0018186065,51.70894,0,0,0,0,10
566604991,566604612,2490386,-0.026692878,-0.016454058,0.021823278,51.66063,0,0,0,0,10
566608803,566608319,2490386,-0.049675267,-0.0075675347,0.023462022,51.721016,0,0,0,0,10
566612211,566612025,2490386,-0.018106125,-0.033707503,0.003970291,51.594204,0,0,0,0,10
566614683,566614499,2490386,-0.016773812,0.0030243492,0.017439969,51.690823,0,0,0,0,10
566618400,566618204,2490386,-0.038716998,0.02251608,0.030090276,51.648552,0,0,0,0,10
566622096,566621910,2490386,-0.065862864,0.013063324,0.02101723,51.497585,0,0,0,0,10
566625795,566625618,2490386,-0.034826647,-0.03988277,0.021570139,51.600243,0,0,0,0,10
566629513,566629324,2490386,-0.0047097243,-0.04482565,0.006341807,51.594204,0,0,0,0,10
566633212,566633031,2490386,0.0055757277,-0.002951072,0.006328484,51.52778,0,0,0,0,10
566635669,566635502,2490386,-0.025773583,0.019092036,0.037757736,51.630436,0,0,0,0,10
566639392,566639223,2490386,-0.021037214,-0.021117153,0.014082543,51.666668,0,0,0,0,10
566644336,566644151,2490386,-0.039629634,-0.027312405,0.0124771055,51.739132,0,0,0,0,10
566646800,566646623,2490386,0.01305,0.016407428,0.010971593,51.582127,0,0,0,0,10
566650526,566650329,2490386,-0.0010125574,0.056356814,0.012630322,51.636475,0,0,0,0,10
566654203,566654036,2490386,0.009113017,0.041954517,0.019058729,51.61836,0,0,0,0,10
566657918,566657743,2490386,0.008746631,-0.031835604,0.0068680705,51.57005,0,0,0,0,10
566661628,566661459,2490386,-0.005748928,-0.035759266,0.0054891272,51.576088,0,0,0,0,10
566664093,566663921,2490386,-0.027225804,0.018625727,0.013010031,51.624397,0,0,0,0,10
566669073,566668864,2490386,-0.041261714,-0.013882696,0.024241425,51.57005,0,0,0,0,10
566671525,566671340,2490386,0.006981317,-0.01031876,0.00349732,51.485508,0,0,0,0,10
566675342,566675041,2490386,-0.02981049,0.0076607964,0.029797167,51.684784,0,0,0,0,10
566677857,566677512,2490386,-0.021530168,-0.0060220524,0.014522205,51.557972,0,0,0,0,10
566681558,566681219,2490386,0.0058488515,-0.030483307,-0.013329786,51.61232,0,0,0,0,10
566685297,566684927,2490386,0.018119449,0.0048429556,0.02456784,51.582127,0,0,0,0,10
566688908,566688637,2490386,-0.023895023,0.033887368,0.039090045,51.678745,0,0,0,0,10
566692661,566692339,2490386,-0.037344716,0.03803086,0.03155582,51.666668,0,0,0,0,10
566696415,566696046,2490386,-0.0072544413,-0.006801455,-0.0030776416,51.57005,0,0,0,0,10
566698694,566698518,2490386,-0.021463552,0.003390735,0.025680322,51.52174,0,0,0,0,10
566702391,566702224,2490386,-0.03587251,0.02345536,0.025207352,51.672707,0,0,0,0,10
566706109,566705931,2490386,-0.009399464,0.004030245,0.008200383,51.600243,0,0,0,0,10
566709827,566709638,2490386,-0.015741272,-0.047443647,0.0016720521,51.690823,0,0,0,0,10
566713526,566713345,2490386,-0.0050161565,-0.040409036,0.0056023737,51.61836,0,0,0,0,10
566717240,566717052,2490386,-0.021143798,-0.009992343,0.020024655,51.60628,0,0,0,0,10
566719698,566719525,2490386,-0.008666692,-0.0022715926,0.008260337,51.684784,0,0,0,0,10
566723413,566723230,2490386,-0.0022582696,-0.017280092,0.010105589,51.57005,0,0,0,0,10
566730826,566730643,2490386,-0.035979096,-0.01031876,0.019445099,51.678745,0,0,0,0,10
566732048,566731879,2490386,-0.010098929,-0.00997902,0.019305207,51.630436,0,0,0,0,10
566734538,566734350,2490386,-0.028011868,-0.015921133,0.013243185,51.66063,0,0,0,0,10
566738227,566738057,2490386,-0.018958805,-0.009206279,0.021163782,51.642513,0,0,0,0,10
566740721,566740528,2490386,-0.021716692,0.012983385,0.01747994,51.594204,0,0,0,0,10
566745642,566745470,2490386,-0.0007394334,0.021949846,0.024907582,51.648552,0,0,0,0,10
566748117,566747942,2490386,-0.019558346,-0.018272664,0.015974427,51.588165,0,0,0,0,10
566751835,566751649,2490386,-0.011890888,-0.03901677,0.0052293264,51.636475,0,0,0,0,10
566755520,566755355,2490386,-0.0021383613,-0.026806125,0.022276264,51.545895,0,0,0,0,10
566758001,566757827,2490386,-0.031202758,0.030123584,0.020750767,51.467392,0,0,0,0,10
566762948,566762769,2490386,-0.032475114,0.021263706,0.023688516,51.7029,0,0,0,0,10
566765442,566765249,2490386,0.003877029,-0.035945788,-0.0036105667,51.52778,0,0,0,0,10
566770523,566770183,2490386,0.007873966,-0.059547704,-0.009286217,51.630436,0,0,0,0,10
566772969,566772654,2490386,-0.035959113,0.030996248,0.039070062,51.672707,0,0,0,0,10
566776797,566776360,2490386,-0.026040046,0.052006815,0.031495865,51.690823,0,0,0,0,10
566780325,566780068,2490386,-0.014262404,0.01560804,0.0044565853,51.594204,0,0,0,0,10
566782871,566782539,2490386,-0.0014322358,-0.025826877,0.01680712,51.727055,0,0,0,0,10
566786621,566786245,2490386,-0.04652435,0.0017786371,0.02217634,51.509663,0,0,0,0,10
566790418,566789952,2490386,-0.040908653,0.006281853,0.02686608,51.65459,0,0,0,0,10
566793825,566793659,2490386,-0.026033385,-0.007880628,0.018046172,51.642513,0,0,0,0,10
566797537,566797366,2490386,-0.025660338,-0.016007734,0.023908347,51.47343,0,0,0,0,10
566801254,566801072,2490386,-0.04239418,0.01223729,0.023595253,51.624397,0,0,0,0,10
566803750,566803544,2490386,-0.014295712,-0.029017765,0.004609801,51.60628,0,0,0,0,10
566809920,566809723,2490386,-0.036765162,0.013609571,0.02047098,51.576088,0,0,0,0,10
566811137,566810957,2490386,-0.028291654,0.014069219,0.038443875,51.600243,0,0,0,0,10
566814847,566814665,2490386,-0.04958867,0.044799004,0.027552221,51.642513,0,0,0,0,10
566819806,566819613,2490386,-0.071318686,0.047357045,0.03621225,51.690823,0,0,0,0,10
566822246,566822078,2490386,0.02320222,-0.051753677,-0.0139160035,51.642513,0,0,0,0,10
566824718,566824549,2490386,-0.06353798,0.027285758,0.027385682,51.624397,0,0,0,0,10
566829664,566829492,2490386,-0.0067015314,0.01454219,0.025533767,51.61836,0,0,0,0,10
566832155,566831969,2490386,-0.016900383,-0.00042633998,-0.0061819297,51.636475,0,0,0,0,10
566835846,566835669,2490386,0.017326724,-0.0302768,0.002571363,51.503624,0,0,0,0,10
566839552,566839376,2490386,0.0038237367,-0.014975192,0.016440736,51.690823,0,0,0,0,10
566843299,566843083,2490386,-0.035239663,-0.0035239663,0.02418147,51.545895,0,0,0,0,10
566846960,566846790,2490386,-0.031316005,-0.002737902,0.014195789,51.539856,0,0,0,0,10
566850669,566850496,2490386,-0.036405437,-0.0064617153,0.024407964,51.636475,0,0,0,0,10
566853238,566852968,2490386,0.0034906585,-0.008200383,0.011024885,51.43116,0,0,0,0,10
566856898,566856675,2490386,-0.007827335,-0.021823278,0.006861409,51.582127,0,0,0,0,10
566860639,566860381,2490386,-0.013529632,-0.034173813,0.028151762,51.61836,0,0,0,0,10
566864384,566864089,2490386,-0.0060886675,-0.02033775,0.024034915,51.648552,0,0,0,0,10
566866898,566866559,2490386,-0.04438599,0.028624732,0.008586753,51.52174,0,0,0,0,10
566870718,566870267,2490386,-0.018605743,0.008553445,0.012330552,51.636475,0,0,0,0,10
566874249,566873973,2490386,-0.012590352,-0.022862481,0.010418683,51.509663,0,0,0,0,10
566879361,566878915,2490386,-0.000699464,-0.012990046,-0.003770444,51.455315,0,0,0,0,10
566881842,566881388,2490386,-0.042867154,-0.0040968605,0.02115046,51.66063,0,0,0,0,10
566885297,566885093,2490386,-0.060287137,0.026686218,0.016427413,51.57005,0,0,0,0,10
566890216,566890036,2490386,-0.01987144,0.031875573,0.03190222,51.60628,0,0,0,0,10
566891437,566891271,2490386,0.015221669,-0.03527297,0.010951608,51.509663,0,0,0,0,10
566895169,566894978,2490386,-0.040588897,-0.0172268,0.01885222,51.57005,0,0,0,0,10
566898860,566898685,2490386,-0.03484663,0.009885758,0.038490504,51.642513,0,0,0,0,10
566902581,566902392,2490386,-0.012703599,0.020837367,0.015634686,51.763287,0,0,0,0,10
566906269,566906099,2490386,0.011990812,0.0072477795,0.008526799,51.75121,0,0,0,0,10
566908748,566908570,2490386,-0.03522634,-0.019844793,0.029097704,51.485508,0,0,0,0,10
566912467,566912277,2490386,-0.029697243,-0.02703928,0.015248315,51.52778,0,0,0,0,10
566916169,566915983,2490386,-0.011317994,-0.013929326,0.007694104,51.47947,0,0,0,0,10
566919871,566919690,2490386,-0.011764319,0.004516539,0.026552986,51.47343,0,0,0,0,10
566923582,566923397,2490386,-0.032355208,0.041641425,0.028071823,51.533817,0,0,0,0,10
566928524,566928340,2490386,-0.023988286,0.040921975,0.027059264,51.588165,0,0,0,0,10
566929770,566929575,2490386,-0.0042767227,-0.06393101,0.022083078,51.545895,0,0,0,0,10
566933460,566933282,2490386,-0.008000536,0.007734074,0.0301902,51.557972,0,0,0,0,10
566938397,566938224,2490386,-0.009359495,-0.02554709,0.02524732,51.684784,0,0,0,0,10
566940864,566940695,2490386,-0.04268729,0.037178177,0.011651072,51.65459,0,0,0,0,10
566944585,566944406,2490386,-0.00788729,-0.019851455,-0.009965697,51.61232,0,0,0,0,10
566949662,566949344,2490386,-0.031582467,0.011078178,-0.0016653906,51.533817,0,0,0,0,10
566950840,566950580,2490386,-0.041188437,0.010305436,0.015827872,51.539856,0,0,0,0,10
566954561,566954287,2490386,-0.014442267,0.011970827,-0.0034906585,51.624397,0,0,0,0,10
566958324,566957994,2490386,0.0074343034,0.009499388,0.0038370597,51.600243,0,0,0,0,10
566962070,566961705,2490386,0.0031575805,0.0065349923,0.013955972,51.503624,0,0,0,0,10
566965685,566965407,2490386,-0.020111255,-0.012117381,0.01688706,51.642513,0,0,0,0,10
566970714,566970350,2490386,0.004569832,0.0015588056,0.0098191425,51.61836,0,0,0,0,10
566971958,566971585,2490386,-0.014075881,-0.0107451,0.027612176,51.42512,0,0,0,0,10
566975786,566975294,2490386,-0.00095260335,0.030390047,0.028751303,51.582127,0,0,0,0,10
566979169,566978999,2490386,-0.041767996,0.01138461,0.015601379,51.52778,0,0,0,0,10
566982889,566982707,2490386,-0.06026049,-0.048389588,0.025520444,51.5157,0,0,0,0,10
566986602,566986413,2490386,-0.027645484,-0.07231792,0.013249847,51.57005,0,0,0,0,10
566989099,566988884,2490386,-0.05893484,0.05116746,0.022975728,51.672707,0,0,0,0,10
566992797,566992591,2490386,-0.025780246,0.012590352,0.02417481,51.57005,0,0,0,0,10
566997709,566997533,2490386,0.00025980093,0.09574663,0.026166616,51.56401,0,0,0,0,10
567000172,567000004,2490386,-0.048163094,-0.041641425,0.010038974,51.42512,0,0,0,0,10
567003881,567003713,2490386,-0.059647627,0.019032083,0.03253507,51.739132,0,0,0,0,10
567007593,567007418,2490386,0.0031842266,-0.014562175,-0.030017,51.648552,0,0,0,0,10
567010055,567009889,2490386,-0.090890355,0.13846056,0.016986983,51.52778,0,0,0,0,10
567013787,567013596,2490386,-0.064797014,0.0977451,0.059394486,51.509663,0,0,0,0,10
567018717,567018538,2490386,0.0019451762,0.12697603,0.017939586,51.66063,0,0,0,0,10
567021178,567021009,2490386,-0.022183001,0.047943264,0.02264265,51.636475,0,0,0,0,10
567024882,567024716,2490386,0.07428974,0.09211608,-0.008473507,51.648552,0,0,0,0,10
567028618,567028423,2490386,-0.011584456,0.042614013,0.034593493,51.545895,0,0,0,0,10
567031077,567030895,2490386,0.07744066,0.033167917,0.083569296,51.413044,0,0,0,0,10
567034771,567034601,2490386,0.06196585,-0.0047696787,0.01317657,51.400967,0,0,0,0,10
567039712,567039544,2490386,0.01872565,0.027025957,0.06523668,51.678745,0,0,0,0,10
567042225,567042015,2490386,-0.003956968,0.15585391,0.015588055,51.52174,0,0,0,0,10
567046047,567045721,2490386,0.013156585,0.07031279,0.0058954824,51.43116,0,0,0,0,10
567049731,567049430,2490386,-0.02789196,-0.030043645,0.04623124,51.5157,0,0,0,0,10
567052243,567051909,2490386,0.03539288,0.08306302,-0.01710023,51.539856,0,0,0,0,10
567055871,567055606,2490386,-0.06724181,0.14093201,0.013249847,51.672707,0,0,0,0,10
567059612,567059313,2490386,0.008799924,0.07527565,0.024248086,51.52778,0,0,0,0,10
567063378,567063020,2490386,0.004569832,0.11740337,0.015401532,51.630436,0,0,0,0,10
567067162,567066727,2490386,-0.18886195,0.07395666,0.025207352,51.60628,0,0,0,0,10
567070601,567070433,2490386,0.0050161565,0.031189434,0.0027445636,51.594204,0,0,0,0,10
567073092,567072906,2490386,0.04938216,0.035319604,-0.011324655,51.533817,0,0,0,0,10
567076819,567076612,2490386,-0.0977451,-0.026173277,-0.024341349,51.61232,0,0,0,0,10
567080510,567080318,2490386,0.010471975,0.07195819,0.028065162,51.461353,0,0,0,0,10
567084193,567084025,2490386,-0.053932007,0.05923461,0.0005262634,51.600243,0,0,0,0,10
567087909,567087732,2490386,-0.083655894,0.13801424,-0.0008260337,51.57005,0,0,0,0,10
567091622,567091439,2490386,-0.002844487,0.06848086,0.025107428,51.57005,0,0,0,0,10
567094078,567093910,2490386,-0.018685682,0.04653101,-0.0010658499,51.594204,0,0,0,0,10
567100256,567100088,2490386,-0.038490504,0.008093798,0.0154148545,51.509663,0,0,0,0,10
567102739,567102559,2490386,0.040788744,0.10132902,0.0008326953,51.52174,0,0,0,0,10
567106438,567106266,2490386,-0.036738515,0.16572635,0.06072014,51.461353,0,0,0,0,10
567110151,567109973,2490386,-0.008973124,0.00827366,0.0069746557,51.509663,0,0,0,0,10
567112611,567112444,2490386,-0.009519372,0.078859575,-0.018032849,51.57005,0,0,0,0,10
567115090,567114915,2490386,0.07759388,0.033241194,0.017006967,51.47947,0,0,0,0,10
567120042,567119858,2490386,0.022789204,0.12286585,-0.023095636,51.449276,0,0,0,0,10
567122499,567122329,2490386,-0.12087405,0.06547649,0.031635758,51.557972,0,0,0,0,10
567126208,567126040,2490386,0.089578025,0.11064188,0.05267297,51.636475,0,0,0,0,10
567129919,567129742,2490386,0.033114627,0.0099323895,0.008993109,51.509663,0,0,0,0,10
567133647,567133455,2490386,-0.09105689,-0.067401685,0.0416281,51.551933,0,0,0,0,10
567136153,567135920,2490386,0.045365237,0.05886156,-0.0027512251,51.61232,0,0,0,0,10
567139933,567139627,2490386,-0.026239892,0.30397373,-0.0050228178,51.582127,0,0,0,0,10
567143741,567143341,2490386,0.07698768,0.14722718,0.057222817,51.52778,0,0,0,0,10
567147480,567147041,2490386,0.017280092,0.026646249,-0.039596327,51.47343,0,0,0,0,10
567151124,567150747,2490386,0.15588056,-0.04264066,0.044739053,51.61232,0,0,0,0,10
567154863,567154454,2490386,-0.13854717,0.0906039,-0.005975421,51.485508,0,0,0,0,10
567157299,567156925,2490386,0.0346268,0.26622933,-0.03728476,51.52174,0,0,0,0,10
567160830,567160649,2490386,0.08560108,0.21465552,0.011337979,51.557972,0,0,0,0,10
567164506,567164339,2490386,-0.21976493,0.024048239,0.0026846095,51.509663,0,0,0,0,10
567169468,567169282,2490386,0.13469678,0.032428484,0.017892957,51.413044,0,0,0,0,10
567171967,567171753,2490386,-0.40670168,0.3773442,0.003164242,51.419083,0,0,0,0,10
567175624,567175459,2490386,0.08336279,0.27776715,-0.017093569,51.43116,0,0,0,0,10
567179354,567179166,2490386,-0.07362358,0.08516807,0.13212542,51.43116,0,0,0,0,10
567181810,567181637,2490386,0.074383005,-0.3313794,-0.06288514,51.42512,0,0,0,0,10
567185511,567185344,2490386,0.16793132,-0.06981983,0.04230092,51.491547,0,0,0,0,10
567189236,567189051,2490386,-0.3898213,0.10791731,-0.028138438,51.497585,0,0,0,0,10
567192940,567192758,2490386,0.32963407,0.23747803,-0.054524887,51.52174,0,0,0,0,10
567196637,567196466,2490386,0.24284059,0.097478636,0.026592957,51.42512,0,0,0,0,10
567200339,567200171,2490386,-0.24836968,0.06022718,-0.07266432,51.52174,0,0,0,0,10
567204050,567203878,2490386,0.067901306,0.35454166,0.08502152,51.4372,0,0,0,0,10
567206516,567206349,2490386,-0.15178369,0.07757389,-0.109509416,51.47947,0,0,0,0,10
567210233,567210056,2490386,0.07739403,0.14009266,-0.0062618684,51.497585,0,0,0,0,10
567215178,567214998,2490386,-0.26391777,0.43870384,0.07298408,51.539856,0,0,0,0,10
567217655,567217470,2490386,0.065636374,0.037651148,-0.048902526,51.407005,0,0,0,0,10
567220113,567219941,2490386,0.04729043,-0.053199235,0.003983614,51.52174,0,0,0,0,10
567223826,567223648,2490386,0.20389709,-0.034313705,-0.003483997,51.52174,0,0,0,0,10
567227601,567227355,2490386,-0.2254206,0.04559173,0.07101225,51.588165,0,0,0,0,10
567231417,567231061,2490386,0.007540888,0.3278488,-0.0011924197,51.42512,0,0,0,0,10
567235086,567234768,2490386,0.08573431,0.22025123,-0.04144158,51.588165,0,0,0,0,10
567240085,567239711,2490386,-0.21579464,-0.14344342,0.037817687,51.600243,0,0,0,0,10
567241218,567240946,2490386,-0.122739285,0.1912268,0.1063585,51.467392,0,0,0,0,10
567245050,567244653,2490386,-0.2555442,0.37651816,-0.0030976264,51.47947,0,0,0,0,10
567250021,567249600,2490386,0.13129273,0.13980621,0.004589816,51.467392,0,0,0,0,10
567252480,567252074,2490386,-0.1827866,-0.020371057,0.071878254,51.600243,0,0,0,0,10
567255939,567255773,2490386,0.28864548,-0.2251075,0.08656034,51.4372,0,0,0,0,10
567260900,567260715,2490386,0.27948585,0.2250742,-0.07245115,51.449276,0,0,0,0,10
567262140,567261952,2490386,0.40027994,0.2501683,0.10851685,51.38889,0,0,0,0,10
567265831,567265658,2490386,0.016647244,0.23718491,0.05181363,51.443237,0,0,0,0,10
567269536,567269365,2490386,-0.13627557,0.18555115,0.12667626,51.419083,0,0,0,0,10
567273247,567273072,2490386,-0.09162979,0.06234556,-0.022775881,51.443237,0,0,0,0,10
567276964,567276778,2490386,-0.28076485,0.169217,0.036785144,51.42512,0,0,0,0,10
567280652,567280485,2490386,0.43366104,0.23968966,0.055337597,51.455315,0,0,0,0,10
567284364,567284192,2490386,-0.27840668,0.42278937,0.03847052,51.443237,0,0,0,0,10
567286834,567286663,2490386,0.39209956,0.19655605,0.010984916,51.413044,0,0,0,0,10
567290554,567290370,2490386,-0.7979219,0.21610774,0.074236445,51.38889,0,0,0,0,10
567294248,567294077,2490386,1.0450859,0.061506204,0.003057657,51.4372,0,0,0,0,10
567297957,567297784,2490386,0.080838054,0.333198,0.023768453,51.370773,0,0,0,0,10
567301665,567301490,2490386,-0.57837015,0.38258684,0.22414158,51.34662,0,0,0,0,10
567305362,567305197,2490386,0.7531562,0.22033116,-0.07133867,51.34058,0,0,0,0,10
567307838,567307668,2490386,-0.49645957,0.21122481,0.1530494,51.135265,0,0,0,0,10
567311555,567311376,2490386,0.41319004,0.23926999,0.14087872,51.29831,0,0,0,0,10
567315309,567315083,2490386,-0.57107574,0.29812488,-0.14492229,51.394928,0,0,0,0,10
