timestamp,timestamp_sample,ref_timestamp,ref_lat,ref_lon,x,y,z,delta_xy[0],delta_xy[1],delta_z,vx,vy,vz,z_deriv,delta_vxy[0],delta_vxy[1],delta_vz,ax,ay,az,heading,delta_heading,ref_alt,dist_bottom,eph,epv,evh,evv,vxy_max,vz_max,hagl_min,hagl_max,xy_valid,z_valid,v_xy_valid,v_z_valid,xy_reset_counter,z_reset_counter,vxy_reset_counter,vz_reset_counter,heading_reset_counter,heading_good_for_control,xy_global,z_global,dist_bottom_valid,dist_bottom_sensor_bitfield,dead_reckoning
564939745,564939022,68467874,59.396201899999994,24.6605964,2.334829,-1.2806171,-2.560867,-0.021752972,-0.012412676,-0.03908609,-0.02986131,0.020409537,-0.04972894,-0.030435989,-0.0076688584,-0.002126247,-0.016722856,0.0030794528,0.012666201,-0.02461122,-0.16209489,-0.0043945326,28.056198,0.1,0.18697831,0.18481264,0.1109973,0.082552195,inf,inf,inf,inf,1,1,1,1,2,2,2,2,2,0,1,1,0,0,0
564949695,564948907,68467874,59.396201899999994,24.6605964,2.3345697,-1.2804551,-2.561383,-0.021752972,-0.012412676,-0.03908609,-0.029860971,0.02029393,-0.050320126,-0.0312477,-0.0076688584,-0.002126247,-0.016722856,-0.0019477244,-0.021565272,-0.07525391,-0.1620942,-0.0043945326,28.056198,0.1,0.18771441,0.18538594,0.111427665,0.08275945,inf,inf,inf,inf,1,1,1,1,2,2,2,2,2,0,1,1,0,0,0
564959589,564958792,68467874,59.396201899999994,24.6605964,2.33431,-1.280294,-2.5619066,-0.021752972,-0.012412676,-0.03908609,-0.029720364,0.020254318,-0.050899614,-0.032046273,-0.0076688584,-0.002126247,-0.016722856,0.027438005,0.006855619,-0.04786079,-0.16210161,-0.0043945326,28.056198,0.1,0.18845554,0.18596177,0.11185898,0.082966775,inf,inf,inf,inf,1,1,1,1,2,2,2,2,2,0,1,1,0,0,0
564969671,564968678,68467874,59.396201899999994,24.6605964,2.3340514,-1.2801332,-2.562435,-0.021752972,-0.012412676,-0.03908609,-0.0301157,0.019850938,-0.051169034,-0.03253331,-0.0076688584,-0.002126247,-0.016722856,-0.117495336,-0.12902474,-0.011956921,-0.16220391,-0.0043945326,28.056198,0.1,0.18920168,0.18654013,0.1122922,0.083174184,inf,inf,inf,inf,1,1,1,1,2,2,2,2,2,0,1,1,0,0,0
564980270,564978562,68467874,59.396201899999994,24.6605964,2.3338132,-1.2799405,-2.562736,-0.021752972,-0.012412676,-0.03908609,-0.029493874,0.020127272,-0.05114228,-0.03248484,-0.0076688584,-0.002126247,-0.016722856,0.12508754,-0.026474193,-0.069101654,-0.16209298,-0.0043945326,28.056198,0.1,0.18085152,0.1804487,0.1073638,0.080884226,inf,inf,inf,inf,1,1,1,1,2,2,2,2,2,0,1,1,0,0,0
564989048,564988446,68467874,59.396201899999994,24.6605964,2.3335795,-1.2797468,-2.5630445,-0.021752972,-0.012412676,-0.03908609,-0.029004352,0.019453038,-0.05054642,-0.03187601,-0.0076688584,-0.002126247,-0.016722856,0.14026421,-0.2814229,0.06534828,-0.16173856,-0.0043945326,28.056198,0.1,0.18154521,0.18100186,0.107789725,0.08109084,inf,inf,inf,inf,1,1,1,1,2,2,2,2,2,0,1,1,0,0,0
564999082,564998331,68467874,59.396201899999994,24.6605964,2.3333457,-1.2795545,-2.5634882,-0.021752972,-0.012412676,-0.03908609,-0.030612031,0.02078339,-0.053077575,-0.034527384,-0.0076688584,-0.002126247,-0.016722856,-0.36371452,0.082070224,-0.30712572,-0.16171472,-0.0043945326,28.056198,0.1,0.18224382,0.18131377,0.10821607,0.08124506,inf,inf,inf,inf,1,1,1,1,2,2,2,2,2,0,1,1,0,0,0
565008875,565008216,68467874,59.396201899999994,24.6605964,2.333104,-1.2793647,-2.563945,-0.021752972,-0.012412676,-0.03908609,-0.029576702,0.019950425,-0.053298727,-0.034871392,-0.0076688584,-0.002126247,-0.016722856,0.057982426,0.008057674,-0.16107127,-0.16217427,-0.0043945326,28.056198,0.1,0.18294738,0.18187122,0.10864441,0.08145182,inf,inf,inf,inf,1,1,1,1,2,2,2,2,2,0,1,1,0,0,0
565018930,565018101,68467874,59.396201899999994,24.6605964,2.3328695,-1.2791787,-2.5644097,-0.021752972,-0.012412676,-0.03908609,-0.029467197,0.0196683,-0.05219917,-0.03389713,-0.0076688584,-0.002126247,-0.016722856,-0.065472946,-0.051236372,0.23591168,-0.16252607,-0.0043945326,28.056198,0.1,0.18365592,0.1824312,0.10907287,0.081658676,inf,inf,inf,inf,1,1,1,1,2,2,2,2,2,0,1,1,0,0,0
565029090,565027986,68467874,59.396201899999994,24.6605964,2.33263,-1.278984,-2.5648732,-0.021752972,-0.012412676,-0.03908609,-0.028468043,0.019855494,-0.05338903,-0.035214588,-0.0076688584,-0.002126247,-0.016722856,0.48805338,-0.35950005,-0.39340237,-0.16240081,-0.0043945326,28.056198,0.1,0.1843694,0.1829937,0.10950096,0.081865616,inf,inf,inf,inf,1,1,1,1,2,2,2,2,2,0,1,1,0,0,0
565038996,565037871,68467874,59.396201899999994,24.6605964,2.3323977,-1.2787966,-2.5653474,-0.021752972,-0.012412676,-0.03908609,-0.030240467,0.020665055,-0.05336037,-0.035315692,-0.0076688584,-0.002126247,-0.016722856,-0.3863606,0.17151779,0.060942855,-0.16199908,-0.0043945326,28.056198,0.1,0.18508787,0.18355872,0.10992945,0.08207263,inf,inf,inf,inf,1,1,1,1,2,2,2,2,2,0,1,1,0,0,0
565048878,565047755,68467874,59.396201899999994,24.6605964,2.3321576,-1.2786119,-2.5658243,-0.021752972,-0.012412676,-0.03908609,-0.029373754,0.019694714,-0.05295723,-0.035044346,-0.0076688584,-0.002126247,-0.016722856,0.010797688,0.038848244,0.15852025,-0.16185084,-0.0043945326,28.056198,0.1,0.18581134,0.18412626,0.11036003,0.08227971,inf,inf,inf,inf,1,1,1,1,2,2,2,2,2,0,1,1,0,0,0
565058841,565057640,68467874,59.396201899999994,24.6605964,2.3319159,-1.2784288,-2.5664248,-0.021752972,-0.012412676,-0.03908609,-0.03011879,0.020608984,-0.055389866,-0.037725434,-0.0076688584,-0.002126247,-0.016722856,-0.050426845,0.23848115,-0.23248649,-0.16206782,-0.0043945326,28.056198,0.1,0.18653983,0.18443969,0.11079099,0.082430564,inf,inf,inf,inf,1,1,1,1,2,2,2,2,2,0,1,1,0,0,0
565068626,565067525,68467874,59.396201899999994,24.6605964,2.3316743,-1.2782413,-2.5670304,-0.021752972,-0.012412676,-0.03908609,-0.029678902,0.01919965,-0.054297335,-0.03687815,-0.0076688584,-0.002126247,-0.016722856,-0.0359206,-0.2941252,0.07580332,-0.16234139,-0.0043945326,28.056198,0.1,0.18727332,0.18501148,0.111221656,0.08263777,inf,inf,inf,inf,1,1,1,1,2,2,2,2,2,0,1,1,0,0,0
565078035,565077410,68467874,59.396201899999994,24.6605964,2.331437,-1.2780578,-2.567641,-0.021752972,-0.012412676,-0.03908609,-0.028743993,0.019604435,-0.055734247,-0.038557123,-0.0076688584,-0.002126247,-0.016722856,0.08330309,-0.14467515,-0.04733308,-0.1623697,-0.0043945326,28.056198,0.1,0.18801184,0.1855858,0.11165305,0.08284516,inf,inf,inf,inf,1,1,1,1,2,2,2,2,2,0,1,1,0,0,0
565087877,565087295,68467874,59.396201899999994,24.6605964,2.3311982,-1.2778748,-2.5682466,-0.021752972,-0.012412676,-0.03908609,-0.029646765,0.019591581,-0.053704724,-0.03676655,-0.0076688584,-0.002126247,-0.016722856,-0.068405464,-0.07857945,0.27740613,-0.16214281,-0.0043945326,28.056198,0.1,0.1887554,0.18616265,0.11208249,0.08305264,inf,inf,inf,inf,1,1,1,1,2,2,2,2,2,0,1,1,0,0,0
565098820,565097179,68467874,59.396201899999994,24.6605964,2.3309178,-1.2776437,-2.5686238,-0.021752972,-0.012412676,-0.03908609,-0.028256908,0.02056678,-0.05630249,-0.039365225,-0.0076688584,-0.002126247,-0.016722856,0.118971534,0.41378343,-0.38741237,-0.16196266,-0.0043945326,28.056198,0.1,0.18046926,0.18010959,0.10719335,0.08077646,inf,inf,inf,inf,1,1,1,1,2,2,2,2,2,0,1,1,0,0,0
565107651,565107075,68467874,59.396201899999994,24.6605964,2.3306434,-1.2774096,-2.5690258,-0.021752972,-0.012412676,-0.03908609,-0.02880987,0.01984645,-0.056230064,-0.039300773,-0.0076688584,-0.002126247,-0.016722856,-0.07031176,0.05333552,0.046581656,-0.16202974,-0.0043945326,28.056198,0.1,0.18116075,0.1806614,0.10761822,0.08098309,inf,inf,inf,inf,1,1,1,1,2,2,2,2,2,0,1,1,0,0,0
565117833,565116952,68467874,59.396201899999994,24.6605964,2.330364,-1.2771811,-2.5694315,-0.021752972,-0.012412676,-0.03908609,-0.029750599,0.019488407,-0.056517858,-0.039603308,-0.0076688584,-0.002126247,-0.016722856,-0.15112981,-0.00658092,-0.08365138,-0.16227424,-0.0043945326,28.056198,0.1,0.18185718,0.18121573,0.10804337,0.08118986,inf,inf,inf,inf,1,1,1,1,2,2,2,2,2,0,1,1,0,0,0
565127747,565126836,68467874,59.396201899999994,24.6605964,2.3300834,-1.2769543,-2.5699403,-0.021752972,-0.012412676,-0.03908609,-0.0288905,0.01891509,-0.056836966,-0.040035594,-0.0076688584,-0.002126247,-0.016722856,0.060687535,-0.21411158,0.095009275,-0.16236883,-0.0043945326,28.056198,0.1,0.18255855,0.18152793,0.10847342,0.081344016,inf,inf,inf,inf,1,1,1,1,2,2,2,2,2,0,1,1,0,0,0
565137520,565136719,68467874,59.396201899999994,24.6605964,2.3298032,-1.2767308,-2.5704453,-0.021752972,-0.012412676,-0.03908609,-0.02904108,0.019076342,-0.055838194,-0.039152212,-0.0076688584,-0.002126247,-0.016722856,0.087520994,-0.12456356,0.094482735,-0.16223253,-0.0043945326,28.056198,0.1,0.18326488,0.18208656,0.10889855,0.08155072,inf,inf,inf,inf,1,1,1,1,2,2,2,2,2,0,1,1,0,0,0
565147422,565146603,68467874,59.396201899999994,24.6605964,2.329526,-1.2765065,-2.5709465,-0.021752972,-0.012412676,-0.03908609,-0.029408624,0.01981618,-0.055997666,-0.039429147,-0.0076688584,-0.002126247,-0.016722856,-0.14435056,0.043495316,-0.13918462,-0.16208139,-0.0043945326,28.056198,0.1,0.18397619,0.1826477,0.10932539,0.08175769,inf,inf,inf,inf,1,1,1,1,2,2,2,2,2,0,1,1,0,0,0
565157461,565156488,68467874,59.396201899999994,24.6605964,2.3292465,-1.2762848,-2.5714638,-0.021752972,-0.012412676,-0.03908609,-0.029106649,0.019870628,-0.057941407,-0.041492295,-0.0076688584,-0.002126247,-0.016722856,0.049150806,0.13804214,-0.21184437,-0.16210543,-0.0043945326,28.056198,0.1,0.18469244,0.18321137,0.10976024,0.08196454,inf,inf,inf,inf,1,1,1,1,2,2,2,2,2,0,1,1,0,0,0
565167008,565166373,68467874,59.396201899999994,24.6605964,2.3289673,-1.276064,-2.5719972,-0.021752972,-0.012412676,-0.03908609,-0.029866338,0.020048603,-0.05819387,-0.04186598,-0.0076688584,-0.002126247,-0.016722856,-0.13053769,0.14129862,0.032770462,-0.16225539,-0.0043945326,28.056198,0.1,0.18541373,0.18377754,0.11018526,0.0821717,inf,inf,inf,inf,1,1,1,1,2,2,2,2,2,0,1,1,0,0,0
565176995,565176258,68467874,59.396201899999994,24.6605964,2.3286903,-1.2758471,-2.5725312,-0.021752972,-0.012412676,-0.03908609,-0.028433932,0.018806344,-0.058097277,-0.0418923,-0.0076688584,-0.002126247,-0.016722856,0.13475333,-0.12588376,0.00048737662,-0.16233031,-0.0043945326,28.056198,0.1,0.18614,0.18434626,0.110620156,0.08237897,inf,inf,inf,inf,1,1,1,1,2,2,2,2,2,0,1,1,0,0,0
565186884,565186143,68467874,59.396201899999994,24.6605964,2.3284144,-1.2756354,-2.5731933,-0.021752972,-0.012412676,-0.03908609,-0.02938792,0.018766068,-0.05845739,-0.04250682,-0.0076688584,-0.002126247,-0.016722856,-0.061405677,-0.0888536,-0.07602694,-0.16226587,-0.0043945326,28.056198,0.1,0.1868713,0.18465994,0.111042805,0.08252954,inf,inf,inf,inf,1,1,1,1,2,2,2,2,2,0,1,1,0,0,0
565196615,565196028,68467874,59.396201899999994,24.6605964,2.3281372,-1.2754227,-2.573862,-0.021752972,-0.012412676,-0.03908609,-0.029038742,0.019108353,-0.05890117,-0.043200836,-0.0076688584,-0.002126247,-0.016722856,0.02494108,-0.067390986,0.045888707,-0.16218655,-0.0043945326,28.056198,0.1,0.1876076,0.18523291,0.11148183,0.082736894,inf,inf,inf,inf,1,1,1,1,2,2,2,2,2,0,1,1,0,0,0
565206617,565205926,68467874,59.396201899999994,24.6605964,2.3278584,-1.2752115,-2.5745332,-0.021752972,-0.012412676,-0.03908609,-0.0298742,0.019320106,-0.059204713,-0.043750655,-0.0076688584,-0.002126247,-0.016722856,-0.12775439,0.049508933,-0.012469367,-0.16218908,-0.0043945326,28.056198,0.1,0.18834895,0.18580839,0.11191308,0.08294422,inf,inf,inf,inf,1,1,1,1,2,2,2,2,2,0,1,1,0,0,0
565216463,565215797,68467874,59.396201899999994,24.6605964,2.3275836,-1.2749993,-2.5752044,-0.021752972,-0.012412676,-0.03908609,-0.028508592,0.019666117,-0.059849568,-0.04463772,-0.0076688584,-0.002126247,-0.016722856,0.077218294,0.060897503,-0.07403878,-0.16226575,-0.0043945326,28.056198,0.1,0.18909536,0.1863864,0.1123452,0.08315159,inf,inf,inf,inf,1,1,1,1,2,2,2,2,2,0,1,1,0,0,0
565226481,565225688,68467874,59.396201899999994,24.6605964,2.32731,-1.2747872,-2.5758777,-0.021752972,-0.012412676,-0.03908609,-0.028937262,0.019442197,-0.05983876,-0.044865217,-0.0076688584,-0.002126247,-0.016722856,-0.012073745,0.00015056285,0.015878707,-0.16229485,-0.0043945326,28.056198,0.1,0.18984681,0.18696696,0.11277827,0.08335923,inf,inf,inf,inf,1,1,1,1,2,2,2,2,2,0,1,1,0,0,0
565236329,565235567,68467874,59.396201899999994,24.6605964,2.327032,-1.2745765,-2.5765538,-0.021752972,-0.012412676,-0.03908609,-0.029646972,0.019942282,-0.06096052,-0.04622144,-0.0076688584,-0.002126247,-0.016722856,-0.07187301,0.13062151,-0.13350855,-0.1622531,-0.0043945326,28.056198,0.1,0.19060333,0.18755002,0.113208495,0.083566844,inf,inf,inf,inf,1,1,1,1,2,2,2,2,2,0,1,1,0,0,0
565246239,565245457,68467874,59.396201899999994,24.6605964,2.326755,-1.2743692,-2.5772412,-0.021752972,-0.012412676,-0.03908609,-0.028650645,0.01946402,-0.061913706,-0.047405332,-0.0076688584,-0.002126247,-0.016722856,0.13463484,0.1031477,-0.08556017,-0.1622061,-0.0043945326,28.056198,0.1,0.19136488,0.18813562,0.11364206,0.083774455,inf,inf,inf,inf,1,1,1,1,2,2,2,2,2,0,1,1,0,0,0
565256329,565255336,68467874,59.396201899999994,24.6605964,2.3264797,-1.274163,-2.578047,-0.021752972,-0.012412676,-0.03908609,-0.029236924,0.019094849,-0.062540144,-0.048372686,-0.0076688584,-0.002126247,-0.016722856,0.0050320593,-0.04387942,-0.007839876,-0.16223232,-0.0043945326,28.056198,0.1,0.19213153,0.18844998,0.11408215,0.08392072,inf,inf,inf,inf,1,1,1,1,2,2,2,2,2,0,1,1,0,0,0
565266455,565265222,68467874,59.396201899999994,24.6605964,2.3261702,-1.274017,-2.5785894,-0.021752972,-0.012412676,-0.03908609,-0.029140301,0.018717239,-0.06246597,-0.04835734,-0.0076688584,-0.002126247,-0.016722856,0.048563123,-0.053919807,0.0364402,-0.1623081,-0.0043945326,28.056198,0.1,0.18333255,0.18215862,0.10887437,0.08154992,inf,inf,inf,inf,1,1,1,1,2,2,2,2,2,0,1,1,0,0,0
565275653,565275106,68467874,59.396201899999994,24.6605964,2.3258646,-1.2738707,-2.5791328,-0.021752972,-0.012412676,-0.03908609,-0.029031092,0.018831275,-0.06264015,-0.048593815,-0.0076688584,-0.002126247,-0.016722856,-0.008835997,-0.04736181,-0.082738414,-0.16235296,-0.0043945326,28.056198,0.1,0.18404351,0.18271977,0.10930136,0.081756964,inf,inf,inf,inf,1,1,1,1,2,2,2,2,2,0,1,1,0,0,0
565285553,565284991,68467874,59.396201899999994,24.6605964,2.325558,-1.2737237,-2.5796783,-0.021752972,-0.012412676,-0.03908609,-0.029655242,0.019001892,-0.06219545,-0.048214693,-0.0076688584,-0.002126247,-0.016722856,-0.104978375,0.015192656,-0.01949215,-0.16229206,-0.0043945326,28.056198,0.1,0.18475945,0.18328343,0.10973025,0.08196387,inf,inf,inf,inf,1,1,1,1,2,2,2,2,2,0,1,1,0,0,0
565295544,565294876,68467874,59.396201899999994,24.6605964,2.325249,-1.2735729,-2.5802264,-0.021752972,-0.012412676,-0.03908609,-0.029339014,0.019402206,-0.06204986,-0.048137814,-0.0076688584,-0.002126247,-0.016722856,0.051356,0.005160492,0.05474291,-0.16219202,-0.0043945326,28.056198,0.1,0.1854804,0.18384962,0.11016012,0.08217092,inf,inf,inf,inf,1,1,1,1,2,2,2,2,2,0,1,1,0,0,0
565305575,565304761,68467874,59.396201899999994,24.6605964,2.324946,-1.2734249,-2.580777,-0.021752972,-0.012412676,-0.03908609,-0.029127043,0.019034378,-0.06239228,-0.048551973,-0.0076688584,-0.002126247,-0.016722856,-0.0279281,0.044570286,-0.07556947,-0.16219176,-0.0043945326,28.056198,0.1,0.18620634,0.18441832,0.110590845,0.08237795,inf,inf,inf,inf,1,1,1,1,2,2,2,2,2,0,1,1,0,0,0
565315807,565314646,68467874,59.396201899999994,24.6605964,2.3246417,-1.273279,-2.5813396,-0.021752972,-0.012412676,-0.03908609,-0.029516416,0.018518219,-0.063589044,-0.04982322,-0.0076688584,-0.002126247,-0.016722856,-0.04651803,-0.049333334,-0.078224584,-0.1622877,-0.0043945326,28.056198,0.1,0.1869373,0.18498957,0.11102116,0.08258521,inf,inf,inf,inf,1,1,1,1,2,2,2,2,2,0,1,1,0,0,0
565325502,565324530,68467874,59.396201899999994,24.6605964,2.3243377,-1.2731364,-2.582019,-0.021752972,-0.012412676,-0.03908609,-0.029101804,0.018024243,-0.063954964,-0.050376397,-0.0076688584,-0.002126247,-0.016722856,0.09812085,-0.10962124,-0.051099077,-0.16237499,-0.0043945326,28.056198,0.1,0.18767327,0.18530308,0.111451745,0.08273508,inf,inf,inf,inf,1,1,1,1,2,2,2,2,2,0,1,1,0,0,0
565335340,565334417,68467874,59.396201899999994,24.6605964,2.3240376,-1.2729939,-2.5826972,-0.021752972,-0.012412676,-0.03908609,-0.029169174,0.018527593,-0.06340881,-0.050015204,-0.0076688584,-0.002126247,-0.016722856,-0.01633502,0.035425637,0.009991753,-0.162356,-0.0043945326,28.056198,0.1,0.18841428,0.18587856,0.1118861,0.08294236,inf,inf,inf,inf,1,1,1,1,2,2,2,2,2,0,1,1,0,0,0
565345377,565344300,68467874,59.396201899999994,24.6605964,2.323735,-1.2728485,-2.5833757,-0.021752972,-0.012412676,-0.03908609,-0.029626388,0.018477997,-0.06362884,-0.050418023,-0.0076688584,-0.002126247,-0.016722856,-0.019928997,-0.025716804,0.045480322,-0.16227175,-0.0043945326,28.056198,0.1,0.18916032,0.18645656,0.112321325,0.08314986,inf,inf,inf,inf,1,1,1,1,2,2,2,2,2,0,1,1,0,0,0
565356484,565354185,68467874,59.396201899999994,24.6605964,2.3233964,-1.2726488,-2.5838878,-0.021752972,-0.012412676,-0.03908609,-0.029948244,0.018717429,-0.06498914,-0.051778305,-0.0076688584,-0.002126247,-0.016722856,-0.013832094,0.08027222,-0.11977555,-0.1622135,-0.0043945326,28.056198,0.1,0.18081535,0.18037385,0.10739161,0.080863014,inf,inf,inf,inf,1,1,1,1,2,2,2,2,2,0,1,1,0,0,0
565365414,565364070,68467874,59.396201899999994,24.6605964,2.323066,-1.2724497,-2.5844164,-0.021752972,-0.012412676,-0.03908609,-0.029040793,0.018669127,-0.06616075,-0.052955516,-0.0076688584,-0.002126247,-0.016722856,0.0064474004,0.04233333,-0.104848936,-0.16224816,-0.0043945326,28.056198,0.1,0.18150893,0.1809267,0.10781602,0.08106964,inf,inf,inf,inf,1,1,1,1,2,2,2,2,2,0,1,1,0,0,0
565375571,565373954,68467874,59.396201899999994,24.6605964,2.322741,-1.2722527,-2.5849514,-0.021752972,-0.012412676,-0.03908609,-0.028703675,0.018575383,-0.065666325,-0.052472092,-0.0076688584,-0.002126247,-0.016722856,0.036682267,0.031543553,0.030618358,-0.16232346,-0.0043945326,28.056198,0.1,0.18220745,0.18148206,0.108242616,0.08127636,inf,inf,inf,inf,1,1,1,1,2,2,2,2,2,0,1,1,0,0,0
565385511,565383843,68467874,59.396201899999994,24.6605964,2.3224154,-1.2720586,-2.5855918,-0.021752972,-0.012412676,-0.03908609,-0.030149877,0.018405719,-0.065773696,-0.052699573,-0.0076688584,-0.002126247,-0.016722856,-0.2660416,0.05170254,-0.0031525262,-0.16238452,-0.0043945326,28.056198,0.1,0.18291093,0.18179421,0.10866823,0.081430055,inf,inf,inf,inf,1,1,1,1,2,2,2,2,2,0,1,1,0,0,0
565395558,565393725,68467874,59.396201899999994,24.6605964,2.3220887,-1.2718675,-2.5862408,-0.021752972,-0.012412676,-0.03908609,-0.028775165,0.018620122,-0.06711885,-0.05416528,-0.0076688584,-0.002126247,-0.016722856,0.12698522,0.17543165,-0.09652922,-0.16237485,-0.0043945326,28.056198,0.1,0.18361934,0.18235387,0.109094605,0.08163693,inf,inf,inf,inf,1,1,1,1,2,2,2,2,2,0,1,1,0,0,0
565405614,565403609,68467874,59.396201899999994,24.6605964,2.3217666,-1.2716758,-2.5869002,-0.021752972,-0.012412676,-0.03908609,-0.029136164,0.018506415,-0.06778316,-0.054950535,-0.0076688584,-0.002126247,-0.016722856,0.04319681,0.085554324,-0.06421749,-0.162337,-0.0043945326,28.056198,0.1,0.18433274,0.18291603,0.10952373,0.081843875,inf,inf,inf,inf,1,1,1,1,2,2,2,2,2,0,1,1,0,0,0
565416017,565413496,68467874,59.396201899999994,24.6605964,2.3214455,-1.2714859,-2.5875647,-0.021752972,-0.012412676,-0.03908609,-0.029620035,0.01818093,-0.06785586,-0.055144493,-0.0076688584,-0.002126247,-0.016722856,-0.10219126,0.00013617781,-0.0064845397,-0.16231123,-0.0043945326,28.056198,0.1,0.18505111,0.18348072,0.10995559,0.08205086,inf,inf,inf,inf,1,1,1,1,2,2,2,2,2,0,1,1,0,0,0
565425344,565423378,68467874,59.396201899999994,24.6605964,2.3211217,-1.2712927,-2.588233,-0.021752972,-0.012412676,-0.03908609,-0.029414048,0.018429352,-0.06880155,-0.05621173,-0.0076688584,-0.002126247,-0.016722856,0.10193212,-0.14145468,-0.1960394,-0.16230206,-0.0043945326,28.056198,0.1,0.1857745,0.18404794,0.11038625,0.082258016,inf,inf,inf,inf,1,1,1,1,2,2,2,2,2,0,1,1,0,0,0
565435005,565433264,68467874,59.396201899999994,24.6605964,2.3208022,-1.2711059,-2.5889194,-0.021752972,-0.012412676,-0.03908609,-0.029471125,0.018336235,-0.07094394,-0.058475867,-0.0076688584,-0.002126247,-0.016722856,-0.020583408,0.069177814,-0.22445673,-0.1623322,-0.0043945326,28.056198,0.1,0.1865029,0.18461768,0.11081365,0.08246518,inf,inf,inf,inf,1,1,1,1,2,2,2,2,2,0,1,1,0,0,0
565443734,565443148,68467874,59.396201899999994,24.6605964,2.3204818,-1.2709222,-2.5896204,-0.021752972,-0.012412676,-0.03908609,-0.029976664,0.017725628,-0.07165171,-0.059305545,-0.0076688584,-0.002126247,-0.016722856,-0.08032453,-0.027811266,-0.080957934,-0.1623908,-0.0043945326,28.056198,0.1,0.18723631,0.18518993,0.111244164,0.082672395,inf,inf,inf,inf,1,1,1,1,2,2,2,2,2,0,1,1,0,0,0
565453675,565453033,68467874,59.396201899999994,24.6605964,2.3201632,-1.2707369,-2.590439,-0.021752972,-0.012412676,-0.03908609,-0.02890028,0.017905189,-0.071467936,-0.0593585,-0.0076688584,-0.002126247,-0.016722856,0.17524138,-0.12422493,0.07203583,-0.16243039,-0.0043945326,28.056198,0.1,0.18797474,0.18550362,0.11167935,0.082822025,inf,inf,inf,inf,1,1,1,1,2,2,2,2,2,0,1,1,0,0,0
565463498,565462918,68467874,59.396201899999994,24.6605964,2.3198533,-1.2705535,-2.5912526,-0.021752972,-0.012412676,-0.03908609,-0.028902242,0.018091176,-0.07138426,-0.059506644,-0.0076688584,-0.002126247,-0.016722856,-0.010649224,-0.012385874,0.022429097,-0.16240928,-0.0043945326,28.056198,0.1,0.18871821,0.18608011,0.1121146,0.08302947,inf,inf,inf,inf,1,1,1,1,2,2,2,2,2,0,1,1,0,0,0
565473506,565472811,68467874,59.396201899999994,24.6605964,2.319542,-1.270371,-2.5920749,-0.021752972,-0.012412676,-0.03908609,-0.029780883,0.017662453,-0.073447846,-0.061797284,-0.0076688584,-0.002126247,-0.016722856,-0.17727786,-0.12585333,-0.18519484,-0.16237804,-0.0043945326,28.056198,0.1,0.18946674,0.18665914,0.112544835,0.083236955,inf,inf,inf,inf,1,1,1,1,2,2,2,2,2,0,1,1,0,0,0
565483812,565482689,68467874,59.396201899999994,24.6605964,2.3191533,-1.2702688,-2.5926409,-0.021752972,-0.012412676,-0.03908609,-0.029721435,0.018007845,-0.073621474,-0.061917864,-0.0076688584,-0.002126247,-0.016722856,0.023406262,-0.0833898,-0.077710055,-0.16232531,-0.0043945326,28.056198,0.1,0.18107365,0.18055516,0.10758163,0.080941014,inf,inf,inf,inf,1,1,1,1,2,2,2,2,2,0,1,1,0,0,0
565493399,565492572,68467874,59.396201899999994,24.6605964,2.318772,-1.2701664,-2.5932114,-0.021752972,-0.012412676,-0.03908609,-0.028363789,0.018024689,-0.07361897,-0.06186959,-0.0076688584,-0.002126247,-0.016722856,0.27917066,0.0021801244,-0.11945159,-0.16230711,-0.0043945326,28.056198,0.1,0.18176934,0.18110894,0.10801151,0.0811478,inf,inf,inf,inf,1,1,1,1,2,2,2,2,2,0,1,1,0,0,0
565503368,565502457,68467874,59.396201899999994,24.6605964,2.3184023,-1.2700654,-2.5937922,-0.021752972,-0.012412676,-0.03908609,-0.029725367,0.017717285,-0.074157566,-0.06236943,-0.0076688584,-0.002126247,-0.016722856,-0.3292102,0.019791191,-0.07559614,-0.16235161,-0.0043945326,28.056198,0.1,0.18246998,0.18166523,0.10843965,0.08135453,inf,inf,inf,inf,1,1,1,1,2,2,2,2,2,0,1,1,0,0,0
565513450,565512342,68467874,59.396201899999994,24.6605964,2.3180292,-1.2699687,-2.5945027,-0.021752972,-0.012412676,-0.03908609,-0.029127138,0.016857168,-0.07568925,-0.06398467,-0.0076688584,-0.002126247,-0.016722856,-0.031424582,-0.043588538,-0.118991755,-0.16242522,-0.0043945326,28.056198,0.1,0.18317558,0.18197756,0.108866826,0.08150804,inf,inf,inf,inf,1,1,1,1,2,2,2,2,2,0,1,1,0,0,0
565523128,565522228,68467874,59.396201899999994,24.6605964,2.3176517,-1.2698718,-2.5952232,-0.021752972,-0.012412676,-0.03908609,-0.029121617,0.016796984,-0.07600783,-0.06438824,-0.0076688584,-0.002126247,-0.016722856,0.33327812,-0.10300773,-0.04953001,-0.1624631,-0.0043945326,28.056198,0.1,0.18388616,0.18253812,0.10929741,0.08171496,inf,inf,inf,inf,1,1,1,1,2,2,2,2,2,0,1,1,0,0,0
565532996,565532111,68467874,59.396201899999994,24.6605964,2.3172927,-1.2697697,-2.595948,-0.021752972,-0.012412676,-0.03908609,-0.029440649,0.017359124,-0.07589323,-0.064359985,-0.0076688584,-0.002126247,-0.016722856,-0.3834823,-0.06565401,0.047559306,-0.16239382,-0.0043945326,28.056198,0.1,0.18460171,0.1831012,0.10973231,0.081921935,inf,inf,inf,inf,1,1,1,1,2,2,2,2,2,0,1,1,0,0,0
565542684,565541997,68467874,59.396201899999994,24.6605964,2.3169262,-1.2696676,-2.596678,-0.021752972,-0.012412676,-0.03908609,-0.028428053,0.01747634,-0.07719658,-0.06575096,-0.0076688584,-0.002126247,-0.016722856,0.3202399,0.046294857,-0.22927178,-0.16232277,-0.0043945326,28.056198,0.1,0.1853223,0.18366681,0.11016287,0.08212897,inf,inf,inf,inf,1,1,1,1,2,2,2,2,2,0,1,1,0,0,0
565552426,565551881,68467874,59.396201899999994,24.6605964,2.3165603,-1.2695662,-2.5974233,-0.021752972,-0.012412676,-0.03908609,-0.030481365,0.017422082,-0.07843105,-0.067074224,-0.0076688584,-0.002126247,-0.016722856,-0.08256397,0.0896176,-0.16073392,-0.16229442,-0.0043945326,28.056198,0.1,0.1860479,0.18423495,0.11059149,0.082336195,inf,inf,inf,inf,1,1,1,1,2,2,2,2,2,0,1,1,0,0,0
565562358,565561766,68467874,59.396201899999994,24.6605964,2.3162024,-1.2694687,-2.5981805,-0.021752972,-0.012412676,-0.03908609,-0.028605895,0.016537305,-0.07985396,-0.06858705,-0.0076688584,-0.002126247,-0.016722856,0.029909367,0.004772307,-0.23098926,-0.16235363,-0.0043945326,28.056198,0.1,0.1867785,0.1848056,0.11102113,0.08254342,inf,inf,inf,inf,1,1,1,1,2,2,2,2,2,0,1,1,0,0,0
565572282,565571651,68467874,59.396201899999994,24.6605964,2.3158457,-1.2693694,-2.5989487,-0.021752972,-0.012412676,-0.03908609,-0.029199835,0.01675928,-0.07963694,-0.06846101,-0.0076688584,-0.002126247,-0.016722856,0.101936206,-0.036994882,0.05194027,-0.16241418,-0.0043945326,28.056198,0.1,0.18751413,0.18537878,0.11145826,0.08275065,inf,inf,inf,inf,1,1,1,1,2,2,2,2,2,0,1,1,0,0,0
565582342,565581535,68467874,59.396201899999994,24.6605964,2.3154898,-1.2692668,-2.599828,-0.021752972,-0.012412676,-0.03908609,-0.030132586,0.016510274,-0.08002575,-0.069058165,-0.0076688584,-0.002126247,-0.016722856,-0.1880279,-0.19549374,-0.1714059,-0.1624271,-0.0043945326,28.056198,0.1,0.1882548,0.1856926,0.11188938,0.08290011,inf,inf,inf,inf,1,1,1,1,2,2,2,2,2,0,1,1,0,0,0
565592240,565591420,68467874,59.396201899999994,24.6605964,2.315138,-1.2691681,-2.6007178,-0.021752972,-0.012412676,-0.03908609,-0.028253868,0.016482266,-0.08180569,-0.0710423,-0.0076688584,-0.002126247,-0.016722856,0.23087394,-0.038397603,-0.24968222,-0.16237196,-0.0043945326,28.056198,0.1,0.18900053,0.18627001,0.112321526,0.083107635,inf,inf,inf,inf,1,1,1,1,2,2,2,2,2,0,1,1,0,0,0
565602477,565601305,68467874,59.396201899999994,24.6605964,2.3148105,-1.2689984,-2.6013768,-0.021752972,-0.012412676,-0.03908609,-0.029406112,0.016264638,-0.08206574,-0.07124911,-0.0076688584,-0.002126247,-0.016722856,-0.013646492,-0.07720695,-0.020775875,-0.16230395,-0.0043945326,28.056198,0.1,0.18067507,0.18020578,0.10739642,0.08082647,inf,inf,inf,inf,1,1,1,1,2,2,2,2,2,0,1,1,0,0,0
565612276,565611190,68467874,59.396201899999994,24.6605964,2.3144834,-1.2688305,-2.602036,-0.021752972,-0.012412676,-0.03908609,-0.029353347,0.016659416,-0.081380114,-0.07051718,-0.0076688584,-0.002126247,-0.016722856,-0.066884786,0.03839043,-0.024110695,-0.16229442,-0.0043945326,28.056198,0.1,0.18136838,0.18075812,0.107826285,0.08103319,inf,inf,inf,inf,1,1,1,1,2,2,2,2,2,0,1,1,0,0,0
565621870,565621075,68467874,59.396201899999994,24.6605964,2.3141572,-1.2686645,-2.602703,-0.021752972,-0.012412676,-0.03908609,-0.02884764,0.01621638,-0.08196125,-0.07105867,-0.0076688584,-0.002126247,-0.016722856,0.17230065,-0.04278237,-0.043057512,-0.16233462,-0.0043945326,28.056198,0.1,0.18206666,0.18131298,0.1082537,0.08123993,inf,inf,inf,inf,1,1,1,1,2,2,2,2,2,0,1,1,0,0,0
565631984,565630960,68467874,59.396201899999994,24.6605964,2.3138356,-1.2684996,-2.6033883,-0.021752972,-0.012412676,-0.03908609,-0.02909827,0.015891211,-0.083820656,-0.07288481,-0.0076688584,-0.002126247,-0.016722856,0.019903695,-0.17937826,-0.13353191,-0.16237839,-0.0043945326,28.056198,0.1,0.1827699,0.18187034,0.108680844,0.08144673,inf,inf,inf,inf,1,1,1,1,2,2,2,2,2,0,1,1,0,0,0
565641469,565640845,68467874,59.396201899999994,24.6605964,2.3135176,-1.268339,-2.6041863,-0.021752972,-0.012412676,-0.03908609,-0.02851198,0.016397687,-0.08438254,-0.07351986,-0.0076688584,-0.002126247,-0.016722856,0.0905138,0.089543544,-0.06787924,-0.16239768,-0.0043945326,28.056198,0.1,0.1834781,0.18218292,0.109112345,0.08160014,inf,inf,inf,inf,1,1,1,1,2,2,2,2,2,0,1,1,0,0,0
565651304,565650731,68467874,59.396201899999994,24.6605964,2.3132045,-1.2681767,-2.6049821,-0.021752972,-0.012412676,-0.03908609,-0.028483218,0.016420403,-0.0835568,-0.07276884,-0.0076688584,-0.002126247,-0.016722856,0.049994595,0.03962878,-0.036410116,-0.16237466,-0.0043945326,28.056198,0.1,0.1841913,0.18274459,0.10954356,0.081806935,inf,inf,inf,inf,1,1,1,1,2,2,2,2,2,0,1,1,0,0,0
565661418,565660614,68467874,59.396201899999994,24.6605964,2.3128889,-1.2680119,-2.6057873,-0.021752972,-0.012412676,-0.03908609,-0.029258542,0.016785737,-0.08563436,-0.07492256,-0.0076688584,-0.002126247,-0.016722856,-0.0065655587,0.017543117,-0.24691954,-0.16233169,-0.0043945326,28.056198,0.1,0.18490951,0.18330877,0.109977014,0.08201414,inf,inf,inf,inf,1,1,1,1,2,2,2,2,2,0,1,1,0,0,0
565671439,565670501,68467874,59.396201899999994,24.6605964,2.3125763,-1.2678454,-2.6066115,-0.021752972,-0.012412676,-0.03908609,-0.029435843,0.01719733,-0.08656611,-0.07593186,-0.0076688584,-0.002126247,-0.016722856,-0.20734978,0.076220326,-0.02256159,-0.16229938,-0.0043945326,28.056198,0.1,0.18563272,0.18387547,0.11040528,0.08222122,inf,inf,inf,inf,1,1,1,1,2,2,2,2,2,0,1,1,0,0,0
565681336,565680384,68467874,59.396201899999994,24.6605964,2.3122623,-1.2676834,-2.607438,-0.021752972,-0.012412676,-0.03908609,-0.028860698,0.016015416,-0.086525,-0.07596958,-0.0076688584,-0.002126247,-0.016722856,0.06393328,-0.10232225,-0.019556724,-0.16232514,-0.0043945326,28.056198,0.1,0.18636096,0.1844447,0.11083566,0.082428366,inf,inf,inf,inf,1,1,1,1,2,2,2,2,2,0,1,1,0,0,0
565691373,565690268,68467874,59.396201899999994,24.6605964,2.3119497,-1.2675222,-2.6082726,-0.021752972,-0.012412676,-0.03908609,-0.029331857,0.016175494,-0.087273665,-0.07679828,-0.0076688584,-0.002126247,-0.016722856,-0.01924521,-0.12396283,-0.05237828,-0.1623701,-0.0043945326,28.056198,0.1,0.18709421,0.18501645,0.11127177,0.08263579,inf,inf,inf,inf,1,1,1,1,2,2,2,2,2,0,1,1,0,0,0
565700957,565700153,68467874,59.396201899999994,24.6605964,2.3116424,-1.2673646,-2.609114,-0.021752972,-0.012412676,-0.03908609,-0.028735405,0.016826535,-0.08778602,-0.07739181,-0.0076688584,-0.002126247,-0.016722856,-0.04298432,0.19862278,-0.022781743,-0.16238193,-0.0043945326,28.056198,0.1,0.18783252,0.18559071,0.11170352,0.08284304,inf,inf,inf,inf,1,1,1,1,2,2,2,2,2,0,1,1,0,0,0
565711237,565710038,68467874,59.396201899999994,24.6605964,2.3113387,-1.267206,-2.6100805,-0.021752972,-0.012412676,-0.03908609,-0.028060323,0.016061287,-0.08806742,-0.07787783,-0.0076688584,-0.002126247,-0.016722856,0.15307453,-0.028817272,-0.017992083,-0.16237149,-0.0043945326,28.056198,0.1,0.18857588,0.18590473,0.11213343,0.08299226,inf,inf,inf,inf,1,1,1,1,2,2,2,2,2,0,1,1,0,0,0
565720897,565719923,68467874,59.396201899999994,24.6605964,2.3110356,-1.2670472,-2.6110473,-0.021752972,-0.012412676,-0.03908609,-0.029547565,0.016700575,-0.0889207,-0.07893142,-0.0076688584,-0.002126247,-0.016722856,-0.21518837,0.084431104,-0.18417154,-0.16233577,-0.0043945326,28.056198,0.1,0.18932426,0.18648323,0.112567306,0.0831998,inf,inf,inf,inf,1,1,1,1,2,2,2,2,2,0,1,1,0,0,0
565731318,565729814,68467874,59.396201899999994,24.6605964,2.310686,-1.2668461,-2.6117113,-0.021752972,-0.012412676,-0.03908609,-0.028064104,0.016078144,-0.08972106,-0.07960285,-0.0076688584,-0.002126247,-0.016722856,0.16227819,0.040762767,-0.1631611,-0.16233419,-0.0043945326,28.056198,0.1,0.18094751,0.1803966,0.107610054,0.080909155,inf,inf,inf,inf,1,1,1,1,2,2,2,2,2,0,1,1,0,0,0
565740350,565739693,68467874,59.396201899999994,24.6605964,2.3103428,-1.2666487,-2.6123972,-0.021752972,-0.012412676,-0.03908609,-0.028797919,0.01543275,-0.09127024,-0.08103296,-0.0076688584,-0.002126247,-0.016722856,-0.015064158,-0.14224099,-0.0842157,-0.16235425,-0.0043945326,28.056198,0.1,0.18164311,0.18094991,0.10803814,0.081115894,inf,inf,inf,inf,1,1,1,1,2,2,2,2,2,0,1,1,0,0,0
565751669,565749577,68467874,59.396201899999994,24.6605964,2.3099985,-1.2664527,-2.6130981,-0.021752972,-0.012412676,-0.03908609,-0.030092603,0.01626275,-0.09212057,-0.08177373,-0.0076688584,-0.002126247,-0.016722856,-0.3693159,0.04523716,-0.14467908,-0.16237748,-0.0043945326,28.056198,0.1,0.18234368,0.18150575,0.10846218,0.08132269,inf,inf,inf,inf,1,1,1,1,2,2,2,2,2,0,1,1,0,0,0
565760434,565759463,68467874,59.396201899999994,24.6605964,2.3096528,-1.2662598,-2.61382,-0.021752972,-0.012412676,-0.03908609,-0.028018909,0.015231974,-0.09309509,-0.082647815,-0.0076688584,-0.002126247,-0.016722856,0.30669326,-0.12050745,-0.009868558,-0.16242036,-0.0043945326,28.056198,0.1,0.18304919,0.18206412,0.108895436,0.081529476,inf,inf,inf,inf,1,1,1,1,2,2,2,2,2,0,1,1,0,0,0
565770355,565769347,68467874,59.396201899999994,24.6605964,2.3093157,-1.2660657,-2.6145575,-0.021752972,-0.012412676,-0.03908609,-0.029320465,0.015763754,-0.09407694,-0.08353804,-0.0076688584,-0.002126247,-0.016722856,-0.16763662,-0.15956806,-0.0027060295,-0.16242082,-0.0043945326,28.056198,0.1,0.18375969,0.182625,0.10932596,0.08173638,inf,inf,inf,inf,1,1,1,1,2,2,2,2,2,0,1,1,0,0,0
565781280,565779231,68467874,59.396201899999994,24.6605964,2.3089788,-1.2658721,-2.6154187,-0.021752972,-0.012412676,-0.03908609,-0.028586416,0.016844897,-0.095017545,-0.08451033,-0.0076688584,-0.002126247,-0.016722856,0.0362807,0.17186175,-0.19513333,-0.1623962,-0.0043945326,28.056198,0.1,0.1844752,0.18293801,0.1097551,0.08188899,inf,inf,inf,inf,1,1,1,1,2,2,2,2,2,0,1,1,0,0,0
565790396,565789131,68467874,59.396201899999994,24.6605964,2.3086448,-1.2656764,-2.616293,-0.021752972,-0.012412676,-0.03908609,-0.028779158,0.015998514,-0.09566059,-0.08518822,-0.0076688584,-0.002126247,-0.016722856,-0.01885207,-0.099671446,-0.07170411,-0.16239125,-0.0043945326,28.056198,0.1,0.18519573,0.18350317,0.11018564,0.082096025,inf,inf,inf,inf,1,1,1,1,2,2,2,2,2,0,1,1,0,0,0
565800083,565799003,68467874,59.396201899999994,24.6605964,2.3083155,-1.2654853,-2.6171775,-0.021752972,-0.012412676,-0.03908609,-0.028056923,0.015391878,-0.09688012,-0.086445615,-0.0076688584,-0.002126247,-0.016722856,0.09393098,-0.22949852,-0.088320054,-0.16243891,-0.0043945326,28.056198,0.1,0.18592125,0.18407084,0.11061635,0.08230324,inf,inf,inf,inf,1,1,1,1,2,2,2,2,2,0,1,1,0,0,0
565809475,565808886,68467874,59.396201899999994,24.6605964,2.3079877,-1.2652963,-2.6180706,-0.021752972,-0.012412676,-0.03908609,-0.029086338,0.016400931,-0.097030945,-0.08663719,-0.0076688584,-0.002126247,-0.016722856,-0.14172986,0.035959784,-0.02629069,-0.16246463,-0.0043945326,28.056198,0.1,0.1866518,0.18464105,0.111047946,0.08251056,inf,inf,inf,inf,1,1,1,1,2,2,2,2,2,0,1,1,0,0,0
565820373,565818776,68467874,59.396201899999994,24.6605964,2.3076584,-1.2651097,-2.6189735,-0.021752972,-0.012412676,-0.03908609,-0.027964609,0.01570514,-0.09832857,-0.08797832,-0.0076688584,-0.002126247,-0.016722856,0.2391826,-0.044708397,-0.17119592,-0.16247755,-0.0043945326,28.056198,0.1,0.18738738,0.18521377,0.11148051,0.08271774,inf,inf,inf,inf,1,1,1,1,2,2,2,2,2,0,1,1,0,0,0
565829282,565828656,68467874,59.396201899999994,24.6605964,2.307338,-1.2649282,-2.6198933,-0.021752972,-0.012412676,-0.03908609,-0.028651245,0.015298574,-0.0996683,-0.08936421,-0.0076688584,-0.002126247,-0.016722856,-0.13013454,-0.036848918,-0.12613787,-0.16248697,-0.0043945326,28.056198,0.1,0.18812801,0.18578903,0.11191519,0.08292526,inf,inf,inf,inf,1,1,1,1,2,2,2,2,2,0,1,1,0,0,0
565839220,565838540,68467874,59.396201899999994,24.6605964,2.307016,-1.2647471,-2.6209335,-0.021752972,-0.012412676,-0.03908609,-0.028567815,0.016000038,-0.10049304,-0.09035131,-0.0076688584,-0.002126247,-0.016722856,-0.07254337,0.09219488,-0.12516542,-0.16246201,-0.0043945326,28.056198,0.1,0.18887371,0.18610317,0.11235211,0.08307424,inf,inf,inf,inf,1,1,1,1,2,2,2,2,2,0,1,1,0,0,0
565850693,565848426,68467874,59.396201899999994,24.6605964,2.3067062,-1.2645941,-2.6217241,-0.021752972,-0.012412676,-0.03908609,-0.02752513,0.01562841,-0.10171199,-0.09145843,-0.0076688584,-0.002126247,-0.016722856,0.243399,-0.15895218,-0.21042572,-0.16245414,-0.0043945326,28.056198,0.10059667,0.18056224,0.18005523,0.10742747,0.080797814,inf,inf,inf,inf,1,1,1,1,2,2,2,2,2,0,1,1,0,0,0
565859146,565858310,68467874,59.396201899999994,24.6605964,2.306397,-1.264442,-2.6225343,-0.021752972,-0.012412676,-0.03908609,-0.02940858,0.015792068,-0.10318545,-0.09282927,-0.0076688584,-0.002126247,-0.016722856,-0.17930384,-0.10952862,-0.23447426,-0.1624848,-0.0043945326,28.056198,0.10052681,0.18125556,0.18060717,0.10785715,0.0810047,inf,inf,inf,inf,1,1,1,1,2,2,2,2,2,0,1,1,0,0,0
565868993,565868195,68467874,59.396201899999994,24.6605964,2.3060892,-1.2642926,-2.6233647,-0.021752972,-0.012412676,-0.03908609,-0.028149525,0.015965639,-0.10406363,-0.093613684,-0.0076688584,-0.002126247,-0.016722856,0.04038606,0.04435645,-0.16319858,-0.16252227,-0.0043945326,28.056198,0.100465536,0.18195386,0.18116161,0.1082865,0.08121136,inf,inf,inf,inf,1,1,1,1,2,2,2,2,2,0,1,1,0,0,0
565879141,565878080,68467874,59.396201899999994,24.6605964,2.3057818,-1.2641474,-2.6242094,-0.021752972,-0.012412676,-0.03908609,-0.028139355,0.015033672,-0.10520041,-0.09466522,-0.0076688584,-0.002126247,-0.016722856,0.21632946,-0.09084383,-0.24453396,-0.1625507,-0.0043945326,28.056198,0.10040808,0.18265711,0.18171859,0.10871644,0.08141823,inf,inf,inf,inf,1,1,1,1,2,2,2,2,2,0,1,1,0,0,0
565888921,565887964,68467874,59.396201899999994,24.6605964,2.3054812,-1.2640039,-2.6250663,-0.021752972,-0.012412676,-0.03908609,-0.028831547,0.015380189,-0.10541868,-0.09480647,-0.0076688584,-0.002126247,-0.016722856,-0.2589315,-0.0011297591,-0.07272868,-0.1625429,-0.0043945326,28.056198,0.10035181,0.18336536,0.18227808,0.10914671,0.08162515,inf,inf,inf,inf,1,1,1,1,2,2,2,2,2,0,1,1,0,0,0
565898671,565897849,68467874,59.396201899999994,24.6605964,2.3051784,-1.2638577,-2.6259398,-0.021752972,-0.012412676,-0.03908609,-0.027110334,0.016174667,-0.106635794,-0.095954426,-0.0076688584,-0.002126247,-0.016722856,0.3453056,0.14504571,-0.065545246,-0.16250667,-0.0043945326,28.056198,0.100302935,0.1840786,0.18284012,0.10957915,0.081832215,inf,inf,inf,inf,1,1,1,1,2,2,2,2,2,0,1,1,0,0,0
565908385,565907734,68467874,59.396201899999994,24.6605964,2.3048854,-1.263712,-2.6269376,-0.021752972,-0.012412676,-0.03908609,-0.02777181,0.015583429,-0.10717957,-0.09655233,-0.0076688584,-0.002126247,-0.016722856,-0.025384791,0.042035263,-0.13072997,-0.16248977,-0.0043945326,28.056198,0.1,0.18479687,0.18315338,0.1100076,0.081984416,inf,inf,inf,inf,1,1,1,1,2,2,2,2,2,0,1,1,0,0,0
565918199,565917619,68467874,59.396201899999994,24.6605964,2.304596,-1.2635676,-2.6279445,-0.021752972,-0.012412676,-0.03908609,-0.027711656,0.0159761,-0.10834197,-0.09777115,-0.0076688584,-0.002126247,-0.016722856,-0.18213822,0.1654575,-0.24493414,-0.16251047,-0.0043945326,28.056198,0.1,0.18552013,0.18371968,0.11044163,0.08219168,inf,inf,inf,inf,1,1,1,1,2,2,2,2,2,0,1,1,0,0,0
565928129,565927508,68467874,59.396201899999994,24.6605964,2.304298,-1.2634271,-2.6289701,-0.021752972,-0.012412676,-0.03908609,-0.027834345,0.015723482,-0.109392256,-0.09888001,-0.0076688584,-0.002126247,-0.016722856,0.21787137,0.20717683,0.0037904538,-0.1625651,-0.0043945326,28.056198,0.1,0.18624844,0.18428849,0.11087533,0.08239887,inf,inf,inf,inf,1,1,1,1,2,2,2,2,2,0,1,1,0,0,0
565938056,565937388,68467874,59.396201899999994,24.6605964,2.304008,-1.2632854,-2.630006,-0.021752972,-0.012412676,-0.03908609,-0.027897013,0.015095605,-0.110505715,-0.10005408,-0.0076688584,-0.002126247,-0.016722856,-0.06567247,-0.050534185,-0.14822395,-0.16258658,-0.0043945326,28.056198,0.1,0.18698178,0.18485983,0.111308016,0.08260617,inf,inf,inf,inf,1,1,1,1,2,2,2,2,2,0,1,1,0,0,0
565947946,565947280,68467874,59.396201899999994,24.6605964,2.303725,-1.2631477,-2.6310575,-0.021752972,-0.012412676,-0.03908609,-0.027396968,0.0154969515,-0.111858964,-0.1014699,-0.0076688584,-0.002126247,-0.016722856,-0.1818052,0.16741408,-0.120943226,-0.16257147,-0.0043945326,28.056198,0.1,0.18772016,0.1854337,0.111743696,0.08281363,inf,inf,inf,inf,1,1,1,1,2,2,2,2,2,0,1,1,0,0,0
565958024,565957158,68467874,59.396201899999994,24.6605964,2.3034298,-1.2630109,-2.6321213,-0.021752972,-0.012412676,-0.03908609,-0.028360698,0.014942251,-0.11318086,-0.102856226,-0.0076688584,-0.002126247,-0.016722856,0.11899783,0.037470646,-0.17422298,-0.1625385,-0.0043945326,28.056198,0.1,0.18846363,0.1860101,0.112180814,0.08302091,inf,inf,inf,inf,1,1,1,1,2,2,2,2,2,0,1,1,0,0,0
565967912,565967043,68467874,59.396201899999994,24.6605964,2.3031428,-1.2628701,-2.6333187,-0.021752972,-0.012412676,-0.03908609,-0.027912306,0.015172357,-0.11451826,-0.10437981,-0.0076688584,-0.002126247,-0.016722856,-0.15130359,-0.07108212,-0.14301132,-0.1625214,-0.0043945326,28.056198,0.1,0.18921217,0.18632443,0.11261709,0.08316978,inf,inf,inf,inf,1,1,1,1,2,2,2,2,2,0,1,1,0,0,0
565978214,565976929,68467874,59.396201899999994,24.6605964,2.3028312,-1.2626598,-2.6340835,-0.021752972,-0.012412676,-0.03908609,-0.026219947,0.015595789,-0.11556107,-0.10514201,-0.0076688584,-0.002126247,-0.016722856,0.043389525,0.23029044,-0.14550364,-0.16253614,-0.0043945326,28.056198,0.10594535,0.18084697,0.18025325,0.10765436,0.08088358,inf,inf,inf,inf,1,1,1,1,2,2,2,2,2,0,1,1,0,0,0
565987640,565986812,68467874,59.396201899999994,24.6605964,2.3025162,-1.2624528,-2.6348634,-0.021752972,-0.012412676,-0.03908609,-0.02811902,0.014686216,-0.11500142,-0.10431821,-0.0076688584,-0.002126247,-0.016722856,-0.11867983,-0.0027145166,0.04192916,-0.16257098,-0.0043945326,28.056198,0.105742216,0.18154271,0.18080622,0.108080536,0.08109024,inf,inf,inf,inf,1,1,1,1,2,2,2,2,2,0,1,1,0,0,0
565997282,565996697,68467874,59.396201899999994,24.6605964,2.302201,-1.262247,-2.6356585,-0.021752972,-0.012412676,-0.03908609,-0.027137827,0.014365149,-0.116156444,-0.10522493,-0.0076688584,-0.002126247,-0.016722856,0.11556079,-0.21763487,-0.16702631,-0.16261423,-0.0043945326,28.056198,0.105546236,0.1822434,0.18136169,0.10851142,0.08129717,inf,inf,inf,inf,1,1,1,1,2,2,2,2,2,0,1,1,0,0,0
566007207,566006582,68467874,59.396201899999994,24.6605964,2.301899,-1.2620488,-2.636476,-0.021752972,-0.012412676,-0.03908609,-0.026231334,0.014421371,-0.11697777,-0.10581325,-0.0076688584,-0.002126247,-0.016722856,-0.0038600615,-0.008310363,-0.016803337,-0.16261359,-0.0043945326,28.056198,0.10536122,0.1829491,0.1819197,0.10894116,0.081504025,inf,inf,inf,inf,1,1,1,1,2,2,2,2,2,0,1,1,0,0,0
566017184,566016467,68467874,59.396201899999994,24.6605964,2.3015904,-1.2618518,-2.6373076,-0.021752972,-0.012412676,-0.03908609,-0.027824372,0.014450598,-0.11655552,-0.10517271,-0.0076688584,-0.002126247,-0.016722856,-0.05369915,-0.020488765,0.11915702,-0.1625638,-0.0043945326,28.056198,0.10517931,0.18365976,0.18248023,0.10937297,0.08171097,inf,inf,inf,inf,1,1,1,1,2,2,2,2,2,0,1,1,0,0,0
566027136,566026351,68467874,59.396201899999994,24.6605964,2.301281,-1.2616519,-2.6381423,-0.021752972,-0.012412676,-0.03908609,-0.027294535,0.015088196,-0.11685796,-0.10527104,-0.0076688584,-0.002126247,-0.016722856,0.049095757,0.008333213,-0.19908702,-0.16251226,-0.0043945326,28.056198,0.10498738,0.18437544,0.18304326,0.10980517,0.08191802,inf,inf,inf,inf,1,1,1,1,2,2,2,2,2,0,1,1,0,0,0
566036987,566036237,68467874,59.396201899999994,24.6605964,2.3009827,-1.2614552,-2.6391034,-0.021752972,-0.012412676,-0.03908609,-0.026223034,0.014267987,-0.118166946,-0.106494084,-0.0076688584,-0.002126247,-0.016722856,0.053306982,-0.12256874,-0.078733295,-0.16252719,-0.0043945326,28.056198,0.10234451,0.18509616,0.18335672,0.110237874,0.08207013,inf,inf,inf,inf,1,1,1,1,2,2,2,2,2,0,1,1,0,0,0
566046801,566046125,68467874,59.396201899999994,24.6605964,2.3006809,-1.2612634,-2.6400843,-0.021752972,-0.012412676,-0.03908609,-0.027326155,0.014533018,-0.119577244,-0.1078271,-0.0076688584,-0.002126247,-0.016722856,0.018340208,-0.01982429,-0.08446267,-0.16258803,-0.0043945326,28.056198,0.10226536,0.18582188,0.18392405,0.11067136,0.08227736,inf,inf,inf,inf,1,1,1,1,2,2,2,2,2,0,1,1,0,0,0
566056905,566056006,68467874,59.396201899999994,24.6605964,2.300381,-1.2610708,-2.6410708,-0.021752972,-0.012412676,-0.03908609,-0.027391728,0.014186728,-0.11924414,-0.10742503,-0.0076688584,-0.002126247,-0.016722856,-0.15105031,-0.17014082,-0.040822454,-0.16262093,-0.0043945326,28.056198,0.102181196,0.18655266,0.18449388,0.11110509,0.082484566,inf,inf,inf,inf,1,1,1,1,2,2,2,2,2,0,1,1,0,0,0
566066815,566065891,68467874,59.396201899999994,24.6605964,2.3000863,-1.2608824,-2.6420724,-0.021752972,-0.012412676,-0.03908609,-0.025673814,0.014509055,-0.12061849,-0.10873839,-0.0076688584,-0.002126247,-0.016722856,0.1727374,-0.00453793,-0.055024233,-0.16263379,-0.0043945326,28.056198,0.10209799,0.18728848,0.18506627,0.11154027,0.08269193,inf,inf,inf,inf,1,1,1,1,2,2,2,2,2,0,1,1,0,0,0
566076690,566075779,68467874,59.396201899999994,24.6605964,2.2997856,-1.2606972,-2.6431005,-0.021752972,-0.012412676,-0.03908609,-0.028374702,0.014027879,-0.122606725,-0.11067333,-0.0076688584,-0.002126247,-0.016722856,-0.15667315,-0.029783072,-0.022023764,-0.16261612,-0.0043945326,28.056198,0.102027416,0.18802938,0.18564117,0.11197566,0.082899466,inf,inf,inf,inf,1,1,1,1,2,2,2,2,2,0,1,1,0,0,0
566086868,566085660,68467874,59.396201899999994,24.6605964,2.2994847,-1.2605101,-2.64413,-0.021752972,-0.012412676,-0.03908609,-0.027193647,0.014413092,-0.12113802,-0.10915874,-0.0076688584,-0.002126247,-0.016722856,-0.0036517603,-0.074543595,0.030325882,-0.16255122,-0.0043945326,28.056198,0.10195184,0.18877535,0.18621857,0.11240735,0.083106846,inf,inf,inf,inf,1,1,1,1,2,2,2,2,2,0,1,1,0,0,0
566097162,566095545,68467874,59.396201899999994,24.6605964,2.299194,-1.2603239,-2.6452863,-0.021752972,-0.012412676,-0.03908609,-0.025459917,0.014350071,-0.12293504,-0.11103879,-0.0076688584,-0.002126247,-0.016722856,0.25707388,-0.07711706,-0.22961225,-0.16254608,-0.0043945326,28.056198,0.1,0.18952638,0.18653305,0.11284423,0.08325548,inf,inf,inf,inf,1,1,1,1,2,2,2,2,2,0,1,1,0,0,0
566107070,566105430,68467874,59.396201899999994,24.6605964,2.2988977,-1.2601411,-2.6464596,-0.021752972,-0.012412676,-0.03908609,-0.028903482,0.01372143,-0.12410819,-0.11229653,-0.0076688584,-0.002126247,-0.016722856,-0.34665743,-0.19467059,-0.12703319,-0.16260289,-0.0043945326,28.056198,0.1,0.1902825,0.1871147,0.11328065,0.0834632,inf,inf,inf,inf,1,1,1,1,2,2,2,2,2,0,1,1,0,0,0
566118708,566115315,68467874,59.396201899999994,24.6605964,2.2987266,-1.2600623,-2.6472754,-0.021752972,-0.012412676,-0.03908609,-0.026523603,0.014649568,-0.124353476,-0.112245075,-0.0076688584,-0.002126247,-0.016722856,0.062851146,0.0014348315,-0.10226827,-0.16265206,-0.0043945326,28.056198,0.10794163,0.18175445,0.18096168,0.10821149,0.08114463,inf,inf,inf,inf,1,1,1,1,2,2,2,2,2,0,1,1,0,0,0
566126808,566125200,68467874,59.396201899999994,24.6605964,2.2985632,-1.2599853,-2.6481037,-0.021752972,-0.012412676,-0.03908609,-0.025496,0.014023424,-0.124188915,-0.1118016,-0.0076688584,-0.002126247,-0.016722856,0.19561228,0.028842408,-0.042076528,-0.16267188,-0.0043945326,28.056198,0.107678175,0.18245657,0.18151782,0.10863979,0.081351474,inf,inf,inf,inf,1,1,1,1,2,2,2,2,2,0,1,1,0,0,0
566137030,566135084,68467874,59.396201899999994,24.6605964,2.2984002,-1.2599043,-2.6489432,-0.021752972,-0.012412676,-0.03908609,-0.02787513,0.0140619185,-0.124062315,-0.11141328,-0.0076688584,-0.002126247,-0.016722856,-0.5300744,-0.08208222,-0.073364794,-0.16265112,-0.0043945326,28.056198,0.10741353,0.18316367,0.18207648,0.10907279,0.08155848,inf,inf,inf,inf,1,1,1,1,2,2,2,2,2,0,1,1,0,0,0
566146769,566144975,68467874,59.396201899999994,24.6605964,2.2982233,-1.2598218,-2.6498108,-0.021752972,-0.012412676,-0.03908609,-0.025950173,0.015014593,-0.12634031,-0.113446124,-0.0076688584,-0.002126247,-0.016722856,0.29666263,0.19007133,-0.13151917,-0.16258278,-0.0043945326,28.056198,0.10716152,0.18387577,0.18263766,0.109504566,0.081765346,inf,inf,inf,inf,1,1,1,1,2,2,2,2,2,0,1,1,0,0,0
566156806,566154854,68467874,59.396201899999994,24.6605964,2.2980566,-1.2597407,-2.6507025,-0.021752972,-0.012412676,-0.03908609,-0.025578842,0.014008752,-0.12764291,-0.11451952,-0.0076688584,-0.002126247,-0.016722856,0.11849506,0.053642735,-0.18362023,-0.16256665,-0.0043945326,28.056198,0.106928825,0.1845929,0.18320139,0.10993205,0.081972405,inf,inf,inf,inf,1,1,1,1,2,2,2,2,2,0,1,1,0,0,0
566166926,566164738,68467874,59.396201899999994,24.6605964,2.2978885,-1.2596618,-2.651722,-0.021752972,-0.012412676,-0.03908609,-0.027197732,0.01423938,-0.12739956,-0.114174105,-0.0076688584,-0.002126247,-0.016722856,-0.34909147,0.14343932,0.055501364,-0.16263878,-0.0043945326,28.056198,0.10407233,0.18531501,0.18351483,0.11036616,0.08212445,inf,inf,inf,inf,1,1,1,1,2,2,2,2,2,0,1,1,0,0,0
566177205,566174623,68467874,59.396201899999994,24.6605964,2.297705,-1.2595806,-2.6527517,-0.021752972,-0.012412676,-0.03908609,-0.026594857,0.014499553,-0.12853934,-0.115221776,-0.0076688584,-0.002126247,-0.016722856,0.2420377,0.21286605,-0.17202401,-0.16269353,-0.0043945326,28.056198,0.10394359,0.18604216,0.1840828,0.110801876,0.08233146,inf,inf,inf,inf,1,1,1,1,2,2,2,2,2,0,1,1,0,0,0
566185129,566184508,68467874,59.396201899999994,24.6605964,2.2975366,-1.259499,-2.6538029,-0.021752972,-0.012412676,-0.03908609,-0.02491927,0.013723695,-0.13017106,-0.11677099,-0.0076688584,-0.002126247,-0.016722856,0.10115714,0.014940988,-0.21638739,-0.16270612,-0.0043945326,28.056198,0.10383296,0.18677437,0.18465331,0.11122812,0.08253883,inf,inf,inf,inf,1,1,1,1,2,2,2,2,2,0,1,1,0,0,0
566194984,566194393,68467874,59.396201899999994,24.6605964,2.2973688,-1.2594228,-2.6548688,-0.021752972,-0.012412676,-0.03908609,-0.026263094,0.013327113,-0.12977576,-0.11630239,-0.0076688584,-0.002126247,-0.016722856,-0.23514077,0.08625112,0.082022436,-0.16269055,-0.0043945326,28.056198,0.10373235,0.18751161,0.18522634,0.11166506,0.08274631,inf,inf,inf,inf,1,1,1,1,2,2,2,2,2,0,1,1,0,0,0
566204852,566204278,68467874,59.396201899999994,24.6605964,2.297186,-1.2593459,-2.6559412,-0.021752972,-0.012412676,-0.03908609,-0.026558017,0.013633529,-0.13020213,-0.11666433,-0.0076688584,-0.002126247,-0.016722856,0.108643,0.116692014,-0.09714496,-0.16263796,-0.0043945326,28.056198,0.10362244,0.18825391,0.1858019,0.112100184,0.08295348,inf,inf,inf,inf,1,1,1,1,2,2,2,2,2,0,1,1,0,0,0
566214986,566214162,68467874,59.396201899999994,24.6605964,2.29701,-1.2592661,-2.657024,-0.021752972,-0.012412676,-0.03908609,-0.025071641,0.013365087,-0.13085812,-0.117264375,-0.0076688584,-0.002126247,-0.016722856,0.17330673,-0.028773975,-0.15124772,-0.16261551,-0.0043945326,28.056198,0.10351372,0.18900129,0.18637997,0.11253395,0.08316113,inf,inf,inf,inf,1,1,1,1,2,2,2,2,2,0,1,1,0,0,0
566224995,566224047,68467874,59.396201899999994,24.6605964,2.2968373,-1.2591839,-2.6582406,-0.021752972,-0.012412676,-0.03908609,-0.025826884,0.013246211,-0.13169788,-0.118176505,-0.0076688584,-0.002126247,-0.016722856,-0.105625324,-0.12842533,-0.074740574,-0.16264012,-0.0043945326,28.056198,0.10058761,0.18975374,0.18669441,0.112966776,0.08330958,inf,inf,inf,inf,1,1,1,1,2,2,2,2,2,0,1,1,0,0,0
566234832,566233932,68467874,59.396201899999994,24.6605964,2.2966528,-1.2591041,-2.6594615,-0.021752972,-0.012412676,-0.03908609,-0.026168952,0.013384452,-0.13156624,-0.11811989,-0.0076688584,-0.002126247,-0.016722856,0.13360307,0.027763665,-0.06471494,-0.16268402,-0.0043945326,28.056198,0.100602865,0.19051127,0.18727672,0.11339978,0.08351703,inf,inf,inf,inf,1,1,1,1,2,2,2,2,2,0,1,1,0,0,0
566244810,566243830,68467874,59.396201899999994,24.6605964,2.2964754,-1.2590264,-2.6606917,-0.021752972,-0.012412676,-0.03908609,-0.024872765,0.012597165,-0.13303655,-0.11966783,-0.0076688584,-0.002126247,-0.016722856,0.10503378,-0.05000554,-0.2674248,-0.1627358,-0.0043945326,28.056198,0.10061455,0.1912739,0.18786155,0.11384135,0.083724864,inf,inf,inf,inf,1,1,1,1,2,2,2,2,2,0,1,1,0,0,0
566254528,566253702,68467874,59.396201899999994,24.6605964,2.2963037,-1.2589477,-2.6619391,-0.021752972,-0.012412676,-0.03908609,-0.025239907,0.012983748,-0.13422489,-0.120936155,-0.0076688584,-0.002126247,-0.016722856,-0.14492764,0.002633825,-0.057450984,-0.16273686,-0.0043945326,28.056198,0.10062504,0.19204165,0.18844894,0.114280924,0.08393269,inf,inf,inf,inf,1,1,1,1,2,2,2,2,2,0,1,1,0,0,0
566264491,566263586,68467874,59.396201899999994,24.6605964,2.2961192,-1.2588645,-2.6631982,-0.021752972,-0.012412676,-0.03908609,-0.025630644,0.013150456,-0.13453057,-0.12132412,-0.0076688584,-0.002126247,-0.016722856,0.1591027,-0.06568564,-0.020306256,-0.16268143,-0.0043945326,28.056198,0.100637674,0.19281451,0.18903883,0.11471581,0.0841404,inf,inf,inf,inf,1,1,1,1,2,2,2,2,2,0,1,1,0,0,0
566274787,566273471,68467874,59.396201899999994,24.6605964,2.2958622,-1.2587721,-2.6640458,-0.021752972,-0.012412676,-0.03908609,-0.025756892,0.012636209,-0.13502973,-0.12147291,-0.0076688584,-0.002126247,-0.016722856,0.05178879,-0.07154842,-0.1841263,-0.16266766,-0.0043945326,28.056198,0.110708,0.18390009,0.1826851,0.10942109,0.08174523,inf,inf,inf,inf,1,1,1,1,2,2,2,2,2,0,1,1,0,0,0
566284051,566283356,68467874,59.396201899999994,24.6605964,2.29561,-1.2586821,-2.6649184,-0.021752972,-0.012412676,-0.03908609,-0.02561711,0.0124823665,-0.13644837,-0.1225619,-0.0076688584,-0.002126247,-0.016722856,-0.09088989,-0.036833428,-0.28676325,-0.16270782,-0.0043945326,28.056198,0.11036444,0.18461631,0.1832486,0.10985482,0.08195236,inf,inf,inf,inf,1,1,1,1,2,2,2,2,2,0,1,1,0,0,0
566293917,566293241,68467874,59.396201899999994,24.6605964,2.2953532,-1.2585921,-2.6659064,-0.021752972,-0.012412676,-0.03908609,-0.025864596,0.013155097,-0.13599823,-0.12189433,-0.0076688584,-0.002126247,-0.016722856,0.038899593,0.15857723,0.21016927,-0.16275361,-0.0043945326,28.056198,0.1078639,0.18533753,0.18356162,0.11028236,0.08210411,inf,inf,inf,inf,1,1,1,1,2,2,2,2,2,0,1,1,0,0,0
566303677,566303129,68467874,59.396201899999994,24.6605964,2.2951012,-1.2585018,-2.6668975,-0.021752972,-0.012412676,-0.03908609,-0.025304418,0.012312034,-0.13601704,-0.12171094,-0.0076688584,-0.002126247,-0.016722856,0.0045916354,-0.0026594875,-0.12894697,-0.16278122,-0.0043945326,28.056198,0.107622385,0.18606375,0.18412937,0.110713296,0.082311206,inf,inf,inf,inf,1,1,1,1,2,2,2,2,2,0,1,1,0,0,0
566314066,566313013,68467874,59.396201899999994,24.6605964,2.2948568,-1.2584103,-2.667904,-0.021752972,-0.012412676,-0.03908609,-0.024342727,0.012693023,-0.13611788,-0.12162428,-0.0076688584,-0.002126247,-0.016722856,0.09181566,-0.023859957,0.026738157,-0.1627795,-0.0043945326,28.056198,0.10738993,0.18679501,0.18469965,0.11114522,0.08251852,inf,inf,inf,inf,1,1,1,1,2,2,2,2,2,0,1,1,0,0,0
566323604,566322895,68467874,59.396201899999994,24.6605964,2.2946076,-1.2583214,-2.6689258,-0.021752972,-0.012412676,-0.03908609,-0.025702856,0.012059125,-0.13683453,-0.1221676,-0.0076688584,-0.002126247,-0.016722856,-0.0029105358,-0.06930057,-0.010303302,-0.16274683,-0.0043945326,28.056198,0.10716343,0.1875313,0.18527246,0.1115792,0.082725726,inf,inf,inf,inf,1,1,1,1,2,2,2,2,2,0,1,1,0,0,0
566333807,566332780,68467874,59.396201899999994,24.6605964,2.2943642,-1.2582324,-2.669958,-0.021752972,-0.012412676,-0.03908609,-0.024648558,0.012044079,-0.13639593,-0.12156928,-0.0076688584,-0.002126247,-0.016722856,-0.066866115,-0.09080353,0.034950234,-0.1627075,-0.0043945326,28.056198,0.10694146,0.18827266,0.18584777,0.11201019,0.08293304,inf,inf,inf,inf,1,1,1,1,2,2,2,2,2,0,1,1,0,0,0
566343658,566342665,68467874,59.396201899999994,24.6605964,2.2941217,-1.258144,-2.6710079,-0.021752972,-0.012412676,-0.03908609,-0.024798157,0.012519412,-0.13753198,-0.1225587,-0.0076688584,-0.002126247,-0.016722856,-0.0033914114,0.09179535,0.02094893,-0.16272771,-0.0043945326,28.056198,0.10672617,0.18901905,0.18642564,0.112447806,0.08314059,inf,inf,inf,inf,1,1,1,1,2,2,2,2,2,0,1,1,0,0,0
566354169,566352550,68467874,59.396201899999994,24.6605964,2.2938254,-1.2581162,-2.6716137,-0.021752972,-0.012412676,-0.03908609,-0.025801467,0.012030095,-0.13920328,-0.12360947,-0.0076688584,-0.002126247,-0.016722856,-0.19447014,0.05952804,-0.27587146,-0.16279455,-0.0043945326,28.056198,0.11774802,0.1806876,0.18034601,0.107510306,0.080854945,inf,inf,inf,inf,1,1,1,1,2,2,2,2,2,0,1,1,0,0,0
566363322,566362434,68467874,59.396201899999994,24.6605964,2.2935288,-1.2580874,-2.6723351,-0.021752972,-0.012412676,-0.03908609,-0.024704397,0.011537186,-0.13840042,-0.12230619,-0.0076688584,-0.002126247,-0.016722856,0.14964847,-0.08822436,0.04336172,-0.16284777,-0.0043945326,28.056198,0.11510897,0.1813815,0.18065758,0.107936494,0.081009865,inf,inf,inf,inf,1,1,1,1,2,2,2,2,2,0,1,1,0,0,0
566372950,566372319,68467874,59.396201899999994,24.6605964,2.2932389,-1.258059,-2.673077,-0.021752972,-0.012412676,-0.03908609,-0.024927506,0.012044416,-0.13947295,-0.12290636,-0.0076688584,-0.002126247,-0.016722856,-0.030198922,0.12413016,-0.15384306,-0.16285248,-0.0043945326,28.056198,0.114616394,0.18208034,0.18121207,0.10836574,0.08121659,inf,inf,inf,inf,1,1,1,1,2,2,2,2,2,0,1,1,0,0,0
566382859,566382204,68467874,59.396201899999994,24.6605964,2.292951,-1.2580247,-2.6738403,-0.021752972,-0.012412676,-0.03908609,-0.02536284,0.01242907,-0.13910584,-0.12209395,-0.0076688584,-0.002126247,-0.016722856,-0.19945854,0.08687076,-0.036314875,-0.1628122,-0.0043945326,28.056198,0.11413193,0.18278414,0.18176907,0.108797215,0.08142339,inf,inf,inf,inf,1,1,1,1,2,2,2,2,2,0,1,1,0,0,0
566392701,566392089,68467874,59.396201899999994,24.6605964,2.2926598,-1.2579906,-2.674619,-0.021752972,-0.012412676,-0.03908609,-0.025046755,0.011433703,-0.13882804,-0.12139698,-0.0076688584,-0.002126247,-0.016722856,0.045090623,-0.074196115,-0.03970027,-0.16277996,-0.0043945326,28.056198,0.11365771,0.18349296,0.1823286,0.10922268,0.08163022,inf,inf,inf,inf,1,1,1,1,2,2,2,2,2,0,1,1,0,0,0
566402681,566401973,68467874,59.396201899999994,24.6605964,2.292378,-1.2579573,-2.6754198,-0.021752972,-0.012412676,-0.03908609,-0.025285136,0.011155808,-0.13953978,-0.12171471,-0.0076688584,-0.002126247,-0.016722856,-0.30781326,-0.120798856,-0.091535285,-0.16276492,-0.0043945326,28.056198,0.11320448,0.18420675,0.18289067,0.10965232,0.08183726,inf,inf,inf,inf,1,1,1,1,2,2,2,2,2,0,1,1,0,0,0
566412827,566411860,68467874,59.396201899999994,24.6605964,2.2920878,-1.2579242,-2.676241,-0.021752972,-0.012412676,-0.03908609,-0.025153102,0.011112518,-0.13925368,-0.12105885,-0.0076688584,-0.002126247,-0.016722856,0.0944167,-0.10895223,0.037208073,-0.16280901,-0.0043945326,28.056198,0.11276674,0.18492554,0.18345524,0.110081926,0.08204437,inf,inf,inf,inf,1,1,1,1,2,2,2,2,2,0,1,1,0,0,0
566422565,566421747,68467874,59.396201899999994,24.6605964,2.2918026,-1.2578919,-2.6771939,-0.021752972,-0.012412676,-0.03908609,-0.024805604,0.010905724,-0.13986225,-0.12143743,-0.0076688584,-0.002126247,-0.016722856,0.09528299,-0.053503647,-0.12916088,-0.16285071,-0.0043945326,28.056198,0.10959816,0.18564935,0.18376851,0.11051285,0.0821959,inf,inf,inf,inf,1,1,1,1,2,2,2,2,2,0,1,1,0,0,0
566432413,566431627,68467874,59.396201899999994,24.6605964,2.2915275,-1.2578614,-2.678166,-0.021752972,-0.012412676,-0.03908609,-0.023438184,0.011209349,-0.14033669,-0.12169935,-0.0076688584,-0.002126247,-0.016722856,0.20253909,0.12130071,-0.023485793,-0.16286938,-0.0043945326,28.056198,0.109294176,0.18637818,0.18433736,0.110941604,0.08240317,inf,inf,inf,inf,1,1,1,1,2,2,2,2,2,0,1,1,0,0,0
566442501,566441512,68467874,59.396201899999994,24.6605964,2.2912467,-1.2578272,-2.6791544,-0.021752972,-0.012412676,-0.03908609,-0.025288098,0.01140247,-0.14086951,-0.122036494,-0.0076688584,-0.002126247,-0.016722856,0.07172222,0.13252963,-0.1314755,-0.16285016,-0.0043945326,28.056198,0.10899997,0.18711203,0.18490873,0.11137652,0.0826104,inf,inf,inf,inf,1,1,1,1,2,2,2,2,2,0,1,1,0,0,0
