timestamp,timestamp_sample,device_id,x,y,z,temperature,error_count,clip_counter[0],clip_counter[1],clip_counter[2],samples
564935683,564935315,2490386,-1.0172963,0.16352397,-9.979511,51.65459,0,0,0,0,10
564936945,564936551,2490386,-0.88992476,0.09624691,-10.031226,51.61836,0,0,0,0,10
564938071,564937787,2490386,-0.84108305,0.28293478,-9.39407,51.74517,0,0,0,0,10
564939332,564939022,2490386,-0.8841787,0.22337902,-9.79037,51.70894,0,0,0,0,10
564940566,564940258,2490386,-1.0939108,0.11731589,-10.196905,51.57005,0,0,0,0,10
564941905,564941493,2490386,-0.75680715,0.13263878,-9.589736,51.630436,0,0,0,0,10
564943159,564942730,2490386,-1.0199299,0.39432502,-9.562442,51.7029,0,0,0,0,10
564944337,564943965,2490386,-0.9232042,0.16304514,-9.902179,51.630436,0,0,0,0,10
564945569,564945202,2490386,-1.0074801,0.07230489,-10.148542,51.57005,0,0,0,0,10
564946832,564946436,2490386,-0.761835,0.236188,-9.3318205,51.497585,0,0,0,0,10
564948068,564947674,2490386,-0.9533711,0.27437553,-9.816945,51.52778,0,0,0,0,10
564949320,564948907,2490386,-1.0230424,0.08020576,-10.081265,51.69686,0,0,0,0,10
564950640,564950143,2490386,-0.84299845,0.107739076,-9.7738495,51.66063,0,0,0,0,10
564951896,564951378,2490386,-0.93738985,0.36750996,-9.433394,51.678745,0,0,0,0,10
564952811,564952614,2490386,-0.9495404,0.21452047,-9.90577,51.690823,0,0,0,0,10
564956509,564956320,2490386,-1.1602302,0.9938331,-9.623973,51.648552,0,0,0,0,10
564961469,564961263,2490386,-0.88034797,-0.3406949,-10.107122,51.455315,0,0,0,0,10
564962708,564962499,2490386,-1.3227965,0.8937555,-9.779356,51.61836,0,0,0,0,10
564966390,564966205,2490386,-1.3223176,0.13359645,-9.8262825,51.624397,0,0,0,0,10
564971356,564971148,2490386,-1.1484985,-0.061770406,-10.259394,51.74517,0,0,0,0,10
564973821,564973619,2490386,-0.8252813,0.34476504,-9.717107,51.727055,0,0,0,0,10
564977525,564977326,2490386,-0.8461109,0.05626374,-9.782948,51.781403,0,0,0,0,10
564981221,564981033,2490386,-0.7699753,0.13215993,-9.625409,51.666668,0,0,0,0,10
564984925,564984740,2490386,-0.7369353,0.06488287,-10.173921,51.65459,0,0,0,0,10
564988635,564988446,2490386,-1.0105926,2.5574863,-9.86866,51.594204,0,0,0,0,10
564991115,564990917,2490386,-1.694616,0.631351,-9.955569,51.65459,0,0,0,0,10
564994827,564994625,2490386,-1.1408371,0.074220255,-9.321345,51.666668,0,0,0,0,10
564998520,564998331,2490386,-1.7702727,-0.12306197,-9.653421,51.557972,0,0,0,0,10
565002223,565002038,2490386,-1.7848774,1.5344439,-9.233718,51.624397,0,0,0,0,10
565005943,565005746,2490386,-0.7335834,0.7553706,-9.900024,51.630436,0,0,0,0,10
565008409,565008216,2490386,-0.57819974,0.7493851,-9.603382,51.75121,0,0,0,0,10
565012192,565011923,2490386,-0.12761095,-0.24013843,-9.585905,51.678745,0,0,0,0,10
565015924,565015633,2490386,-1.438197,-0.0014365211,-9.179369,51.678745,0,0,0,0,10
565019622,565019337,2490386,-1.4176068,0.52289367,-10.252212,51.70894,0,0,0,0,10
565023403,565023043,2490386,-0.52648497,1.1731589,-9.754696,51.449276,0,0,0,0,10
565025861,565025514,2490386,-0.34596214,-0.3394978,-10.20313,51.636475,0,0,0,0,10
565029626,565029224,2490386,-0.7548918,0.04094085,-9.281841,51.727055,0,0,0,0,10
565033255,565032928,2490386,-1.54019,-0.009337387,-10.464816,51.69686,0,0,0,0,10
565037012,565036635,2490386,-1.7796102,0.88369983,-9.869857,51.69686,0,0,0,0,10
565040723,565040342,2490386,-0.43580458,1.100375,-8.9272,51.630436,0,0,0,0,10
565045490,565045284,2490386,-0.78817123,-0.5260061,-10.8165245,51.74517,0,0,0,0,10
565046703,565046520,2490386,-1.120247,0.34380737,-9.841605,51.61836,0,0,0,0,10
565050416,565050226,2490386,-1.2562376,0.15705964,-11.025299,51.648552,0,0,0,0,10
565055383,565055169,2490386,-1.6857574,1.4858416,-10.079589,51.52174,0,0,0,0,10
565057826,565057640,2490386,-0.7750031,2.2670696,-9.895475,51.61232,0,0,0,0,10
565061528,565061347,2490386,-0.9150639,-0.28491,-9.699869,51.636475,0,0,0,0,10
565065242,565065054,2490386,-0.13479356,-0.9342175,-10.620679,51.61232,0,0,0,0,10
565068955,565068761,2490386,-1.327106,1.3872005,-9.985019,51.678745,0,0,0,0,10
565071422,565071232,2490386,-1.0292673,0.83581585,-11.526166,51.624397,0,0,0,0,10
565075128,565074942,2490386,-0.4699818,0.82534117,-8.849508,51.56401,0,0,0,0,10
565078839,565078652,2490386,-1.1456255,0.52528787,-9.471702,51.57005,0,0,0,0,10
565082560,565082352,2490386,-0.9287109,1.0266337,-9.64576,51.690823,0,0,0,0,10
565086245,565086059,2490386,-1.8035522,0.9888053,-8.671799,51.642513,0,0,0,0,10
565089973,565089766,2490386,-1.1575966,-0.044292733,-10.637198,51.61836,0,0,0,0,10
565092449,565092239,2490386,-1.7044921,0.5767632,-8.064689,51.7029,0,0,0,0,10
565096143,565095944,2490386,-0.66534865,0.8480263,-10.586681,51.582127,0,0,0,0,10
565099856,565099651,2490386,-0.62464726,-0.5796362,-10.584047,51.727055,0,0,0,0,10
565103572,565103365,2490386,-1.8846557,1.211047,-9.08007,51.666668,0,0,0,0,10
565106035,565105829,2490386,-1.1142615,0.0059855045,-10.189723,51.57005,0,0,0,0,10
565109791,565109537,2490386,-0.88202393,0.598311,-8.946893,51.7029,0,0,0,0,10
565113654,565113242,2490386,-0.6895301,0.5681441,-9.132443,51.52174,0,0,0,0,10
565117390,565116952,2490386,-0.4036624,0.79367787,-9.803778,51.7029,0,0,0,0,10
565121073,565120656,2490386,-0.2789245,-0.24732104,-10.901998,51.485508,0,0,0,0,10
565124681,565124363,2490386,-1.4453796,0.4072537,-9.041943,51.467392,0,0,0,0,10
565128435,565128069,2490386,-1.1031883,1.0345944,-9.284595,51.594204,0,0,0,0,10
565131020,565130541,2490386,-1.2804191,1.1422737,-9.586144,51.74517,0,0,0,0,10
565135667,565135483,2490386,-1.3515269,0.0016759412,-8.762539,51.551933,0,0,0,0,10
565138138,565137954,2490386,-0.92775315,0.4156334,-10.66162,51.66063,0,0,0,0,10
565141851,565141661,2490386,-1.1382035,0.39336735,-9.399397,51.47947,0,0,0,0,10
565145589,565145368,2490386,-2.1593306,-0.4984728,-8.713937,51.582127,0,0,0,0,10
565149274,565149075,2490386,-0.3502717,-0.37756562,-9.852859,51.66063,0,0,0,0,10
565151734,565151546,2490386,-1.1638215,0.8396465,-10.1427965,51.66063,0,0,0,0,10
565155462,565155264,2490386,-0.8305486,-0.117076464,-10.440874,51.509663,0,0,0,0,10
565159154,565158960,2490386,-0.9387665,1.5559916,-10.077435,51.57005,0,0,0,0,10
565162853,565162666,2490386,-1.4030023,1.1722012,-9.403227,51.588165,0,0,0,0,10
565166565,565166373,2490386,-1.9211074,0.9842563,-9.048646,51.74517,0,0,0,0,10
565170279,565170080,2490386,-0.36224273,-1.0206482,-9.961316,51.57005,0,0,0,0,10
565173978,565173787,2490386,-0.18555063,0.05482722,-10.163865,51.60628,0,0,0,0,10
565176484,565176258,2490386,-1.2677298,1.2931083,-10.081505,51.678745,0,0,0,0,10
565180172,565179965,2490386,-0.9775526,-0.5037401,-9.511445,51.65459,0,0,0,0,10
565183857,565183672,2490386,-0.9461885,0.4297592,-9.540894,51.721016,0,0,0,0,10
565187564,565187379,2490386,-1.3520057,0.37876272,-9.91798,51.533817,0,0,0,0,10
565191301,565191085,2490386,-1.6637307,0.50230354,-9.424296,51.763287,0,0,0,0,10
565194977,565194792,2490386,-0.9921572,0.49248728,-9.910559,51.66063,0,0,0,0,10
565197449,565197263,2490386,-0.78745294,0.09648633,-9.400833,51.672707,0,0,0,0,10
565201243,565200970,2490386,-0.31794998,0.028969841,-10.221326,51.65459,0,0,0,0,10
565206243,565205926,2490386,-0.71730286,0.41371804,-8.901881,51.56401,0,0,0,0,10
565208807,565208385,2490386,-0.35290533,0.6138733,-9.46811,51.811596,0,0,0,0,10
565212559,565212091,2490386,-0.52409077,-0.28083986,-10.945093,51.624397,0,0,0,0,10
565216093,565215797,2490386,-0.8276755,0.3713407,-9.048167,51.594204,0,0,0,0,10
565218631,565218279,2490386,-1.3096284,0.2681506,-9.996032,51.763287,0,0,0,0,10
565222369,565221975,2490386,-1.4475343,0.24372974,-9.985019,51.47343,0,0,0,0,10
565226092,565225688,2490386,-1.4018052,1.162385,-9.912474,51.57005,0,0,0,0,10
565229572,565229389,2490386,-1.2935872,1.1587937,-9.322303,51.727055,0,0,0,0,10
565233283,565233096,2490386,-1.9677944,0.3560178,-10.877816,51.739132,0,0,0,0,10
565235773,565235567,2490386,-0.6907272,0.10510545,-9.821973,51.61836,0,0,0,0,10
565239502,565239278,2490386,-1.4908694,-0.063925184,-10.662578,51.666668,0,0,0,0,10
565243190,565242981,2490386,-1.2282255,-0.9842563,-10.943178,51.47947,0,0,0,0,10
565246869,565246687,2490386,-1.3071743,-0.24774003,-8.311352,51.636475,0,0,0,0,10
565250590,565250394,2490386,-1.0292673,0.52624553,-10.0341,51.642513,0,0,0,0,10
565254295,565254101,2490386,-0.84658974,-0.08212112,-11.566388,51.678745,0,0,0,0,10
565257996,565257808,2490386,-0.6500258,1.0443507,-8.790791,51.642513,0,0,0,0,10
565260485,565260279,2490386,-0.5980716,-0.048123457,-10.704955,51.630436,0,0,0,0,10
565264178,565263986,2490386,-0.7735666,-0.2135628,-10.677661,51.557972,0,0,0,0,10
565267896,565267693,2490386,-0.20398599,0.36583403,-8.925105,51.714977,0,0,0,0,10
565271580,565271399,2490386,-0.94642794,0.16112977,-9.131724,51.66063,0,0,0,0,10
565275296,565275106,2490386,-1.4243106,0.5125986,-10.213665,51.672707,0,0,0,0,10
565279014,565278813,2490386,-0.7347805,0.15155298,-9.283038,51.65459,0,0,0,0,10
565281465,565281284,2490386,-0.90021986,0.70509243,-9.304108,51.666668,0,0,0,0,10
565286432,565286229,2490386,-0.19177556,-0.25809494,-11.03296,51.52778,0,0,0,0,10
565288881,565288698,2490386,-1.4951789,-0.27030537,-9.384313,51.678745,0,0,0,0,10
565292703,565292405,2490386,-0.9835381,-0.26647466,-8.944498,51.539856,0,0,0,0,10
565297647,565297347,2490386,-0.9959879,0.5465962,-9.465477,51.582127,0,0,0,0,10
565298889,565298583,2490386,-0.6327277,0.17381905,-7.7889967,51.678745,0,0,0,0,10
565302690,565302289,2490386,-1.4913483,-0.5341464,-9.182482,51.582127,0,0,0,0,10
565307518,565307232,2490386,-1.7154455,0.6469133,-9.127655,51.60628,0,0,0,0,10
565310038,565309703,2490386,-0.9435549,0.23678654,-10.758585,51.690823,0,0,0,0,10
565313882,565313410,2490386,-0.63111156,-0.5932832,-9.278968,51.642513,0,0,0,0,10
565317614,565317117,2490386,-1.0948684,-0.18698716,-10.570161,51.630436,0,0,0,0,10
565320038,565319588,2490386,-1.2579136,0.631351,-9.091742,51.66063,0,0,0,0,10
565323478,565323295,2490386,-0.6086061,-0.17669208,-9.643845,51.739132,0,0,0,0,10
565327191,565327001,2490386,-1.3828909,-0.9035717,-11.238144,51.672707,0,0,0,0,10
565330974,565330714,2490386,-1.3673286,-0.077093296,-10.651803,51.69686,0,0,0,0,10
565334610,565334417,2490386,-1.7853563,-0.19847932,-9.9900465,51.65459,0,0,0,0,10
565338306,565338122,2490386,-1.7749414,0.28437132,-9.210973,51.588165,0,0,0,0,10
565340782,565340593,2490386,-0.89782566,0.16927007,-11.116279,51.648552,0,0,0,0,10
565346981,565346771,2490386,-1.409706,-0.06607997,-8.456321,51.588165,0,0,0,0,10
565348213,565348007,2490386,-0.9756372,0.27605146,-9.468349,51.600243,0,0,0,0,10
565351912,565351714,2490386,-1.5322891,-0.23678654,-10.028354,51.672707,0,0,0,0,10
565356846,565356656,2490386,-1.7776948,1.3239936,-9.539936,51.672707,0,0,0,0,10
565358095,565357893,2490386,-0.88393927,-0.7915231,-10.249338,51.69686,0,0,0,0,10
565361786,565361598,2490386,-1.3869611,-0.0028730421,-9.612001,51.714977,0,0,0,0,10
565366729,565366541,2490386,-1.2512099,0.27317843,-9.520064,51.666668,0,0,0,0,10
565369204,565369012,2490386,-0.12946646,0.3866037,-9.13777,51.70894,0,0,0,0,10
565372908,565372719,2490386,-0.029209262,0.023463177,-9.299559,51.624397,0,0,0,0,10
565376615,565376428,2490386,-0.61554927,0.35434186,-10.434649,51.70894,0,0,0,0,10
565380374,565380144,2490386,-1.813129,-0.35529953,-11.176613,51.66063,0,0,0,0,10
565382804,565382604,2490386,-1.1279085,0.17597383,-8.594227,51.66063,0,0,0,0,10
565386558,565386311,2490386,-0.5477933,1.1058818,-8.395747,51.60628,0,0,0,0,10
565390357,565390017,2490386,-0.58538234,0.10342951,-10.250056,51.684784,0,0,0,0,10
565394089,565393725,2490386,-1.397735,-0.3313575,-11.745954,51.600243,0,0,0,0,10
565397824,565397431,2490386,-1.4690822,-0.32848448,-10.1226845,51.666668,0,0,0,0,10
565400289,565399902,2490386,-0.32716766,0.22547394,-8.806772,51.757248,0,0,0,0,10
565404001,565403609,2490386,0.06416461,1.2734759,-9.616072,51.60628,0,0,0,0,10
565407707,565407316,2490386,-0.75201875,0.18004397,-10.564176,51.666668,0,0,0,0,10
565411521,565411023,2490386,-0.8616732,0.8154651,-10.416453,51.600243,0,0,0,0,10
565416174,565415965,2490386,-0.48506528,-0.341892,-10.283575,51.557972,0,0,0,0,10
565418628,565418436,2490386,-1.3321339,0.9648633,-10.602962,51.642513,0,0,0,0,10
565421134,565420907,2490386,-0.4283227,0.33734304,-9.1175995,51.594204,0,0,0,0,10
565426040,565425850,2490386,-0.0061052144,1.012029,-8.992802,51.7029,0,0,0,0,10
565428513,565428321,2490386,-1.9431341,0.23223756,-10.834242,51.52174,0,0,0,0,10
565432223,565432028,2490386,-1.970428,0.27150247,-11.146924,51.714977,0,0,0,0,10
565435921,565435735,2490386,-1.5107412,0.39408562,-8.790312,51.5157,0,0,0,0,10
565439629,565439441,2490386,-0.16250645,0.60968345,-7.092224,51.65459,0,0,0,0,10
565442095,565441912,2490386,-1.6936584,-0.59615624,-12.147461,51.545895,0,0,0,0,10
565447054,565446855,2490386,-1.0699687,0.14844051,-11.292971,51.630436,0,0,0,0,10
565450776,565450562,2490386,-1.0515333,1.0654198,-9.946471,51.66063,0,0,0,0,10
565453218,565453033,2490386,-1.1674128,0.83222455,-9.304108,51.684784,0,0,0,0,10
565456946,565456740,2490386,-0.5638345,-0.11659762,-10.082702,51.75121,0,0,0,0,10
565460635,565460447,2490386,-1.0364499,0.1625663,-10.23186,51.61836,0,0,0,0,10
565466812,565466625,2490386,-1.2078748,0.28634652,-9.587581,51.56401,0,0,0,0,10
565468049,565467861,2490386,-1.6462531,-0.037828386,-11.082281,51.600243,0,0,0,0,10
565470569,565470337,2490386,-1.5081077,0.8248025,-9.251435,51.60628,0,0,0,0,10
565476809,565476509,2490386,-1.5725117,0.78649527,-10.686041,51.684784,0,0,0,0,10
565478084,565477745,2490386,0.17764977,-0.11779472,-10.153331,51.65459,0,0,0,0,10
565480577,565480216,2490386,-1.7338809,0.62704146,-10.456436,51.69686,0,0,0,0,10
565486769,565486402,2490386,-0.8456321,-0.54994816,-9.67018,51.61836,0,0,0,0,10
565488045,565487630,2490386,-0.94163954,1.1075578,-9.056787,51.666668,0,0,0,0,10
565491693,565491337,2490386,0.12401965,0.5645528,-10.19882,51.576088,0,0,0,0,10
565496624,565496279,2490386,-0.29496565,0.8228871,-8.494389,51.557972,0,0,0,0,10
565499213,565498750,2490386,-1.5674839,0.39743748,-11.052593,51.594204,0,0,0,0,10
565502895,565502457,2490386,-1.0508151,0.38139632,-10.796653,51.576088,0,0,0,0,10
565507589,565507399,2490386,-0.6562507,0.3311181,-11.2637615,51.551933,0,0,0,0,10
565508836,565508639,2490386,-0.6162675,-0.4118027,-9.419987,51.666668,0,0,0,0,10
565512570,565512342,2490386,-1.1190499,-0.18962078,-10.794977,51.733093,0,0,0,0,10
565516289,565516049,2490386,-1.7578229,-0.3157952,-9.393171,51.65459,0,0,0,0,10
565519955,565519756,2490386,-2.1499932,0.09289502,-8.586086,51.666668,0,0,0,0,10
565523653,565523463,2490386,-0.87867206,-0.500867,-8.8120985,51.594204,0,0,0,0,10
565526115,565525933,2490386,0.5975928,0.30214825,-9.671139,51.557972,0,0,0,0,10
565529833,565529640,2490386,-1.4341269,1.4362816,-10.4152565,51.539856,0,0,0,0,10
565533531,565533347,2490386,-1.6328455,1.2016499,-10.364499,51.57005,0,0,0,0,10
565537261,565537054,2490386,-0.40701428,-0.15993267,-11.353784,51.545895,0,0,0,0,10
565540949,565540761,2490386,-0.4271256,-0.24085669,-10.087011,51.61836,0,0,0,0,10
565544681,565544468,2490386,-1.2428302,0.24157496,-8.535808,51.5157,0,0,0,0,10
565547152,565546944,2490386,-1.3919889,0.2492364,-10.546698,51.75121,0,0,0,0,10
565550844,565550646,2490386,-1.2389994,1.3290213,-10.226832,51.57005,0,0,0,0,10
565554538,565554352,2490386,-0.5707777,-0.0545878,-9.508812,51.65459,0,0,0,0,10
565558264,565558062,2490386,-0.5270835,0.010414777,-8.25413,51.74517,0,0,0,0,10
565561956,565561766,2490386,-0.75153995,0.7750031,-8.917684,51.551933,0,0,0,0,10
565565657,565565473,2490386,-0.9957485,-0.39240965,-11.278605,51.630436,0,0,0,0,10
565569461,565569179,2490386,-0.64140666,-0.56000376,-11.244129,51.576088,0,0,0,0,10
565571915,565571651,2490386,-1.2264897,0.3548207,-8.911638,51.600243,0,0,0,0,10
565577028,565576593,2490386,-0.770933,0.49296615,-9.091263,51.672707,0,0,0,0,10
565579439,565579064,2490386,-1.2871228,0.9318233,-9.526768,51.491547,0,0,0,0,10
565583050,565582771,2490386,-0.66965824,0.05746084,-9.4968405,51.630436,0,0,0,0,10
565586843,565586478,2490386,-0.48314992,-0.24013843,-9.940247,51.61836,0,0,0,0,10
565590680,565590185,2490386,-1.0769119,0.63542116,-11.701422,51.52778,0,0,0,0,10
565594305,565593895,2490386,-1.1259931,0.5729325,-10.942699,51.600243,0,0,0,0,10
565596550,565596363,2490386,-0.7414843,-0.041180268,-8.139688,51.57005,0,0,0,0,10
565600268,565600069,2490386,-1.0311826,-0.58777654,-11.651143,51.636475,0,0,0,0,10
565603975,565603776,2490386,-1.2272679,-0.20254947,-10.713573,51.648552,0,0,0,0,10
565607709,565607484,2490386,-1.753274,1.0721235,-10.629298,51.557972,0,0,0,0,10
565610198,565609958,2490386,-0.5980716,0.39791632,-8.763736,51.594204,0,0,0,0,10
565613877,565613665,2490386,-1.2713212,0.4307169,-9.978793,51.52778,0,0,0,0,10
565617556,565617368,2490386,-0.83868885,0.06895301,-10.505757,51.509663,0,0,0,0,10
565621262,565621075,2490386,-0.49200845,0.39815575,-10.080787,51.666668,0,0,0,0,10
565624973,565624782,2490386,-0.9311051,0.75561005,-10.489476,51.61836,0,0,0,0,10
565628695,565628489,2490386,-0.9981427,-0.051235918,-10.139205,51.5157,0,0,0,0,10
565631171,565630960,2490386,-1.1324574,0.6931214,-10.029072,51.69686,0,0,0,0,10
565637330,565637138,2490386,-1.4358028,0.37995982,-9.336908,51.545895,0,0,0,0,10
565638554,565638373,2490386,-0.87412304,0.5995081,-9.970654,51.497585,0,0,0,0,10
565642266,565642080,2490386,-2.2124817,0.6603208,-9.843282,51.642513,0,0,0,0,10
565645982,565645787,2490386,-0.86334914,-0.6002264,-9.859083,51.642513,0,0,0,0,10
565649696,565649494,2490386,-0.31591493,0.13431472,-8.569147,51.557972,0,0,0,0,10
565652146,565651965,2490386,-1.6393099,0.557849,-10.802638,51.57005,0,0,0,0,10
565655873,565655672,2490386,-1.5313314,0.28538886,-10.652761,51.642513,0,0,0,0,10
565659619,565659379,2490386,-0.5975928,0.31986535,-10.689871,51.557972,0,0,0,0,10
565663349,565663085,2490386,-0.37397432,-0.42592847,-9.798031,51.533817,0,0,0,0,10
565667108,565666792,2490386,-0.50397944,0.32010478,-8.786002,51.66063,0,0,0,0,10
565670959,565670501,2490386,-1.6716317,0.19967642,-10.164104,51.582127,0,0,0,0,10
565673371,565672970,2490386,-0.5114015,0.76111674,-10.222762,51.69686,0,0,0,0,10
565676993,565676682,2490386,-0.448434,-0.1340753,-9.26604,51.56401,0,0,0,0,10
565680867,565680384,2490386,-1.1678916,0.6880936,-8.958863,51.630436,0,0,0,0,10
565684477,565684090,2490386,-1.4142549,0.36152446,-9.44345,51.74517,0,0,0,0,10
565688224,565687801,2490386,-1.3019669,0.2135628,-9.460448,51.61836,0,0,0,0,10
565691688,565691504,2490386,-1.0381259,0.790326,-10.030747,51.666668,0,0,0,0,10
565694156,565693975,2490386,-0.24504654,-0.85365266,-8.950723,51.600243,0,0,0,0,10
565697894,565697682,2490386,-1.291193,0.08451532,-9.79037,51.57005,0,0,0,0,10
565702812,565702624,2490386,-1.1942278,0.48602295,-10.5625,51.57005,0,0,0,0,10
565707756,565707567,2490386,-0.88992476,0.78697413,-11.290097,51.600243,0,0,0,0,10
565709019,565708803,2490386,-0.61171854,-0.5602432,-8.917684,51.630436,0,0,0,0,10
565712717,565712510,2490386,-1.7640479,-0.6842629,-10.946769,51.642513,0,0,0,0,10
565717644,565717455,2490386,-1.7779342,0.4498705,-10.799766,51.52778,0,0,0,0,10
565720139,565719923,2490386,-1.0386047,0.20087352,-9.2561035,51.52778,0,0,0,0,10
565722586,565722398,2490386,-0.56982,-0.060812723,-10.8103,51.497585,0,0,0,0,10
565726289,565726101,2490386,-0.9411607,0.8583213,-11.001596,51.545895,0,0,0,0,10
565730019,565729814,2490386,-1.6117766,2.4540567,-9.239943,51.509663,0,0,0,0,10
565733699,565733515,2490386,0.47716442,-0.14335282,-7.7943835,51.600243,0,0,0,0,10
565737403,565737221,2490386,-0.18698716,0.99957925,-9.343133,51.557972,0,0,0,0,10
565739889,565739693,2490386,-1.4053965,0.08092402,-10.712137,51.497585,0,0,0,0,10
565743584,565743399,2490386,-0.6754043,0.30765492,-9.387665,51.60628,0,0,0,0,10
565747303,565747107,2490386,-0.70186025,-0.24540567,-8.861239,51.600243,0,0,0,0,10
565751124,565750813,2490386,-0.60333884,-1.0445902,-9.655336,51.557972,0,0,0,0,10
565754786,565754520,2490386,-1.133894,-0.517387,-9.9486265,51.52174,0,0,0,0,10
565758559,565758227,2490386,-0.88322103,-0.20446482,-9.843521,51.57005,0,0,0,0,10
565761057,565760698,2490386,-1.1176133,1.3184869,-9.291179,51.539856,0,0,0,0,10
565764796,565764407,2490386,-1.2665327,0.32561144,-10.167935,51.467392,0,0,0,0,10
565768396,565768111,2490386,-1.3704411,0.32082304,-9.694123,51.582127,0,0,0,0,10
565772259,565771820,2490386,-0.036631286,1.3735535,-9.780075,51.455315,0,0,0,0,10
565777228,565776766,2490386,-1.0149021,-0.9672575,-9.5796795,51.557972,0,0,0,0,10
565778473,565777996,2490386,-1.749922,1.6203958,-9.864829,51.5157,0,0,0,0,10
565781893,565781704,2490386,-0.68641764,0.19177556,-9.445365,51.34662,0,0,0,0,10
565786838,565786645,2490386,-0.5626374,0.6964733,-9.445126,51.557972,0,0,0,0,10
565789346,565789131,2490386,-0.6603208,-0.29472622,-9.743683,51.545895,0,0,0,0,10
565799196,565799003,2490386,0.09870096,-0.47722426,-8.285435,51.443237,0,0,0,0,10
565800428,565800237,2490386,-1.7611748,0.34045547,-10.568246,51.400967,0,0,0,0,10
565801654,565801472,2490386,-0.8944738,0.43885717,-10.358993,51.551933,0,0,0,0,10
565802897,565802708,2490386,-0.9938331,0.5887342,-9.382398,51.5157,0,0,0,0,10
565807844,565807651,2490386,-1.3661315,-0.12401965,-9.716389,51.61232,0,0,0,0,10
565811551,565811357,2490386,-0.68546,-1.3215994,-10.333375,51.533817,0,0,0,0,10
565814037,565813828,2490386,-0.9258378,-0.3169923,-9.882546,51.56401,0,0,0,0,10
565817734,565817535,2490386,-1.006283,0.5923255,-9.205227,51.497585,0,0,0,0,10
565821428,565821242,2490386,-0.6110003,0.34859577,-9.482236,51.60628,0,0,0,0,10
565823902,565823713,2490386,-1.610819,1.1044452,-10.212707,51.449276,0,0,0,0,10
565827607,565827420,2490386,-0.4498705,-0.56910175,-10.564894,51.557972,0,0,0,0,10
565831326,565831127,2490386,-0.13599066,-0.6560113,-9.961316,51.66063,0,0,0,0,10
565835020,565834834,2490386,-0.72735846,0.67971385,-10.224678,51.503624,0,0,0,0,10
565837487,565837305,2490386,-1.5808914,-0.56982,-9.585426,51.594204,0,0,0,0,10
565842511,565842249,2490386,-1.2016499,-0.26431987,-9.99675,51.449276,0,0,0,0,10
565844965,565844719,2490386,-0.60836667,0.5554548,-10.070251,51.630436,0,0,0,0,10
565848808,565848426,2490386,-1.8260577,0.26647466,-10.750444,51.52174,0,0,0,0,10
565852451,565852133,2490386,-2.2060175,0.7733272,-9.333317,51.56401,0,0,0,0,10
565856229,565855841,2490386,-1.5594633,0.034955345,-7.542693,51.497585,0,0,0,0,10
565859838,565859546,2490386,-0.41096473,-0.40533835,-9.073246,51.47947,0,0,0,0,10
565862323,565862017,2490386,-0.712275,0.019871874,-11.083478,51.467392,0,0,0,0,10
565867372,565866959,2490386,-1.0144233,0.95432884,-10.402567,51.7029,0,0,0,0,10
565871200,565870688,2490386,-1.2107478,0.7553706,-9.240661,51.630436,0,0,0,0,10
565873328,565873137,2490386,-1.6345215,0.22002713,-10.602722,51.4372,0,0,0,0,10
565877033,565876844,2490386,-1.2722788,-1.0309433,-11.233595,51.509663,0,0,0,0,10
565880774,565880551,2490386,-1.4369999,0.12258313,-10.287406,51.461353,0,0,0,0,10
565883235,565883022,2490386,-1.0041282,-0.37421373,-9.309854,51.57005,0,0,0,0,10
565886924,565886729,2490386,-1.3893553,0.32010478,-8.689755,51.57005,0,0,0,0,10
565890626,565890437,2490386,-2.0171149,0.56982,-10.5395155,51.52778,0,0,0,0,10
565894328,565894143,2490386,-0.3038242,-0.11683705,-9.254068,51.56401,0,0,0,0,10
565898036,565897849,2490386,-0.46662992,0.62009823,-9.34433,51.485508,0,0,0,0,10
565901736,565901556,2490386,-1.0654198,1.0283096,-9.612959,51.485508,0,0,0,0,10
565905453,565905263,2490386,-1.7046716,1.192073,-11.006624,51.503624,0,0,0,0,10
565907928,565907734,2490386,-0.5868188,-0.46543282,-9.576089,51.66063,0,0,0,0,10
565911642,565911441,2490386,-0.7711724,-0.018195933,-9.411846,51.539856,0,0,0,0,10
565915353,565915148,2490386,-0.81402856,0.79559326,-11.275253,51.539856,0,0,0,0,10
565919041,565918855,2490386,-0.46232036,-0.37684736,-10.742304,51.594204,0,0,0,0,10
565922749,565922561,2490386,-1.0488998,-0.011013328,-10.459788,51.491547,0,0,0,0,10
565927696,565927508,2490386,-0.431914,1.9541475,-10.149021,51.52778,0,0,0,0,10
565928940,565928740,2490386,-0.379481,-0.325372,-9.725726,51.449276,0,0,0,0,10
565932674,565932447,2490386,-0.6835446,-0.07805098,-10.06714,51.576088,0,0,0,0,10
565936382,565936153,2490386,-0.88034797,0.6579266,-10.213185,51.61232,0,0,0,0,10
565940137,565939860,2490386,0.045968674,0.3617639,-9.631873,51.419083,0,0,0,0,10
565943965,565943566,2490386,-1.3079524,0.42544964,-9.665872,51.52174,0,0,0,0,10
565946387,565946038,2490386,-1.455914,0.5068525,-9.887814,51.539856,0,0,0,0,10
565950163,565949745,2490386,-0.98617166,-0.026815059,-9.376891,51.503624,0,0,0,0,10
565953780,565953451,2490386,-0.61554927,0.9399636,-10.066182,51.57005,0,0,0,0,10
565957510,565957158,2490386,-0.6114791,0.5341464,-9.953894,51.394928,0,0,0,0,10
565961278,565960868,2490386,-1.6326061,0.83390045,-10.746135,51.455315,0,0,0,0,10
565965034,565964571,2490386,-1.3036429,0.101274736,-9.578004,51.509663,0,0,0,0,10
565967246,565967043,2490386,-0.16783354,-0.5477933,-9.405622,51.539856,0,0,0,0,10
565972212,565971986,2490386,-0.7204153,0.8276755,-8.74147,51.576088,0,0,0,0,10
565974675,565974456,2490386,-1.150414,0.0009576807,-10.419806,51.407005,0,0,0,0,10
565978365,565978163,2490386,-2.0010738,-0.05913678,-8.959821,51.52778,0,0,0,0,10
565982081,565981870,2490386,-1.2038046,-0.23301569,-8.771936,51.413044,0,0,0,0,10
565984536,565984341,2490386,-0.41491517,1.7726669,-9.7240505,51.52778,0,0,0,0,10
565988232,565988048,2490386,-0.5470751,1.201171,-9.9201355,51.413044,0,0,0,0,10
565991946,565991755,2490386,-0.41228154,0.3406949,-9.742486,51.533817,0,0,0,0,10
565996886,565996697,2490386,-0.26982653,-0.06368577,-9.264363,51.576088,0,0,0,0,10
565999352,565999168,2490386,-0.8726865,0.024420857,-10.991302,51.684784,0,0,0,0,10
566003069,566002883,2490386,-1.1317391,0.76829934,-9.526528,51.47947,0,0,0,0,10
566009233,566009053,2490386,-1.7623719,-0.2846706,-11.134235,51.47947,0,0,0,0,10
566010473,566010289,2490386,-0.7029376,0.2657564,-10.2450285,51.56401,0,0,0,0,10
566012970,566012760,2490386,-1.5674839,0.07086837,-10.020213,51.407005,0,0,0,0,10
566016681,566016467,2490386,-0.7477092,0.28179756,-8.719922,51.5157,0,0,0,0,10
566020358,566020173,2490386,-0.81953526,-0.11899183,-8.046912,51.407005,0,0,0,0,10
566024104,566023880,2490386,-0.49919105,-0.49679685,-9.049125,51.551933,0,0,0,0,10
566027805,566027591,2490386,-0.19488803,-0.85856074,-10.405919,51.47343,0,0,0,0,10
566030352,566030058,2490386,-0.7884106,0.3608062,-9.679039,51.419083,0,0,0,0,10
566034066,566033767,2490386,-0.94882214,-0.2825158,-9.847831,51.413044,0,0,0,0,10
566037814,566037472,2490386,-1.0960655,0.588016,-10.462422,51.455315,0,0,0,0,10
566041568,566041179,2490386,-0.5724536,0.6964733,-9.315599,51.557972,0,0,0,0,10
566045210,566044886,2490386,0.37349546,0.7084443,-9.860041,51.56401,0,0,0,0,10
566048949,566048592,2490386,-0.5137957,0.56311625,-11.28076,51.455315,0,0,0,0,10
566051522,566051063,2490386,-1.5291766,0.5351041,-8.89422,51.47947,0,0,0,0,10
566055179,566054774,2490386,-1.2389994,0.6184223,-8.033625,51.557972,0,0,0,0,10
566058666,566058477,2490386,-0.49559975,-0.08714894,-9.132922,51.455315,0,0,0,0,10
566062373,566062184,2490386,-0.37062243,-0.7347805,-9.84807,51.467392,0,0,0,0,10
566066118,566065891,2490386,-2.245043,0.03878607,-10.952276,51.467392,0,0,0,0,10
566069792,566069597,2490386,-2.1349096,-0.6421249,-10.33936,51.419083,0,0,0,0,10
566072290,566072069,2490386,-0.4675876,0.12976573,-7.823533,51.455315,0,0,0,0,10
566078454,566078247,2490386,-0.7773973,0.5470751,-11.6825075,51.497585,0,0,0,0,10
566079690,566079482,2490386,-0.29161376,-0.047644615,-10.164583,51.52174,0,0,0,0,10
566083379,566083189,2490386,-1.0244789,0.6256049,-11.741405,51.509663,0,0,0,0,10
566088328,566088138,2490386,-0.44484267,-0.5401319,-11.374373,51.576088,0,0,0,0,10
566089573,566089367,2490386,-0.55437744,0.7768586,-8.7169895,51.461353,0,0,0,0,10
566094492,566094309,2490386,-0.97970736,-0.2633622,-10.05014,51.545895,0,0,0,0,10
566098211,566098019,2490386,-1.1552024,0.84658974,-9.771216,51.449276,0,0,0,0,10
566100686,566100487,2490386,-1.4721947,0.017238252,-10.173442,51.4372,0,0,0,0,10
566104379,566104194,2490386,-1.8435353,-0.22601265,-9.935698,51.630436,0,0,0,0,10
566110581,566110372,2490386,-0.29041666,0.05889736,-9.577286,51.47947,0,0,0,0,10
566111855,566111608,2490386,-1.0237607,0.07398083,-9.871294,51.467392,0,0,0,0,10
566115543,566115315,2490386,-0.7617153,0.40019083,-8.985319,51.485508,0,0,0,0,10
566118117,566117786,2490386,-1.1566389,0.5379771,-10.0987425,51.461353,0,0,0,0,10
566121723,566121493,2490386,-1.2270284,0.3715801,-10.974302,51.557972,0,0,0,0,10
566125477,566125200,2490386,-0.78098863,0.2990358,-9.315121,51.42512,0,0,0,0,10
566129388,566128906,2490386,-0.6178836,0.9091981,-7.7406936,51.61232,0,0,0,0,10
566131743,566131377,2490386,-1.6019604,0.31076738,-11.618821,51.509663,0,0,0,0,10
566135413,566135084,2490386,-2.005144,0.16448165,-11.145727,51.4372,0,0,0,0,10
566139125,566138791,2490386,-1.1671734,0.7110779,-9.5473585,51.52174,0,0,0,0,10
566142945,566142502,2490386,0.09121908,-0.8341399,-9.285433,51.497585,0,0,0,0,10
566147947,566147440,2490386,-0.496318,-0.21164744,-9.135316,51.666668,0,0,0,0,10
566150101,566149911,2490386,-1.0199299,0.60477537,-9.7609215,51.394928,0,0,0,0,10
566152572,566152382,2490386,0.085473,0.031603463,-9.38168,51.588165,0,0,0,0,10
566158784,566158564,2490386,-1.0177752,1.0757148,-11.176134,51.43116,0,0,0,0,10
566160027,566159796,2490386,-1.182975,0.10510545,-8.090008,51.582127,0,0,0,0,10
566163684,566163503,2490386,-1.6941371,1.4269443,-8.525273,51.5157,0,0,0,0,10
566168636,566168445,2490386,-1.3352463,-0.56000376,-9.203791,51.485508,0,0,0,0,10
566171125,566170917,2490386,-0.17190368,0.7086837,-9.839211,51.42512,0,0,0,0,10
566173571,566173388,2490386,-1.0481815,0.09026141,-10.147824,51.443237,0,0,0,0,10
566177290,566177094,2490386,0.032561142,-0.71993643,-8.381143,51.400967,0,0,0,0,10
566182221,566182037,2490386,-0.8367735,0.8236054,-9.849746,51.5157,0,0,0,0,10
566184703,566184508,2490386,-1.0132262,-0.12808979,-10.022846,51.394928,0,0,0,0,10
566188419,566188215,2490386,-1.0333375,-1.037647,-11.410048,51.576088,0,0,0,0,10
566192105,566191922,2490386,-1.025676,-0.084036484,-10.443508,51.600243,0,0,0,0,10
566197056,566196864,2490386,-0.8626309,-0.8511387,-10.664493,51.47947,0,0,0,0,10
566198280,566198100,2490386,-0.6727707,0.7278373,-9.742486,51.594204,0,0,0,0,10
566201995,566201806,2490386,-0.12904747,0.96989113,-10.099222,51.545895,0,0,0,0,10
566208239,566207984,2490386,-1.0850523,-0.27150247,-9.481039,51.60628,0,0,0,0,10
566209492,566209220,2490386,-0.76590514,0.34739867,-10.081026,51.545895,0,0,0,0,10
566212003,566211691,2490386,-1.4599842,-0.20709845,-9.708248,51.443237,0,0,0,0,10
566218150,566217869,2490386,-0.65936315,0.26527756,-9.583032,51.557972,0,0,0,0,10
566219416,566219105,2490386,-1.0263942,0.36703113,-10.502405,51.539856,0,0,0,0,10
566223173,566222812,2490386,-0.5597644,-0.5748478,-9.878237,51.491547,0,0,0,0,10
566228055,566227754,2490386,-0.42688617,-0.26168624,-8.918162,51.56401,0,0,0,0,10
566230638,566230226,2490386,-0.866701,0.062728085,-10.671676,51.551933,0,0,0,0,10
566234300,566233932,2490386,-1.103727,-0.9339781,-10.36426,51.461353,0,0,0,0,10
566238027,566237639,2490386,-0.65696895,-1.1621455,-8.763975,51.47343,0,0,0,0,10
566240544,566240110,2490386,-0.99407256,-1.559583,-10.5395155,51.467392,0,0,0,0,10
566244042,566243830,2490386,-0.51786584,0.20638019,-10.357556,51.491547,0,0,0,0,10
566247709,566247524,2490386,-0.6256049,0.6845023,-10.065463,51.413044,0,0,0,0,10
566251466,566251231,2490386,-1.1209054,-0.06290765,-9.111374,51.43116,0,0,0,0,10
566255129,566254937,2490386,-0.8101979,0.2673725,-8.324221,51.61836,0,0,0,0,10
566257593,566257408,2490386,-1.5734694,0.23343466,-11.00447,51.52778,0,0,0,0,10
566262536,566262351,2490386,-0.20254947,0.14532804,-11.006624,51.4372,0,0,0,0,10
566268720,566268529,2490386,-1.826297,-0.60357827,-10.6812525,51.5157,0,0,0,0,10
566269963,566269764,2490386,-0.014844051,0.8949526,-8.848012,51.545895,0,0,0,0,10
566272423,566272235,2490386,-1.5507245,-0.3514688,-10.525629,51.61232,0,0,0,0,10
566276134,566275943,2490386,-1.0848128,1.2876017,-9.895475,51.358696,0,0,0,0,10
566278621,566278414,2490386,-0.9016564,0.5171476,-9.664195,51.576088,0,0,0,0,10
566282338,566282120,2490386,-1.3500904,0.0057460843,-10.165301,51.509663,0,0,0,0,10
566286012,566285828,2490386,-1.3220782,-0.53606176,-10.184216,51.57005,0,0,0,0,10
566289720,566289534,2490386,-0.9494207,0.41976342,-7.788458,51.509663,0,0,0,0,10
566293425,566293241,2490386,0.09672575,1.1422737,-8.162552,51.5157,0,0,0,0,10
566297136,566296948,2490386,-0.82432365,-0.47548845,-10.692026,51.551933,0,0,0,0,10
566300847,566300654,2490386,-0.5149928,-0.79224133,-11.416033,51.461353,0,0,0,0,10
566303313,566303129,2490386,-1.1836933,-0.0557849,-9.467392,51.690823,0,0,0,0,10
566308434,566308068,2490386,-0.45944732,-0.89591026,-8.684249,51.509663,0,0,0,0,10
566310942,566310539,2490386,-0.61674637,0.50158525,-11.21875,51.576088,0,0,0,0,10
566314617,566314246,2490386,-1.1408371,-0.43478703,-11.01237,51.551933,0,0,0,0,10
566318353,566317953,2490386,-0.79295963,-0.3263297,-8.772116,51.467392,0,0,0,0,10
566320719,566320424,2490386,-1.5938201,-0.8722077,-10.507194,51.588165,0,0,0,0,10
566324477,566324130,2490386,-1.3824121,1.1015722,-9.2023535,51.443237,0,0,0,0,10
566328239,566327837,2490386,-0.79942393,0.7390901,-8.305007,51.65459,0,0,0,0,10
566331964,566331545,2490386,-0.88944596,-0.16502036,-9.139087,51.636475,0,0,0,0,10
566335435,566335251,2490386,-0.6493075,0.50757074,-9.613199,51.491547,0,0,0,0,10
566339141,566338958,2490386,-1.5057135,0.6904878,-10.089405,51.630436,0,0,0,0,10
566341637,566341429,2490386,-0.74842745,0.8367735,-9.636183,51.588165,0,0,0,0,10
566345380,566345136,2490386,-1.2543821,0.21398178,-9.234556,51.545895,0,0,0,0,10
566349054,566348843,2490386,-1.475786,0.21428105,-9.883504,51.485508,0,0,0,0,10
566352771,566352550,2490386,-1.0821792,-0.19536686,-9.937853,51.533817,0,0,0,0,10
566356453,566356257,2490386,-0.8556877,0.71969706,-11.239101,51.52778,0,0,0,0,10
566360150,566359963,2490386,-0.87077117,-0.09864111,-10.479181,51.61232,0,0,0,0,10
566362621,566362434,2490386,-0.5896919,-0.032800563,-9.455181,51.545895,0,0,0,0,10
566368835,566368612,2490386,-1.2248737,-0.3289633,-9.15854,51.449276,0,0,0,0,10
566371268,566371083,2490386,-0.4369418,0.13335703,-11.339658,51.449276,0,0,0,0,10
566373741,566373555,2490386,-1.0675745,0.5518635,-8.933006,51.52778,0,0,0,0,10
566377464,566377261,2490386,-2.0027497,0.54396266,-9.493728,51.672707,0,0,0,0,10
566381164,566380968,2490386,-0.541329,0.20518309,-9.604819,51.539856,0,0,0,0,10
566383619,566383439,2490386,-0.8499416,0.15610196,-9.252153,51.449276,0,0,0,0,10
566387336,566387146,2490386,-1.2734759,0.72137296,-9.399876,51.503624,0,0,0,0,10
566391038,566390853,2490386,-0.57269305,0.13311762,-9.593566,51.449276,0,0,0,0,10
566394743,566394560,2490386,-1.0115502,-0.2506729,-11.087788,51.461353,0,0,0,0,10
566398532,566398267,2490386,-1.0409989,-0.05770026,-10.24455,51.509663,0,0,0,0,10
566402357,566401973,2490386,-1.6745046,0.0,-8.3583975,51.582127,0,0,0,0,10
566406051,566405680,2490386,-0.74124485,0.44358572,-8.4140625,51.576088,0,0,0,0,10
566408615,566408151,2490386,-0.8348581,-0.07445967,-10.557712,51.485508,0,0,0,0,10
566412236,566411860,2490386,-1.0165781,-0.27676973,-9.886138,51.503624,0,0,0,0,10
566415911,566415565,2490386,-0.07930793,-0.5294179,-8.589199,51.600243,0,0,0,0,10
566419666,566419272,2490386,-0.4673482,-0.58538234,-9.939768,51.61232,0,0,0,0,10
566423386,566422983,2490386,-0.992636,0.034237083,-10.1796665,51.672707,0,0,0,0,10
566425635,566425450,2490386,-0.25306714,-0.6112397,-9.046731,51.648552,0,0,0,0,10
566429343,566429157,2490386,-1.5093048,0.9866505,-9.611283,51.624397,0,0,0,0,10
566433078,566432863,2490386,-1.8090588,0.090500824,-9.407297,51.666668,0,0,0,0,10
566437989,566437806,2490386,-1.5478514,0.5765238,-9.918699,51.43116,0,0,0,0,10
566440480,566440277,2490386,-0.050757077,0.28443116,-9.689095,51.52778,0,0,0,0,10
566444182,566443984,2490386,-1.0939108,1.154484,-9.102994,51.449276,0,0,0,0,10
566447898,566447691,2490386,-1.7707516,0.88346046,-10.157401,51.449276,0,0,0,0,10
566450352,566450162,2490386,-0.44173023,-0.3641581,-9.22031,51.533817,0,0,0,0,10
566454056,566453869,2490386,0.05554548,-0.8082825,-8.797973,51.503624,0,0,0,0,10
566457771,566457575,2490386,-1.4348451,-0.50230354,-10.221805,51.400967,0,0,0,0,10
566461482,566461284,2490386,-1.4264654,0.22529438,-10.635283,51.600243,0,0,0,0,10
566465180,566464989,2490386,-0.87986916,-0.3797204,-10.529221,51.582127,0,0,0,0,10
566468901,566468697,2490386,-0.72807676,0.21499932,-9.758287,51.5157,0,0,0,0,10
566473835,566473641,2490386,-0.835337,0.43957543,-9.600749,51.413044,0,0,0,0,10
566475058,566474874,2490386,-0.85377234,0.9179369,-9.77361,51.582127,0,0,0,0,10
566478799,566478581,2490386,-0.75991964,1.0187328,-10.181104,51.690823,0,0,0,0,10
566483709,566483523,2490386,-1.0002974,-0.36272156,-10.3738365,51.642513,0,0,0,0,10
566486189,566485994,2490386,-0.8078037,0.48219222,-9.55071,51.630436,0,0,0,0,10
566488698,566488466,2490386,-0.643322,-0.7431602,-10.322122,51.497585,0,0,0,0,10
566492437,566492172,2490386,-0.7963115,0.35051113,-10.250774,51.545895,0,0,0,0,10
566496204,566495879,2490386,-0.9370906,-0.62632316,-9.891884,51.576088,0,0,0,0,10
566499962,566499591,2490386,-2.0846314,-0.12497733,-9.677603,51.52174,0,0,0,0,10
566503620,566503293,2490386,-1.2773067,-0.9847352,-9.863393,51.455315,0,0,0,0,10
566508640,566508235,2490386,-0.5928044,0.64858925,-10.353247,51.5157,0,0,0,0,10
566509927,566509470,2490386,-1.0484209,0.31148565,-10.453803,51.5157,0,0,0,0,10
566513637,566513181,2490386,-0.9306262,0.45825022,-9.671378,51.57005,0,0,0,0,10
566518303,566518120,2490386,-1.6519992,-0.0081402855,-9.350794,51.509663,0,0,0,0,10
566520793,566520591,2490386,0.086430684,0.5097256,-9.594524,51.582127,0,0,0,0,10
566524481,566524298,2490386,0.36954504,0.63859344,-8.845737,51.509663,0,0,0,0,10
566528235,566528010,2490386,-0.2379238,0.26431987,-9.151417,51.582127,0,0,0,0,10
566530671,566530476,2490386,-2.2242134,0.18818426,-10.953473,51.47343,0,0,0,0,10
566534371,566534182,2490386,-0.99407256,-0.04333505,-9.656055,51.672707,0,0,0,0,10
566538073,566537890,2490386,0.051535193,-0.6008848,-8.308179,51.56401,0,0,0,0,10
566543034,566542832,2490386,-0.289459,-0.12533645,-9.214086,51.624397,0,0,0,0,10
566545513,566545303,2490386,-1.2969391,0.17477673,-10.669042,51.7029,0,0,0,0,10
566549211,566549013,2490386,-1.1599908,-0.07182605,-10.556514,51.648552,0,0,0,0,10
566552913,566552718,2490386,-0.3809175,-0.6517017,-9.054631,51.533817,0,0,0,0,10
566555378,566555188,2490386,-1.1805809,0.88274217,-9.481997,51.394928,0,0,0,0,10
566559083,566558895,2490386,-1.4410701,1.5059528,-10.087251,51.690823,0,0,0,0,10
566562792,566562602,2490386,-0.66965824,0.23702598,-10.26131,51.485508,0,0,0,0,10
566566493,566566308,2490386,-0.13024457,-0.22864626,-9.336668,51.52174,0,0,0,0,10
566570202,566570015,2490386,-1.376666,0.53462523,-10.173921,51.539856,0,0,0,0,10
566573905,566573722,2490386,-1.0546459,0.11611878,-10.481815,51.672707,0,0,0,0,10
566578913,566578664,2490386,-1.4956578,1.0261549,-10.180625,51.503624,0,0,0,0,10
566580145,566579900,2490386,-1.15616,-0.22409728,-11.209414,51.7029,0,0,0,0,10
566583878,566583608,2490386,-1.3733141,-0.8678981,-11.068873,51.636475,0,0,0,0,10
566588947,566588549,2490386,-1.3371617,-0.17836803,-10.790907,51.56401,0,0,0,0,10
566592626,566592256,2490386,-1.7087418,0.026096798,-9.760202,51.672707,0,0,0,0,10
566593861,566593495,2490386,-1.2255919,1.0879253,-11.367909,51.57005,0,0,0,0,10
566598746,566598434,2490386,-0.4357447,-0.59783214,-10.45069,51.503624,0,0,0,0,10
566603769,566603377,2490386,-0.4309563,-1.0517728,-9.709446,51.70894,0,0,0,0,10
566605014,566604612,2490386,-0.94523084,0.48961425,-9.168117,51.66063,0,0,0,0,10
566608823,566608319,2490386,-0.4083311,0.82157034,-8.974905,51.721016,0,0,0,0,10
566612231,566612025,2490386,-1.6594212,0.33039984,-9.161174,51.594204,0,0,0,0,10
566614709,566614499,2490386,-0.66486984,-0.3110068,-11.399512,51.690823,0,0,0,0,10
566618416,566618204,2490386,-0.63709706,-0.2990358,-9.180567,51.648552,0,0,0,0,10
566622149,566621910,2490386,-2.325488,1.3165715,-9.164525,51.497585,0,0,0,0,10
566625811,566625618,2490386,-0.7776367,0.2066196,-9.026619,51.600243,0,0,0,0,10
566629544,566629324,2490386,-0.8504205,-1.0218453,-10.726981,51.594204,0,0,0,0,10
566633232,566633031,2490386,-0.47381252,-0.5245696,-9.822691,51.52778,0,0,0,0,10
566635685,566635502,2490386,-1.7525556,-0.061052144,-9.847831,51.630436,0,0,0,0,10
566639417,566639223,2490386,-1.0405201,1.4571111,-9.765949,51.666668,0,0,0,0,10
566644364,566644151,2490386,-1.6713922,-0.5006276,-10.551007,51.739132,0,0,0,0,10
566646815,566646623,2490386,0.4661511,0.20446482,-9.67066,51.582127,0,0,0,0,10
566650547,566650329,2490386,-0.54875106,1.7302896,-9.938571,51.636475,0,0,0,0,10
566654223,566654036,2490386,-0.81115556,1.1882423,-10.90894,51.61836,0,0,0,0,10
566657933,566657743,2490386,-0.4661511,0.092176765,-11.358811,51.57005,0,0,0,0,10
566661647,566661459,2490386,-0.89064306,0.67372835,-9.594046,51.576088,0,0,0,0,10
566664113,566663921,2490386,-1.1097723,-0.6663063,-9.151776,51.624397,0,0,0,0,10
566669097,566668864,2490386,-0.6916849,0.9540894,-8.806592,51.57005,0,0,0,0,10
566671540,566671340,2490386,-0.99407256,0.48506528,-10.573513,51.485508,0,0,0,0,10
566675360,566675041,2490386,-0.9033323,-0.34452564,-9.486546,51.684784,0,0,0,0,10
566677872,566677512,2490386,-1.1358093,-0.28538886,-10.987949,51.557972,0,0,0,0,10
566681573,566681219,2490386,-1.4231135,-0.6933608,-9.987891,51.61232,0,0,0,0,10
566685312,566684927,2490386,-1.1923125,1.202847,-9.034281,51.582127,0,0,0,0,10
566688927,566688637,2490386,0.8727464,0.12324154,-8.989629,51.678745,0,0,0,0,10
566692676,566692339,2490386,-1.0125079,-0.0114921685,-10.842861,51.666668,0,0,0,0,10
566696431,566696046,2490386,-1.6807296,0.4663905,-9.946951,51.57005,0,0,0,0,10
566698926,566698518,2490386,-0.26503813,-0.64140666,-8.807549,51.52174,0,0,0,0,10
566702406,566702224,2490386,-0.05410896,0.6682217,-9.659167,51.672707,0,0,0,0,10
566706130,566705931,2490386,-0.79056543,0.36032736,-10.426748,51.600243,0,0,0,0,10
566709843,566709638,2490386,-1.4686034,0.33638534,-10.609187,51.690823,0,0,0,0,10
566713585,566713345,2490386,-1.0047268,0.5212177,-8.215464,51.61836,0,0,0,0,10
566717260,566717052,2490386,-0.90069866,0.73094976,-8.887516,51.60628,0,0,0,0,10
566719713,566719525,2490386,-1.0328586,0.78218573,-10.076716,51.684784,0,0,0,0,10
566723433,566723230,2490386,-0.16543934,0.43861777,-9.69101,51.57005,0,0,0,0,10
566730846,566730643,2490386,-0.83342165,-0.07972692,-9.535148,51.678745,0,0,0,0,10
566732063,566731879,2490386,-0.6339846,0.23654713,-9.88518,51.630436,0,0,0,0,10
566734558,566734350,2490386,-1.1022905,-0.021308396,-9.813594,51.66063,0,0,0,0,10
566738247,566738057,2490386,-0.6787562,-0.5485116,-10.025002,51.642513,0,0,0,0,10
566740741,566740528,2490386,-0.9473856,0.09481039,-10.41382,51.594204,0,0,0,0,10
566745658,566745470,2490386,-0.5729325,0.13455413,-9.721895,51.648552,0,0,0,0,10
566748140,566747942,2490386,-0.92128885,0.48578352,-9.934022,51.588165,0,0,0,0,10
566751855,566751649,2490386,-1.2509704,0.22290018,-10.714532,51.636475,0,0,0,0,10
566755535,566755355,2490386,-1.5109807,-0.108936176,-9.957964,51.545895,0,0,0,0,10
566758021,566757827,2490386,-0.85616654,-0.032800563,-10.158119,51.467392,0,0,0,0,10
566762967,566762769,2490386,-0.6727707,0.26839,-10.270407,51.7029,0,0,0,0,10
566765458,566765249,2490386,-2.0219033,0.8001422,-9.864829,51.52778,0,0,0,0,10
566770544,566770183,2490386,-1.7307684,-0.4168305,-10.447578,51.630436,0,0,0,0,10
566772997,566772654,2490386,-1.4071921,0.39270893,-9.076538,51.672707,0,0,0,0,10
566776817,566776360,2490386,-0.42808327,0.051235918,-9.01393,51.690823,0,0,0,0,10
566780340,566780068,2490386,-0.6090849,0.3383007,-10.36426,51.594204,0,0,0,0,10
566782890,566782539,2490386,-1.2373234,-0.2717419,-9.781272,51.727055,0,0,0,0,10
566786646,566786245,2490386,-0.63781536,-0.92296475,-8.609789,51.509663,0,0,0,0,10
566790438,566789952,2490386,-1.1432313,0.52887917,-9.829395,51.65459,0,0,0,0,10
566793840,566793659,2490386,-0.5506664,0.077093296,-10.560584,51.642513,0,0,0,0,10
566797558,566797366,2490386,-0.4000711,0.32465374,-9.863393,51.47343,0,0,0,0,10
566801269,566801072,2490386,-0.48602295,-0.020590134,-9.613439,51.624397,0,0,0,0,10
566803771,566803544,2490386,-1.6692375,0.28874072,-9.724529,51.60628,0,0,0,0,10
566809938,566809723,2490386,-1.0460267,1.0860099,-10.381977,51.576088,0,0,0,0,10
566811157,566810957,2490386,0.61554927,-0.010175358,-8.051521,51.600243,0,0,0,0,10
566814867,566814665,2490386,-0.06368577,0.2825158,-9.57585,51.642513,0,0,0,0,10
566819821,566819613,2490386,-0.19488803,0.5959168,-9.131246,51.690823,0,0,0,0,10
566822266,566822078,2490386,-1.982399,0.6536171,-11.247241,51.642513,0,0,0,0,10
566824733,566824549,2490386,-0.528101,1.166515,-8.161116,51.624397,0,0,0,0,10
566829679,566829492,2490386,-0.6476914,0.1525705,-8.294353,51.61836,0,0,0,0,10
566832179,566831969,2490386,-0.9255984,-0.13096283,-11.390655,51.636475,0,0,0,0,10
566835862,566835669,2490386,-1.292869,0.45370123,-10.742304,51.503624,0,0,0,0,10
566839582,566839376,2490386,-0.9409213,0.049559977,-9.884461,51.690823,0,0,0,0,10
566843319,566843083,2490386,-1.0038887,-0.6090849,-10.080308,51.545895,0,0,0,0,10
566846979,566846790,2490386,-1.2531252,-0.6138733,-9.781033,51.539856,0,0,0,0,10
566850691,566850496,2490386,-1.0737995,0.12258313,-9.669223,51.636475,0,0,0,0,10
566853261,566852968,2490386,-1.2373234,0.5956774,-10.489476,51.43116,0,0,0,0,10
566856921,566856675,2490386,-0.9411607,-0.43358994,-10.801681,51.582127,0,0,0,0,10
566860655,566860381,2490386,-1.1951855,0.39408562,-9.273461,51.61836,0,0,0,0,10
566864399,566864089,2490386,-0.6184223,0.6787562,-7.863995,51.648552,0,0,0,0,10
566866917,566866559,2490386,-1.4709976,-0.5956774,-10.843579,51.52174,0,0,0,0,10
566870738,566870267,2490386,-1.7032351,1.4302961,-11.244847,51.636475,0,0,0,0,10
566874264,566873973,2490386,-1.2634202,1.0812215,-10.236888,51.509663,0,0,0,0,10
566879381,566878915,2490386,-1.176032,0.43263224,-10.816764,51.455315,0,0,0,0,10
566881858,566881388,2490386,-1.0929531,0.32848448,-8.328231,51.66063,0,0,0,0,10
566885514,566885093,2490386,-1.2626421,1.5956157,-8.660546,51.57005,0,0,0,0,10
566889006,566888800,2490386,0.39049432,-0.17142485,-10.337685,51.539856,0,0,0,0,10
566891458,566891271,2490386,-1.1446679,-1.1465832,-8.706754,51.509663,0,0,0,0,10
566895184,566894978,2490386,-1.6742653,0.30166942,-8.085698,51.57005,0,0,0,0,10
566898875,566898685,2490386,-1.1637616,0.622672,-7.756735,51.642513,0,0,0,0,10
566902601,566902392,2490386,-0.22888568,0.92655605,-9.979751,51.763287,0,0,0,0,10
566906289,566906099,2490386,-0.5267244,-0.5363012,-10.551007,51.75121,0,0,0,0,10
566908769,566908570,2490386,-0.9469068,-0.07972692,-10.192117,51.485508,0,0,0,0,10
566912485,566912277,2490386,-1.0544064,0.8904036,-10.001299,51.52778,0,0,0,0,10
566916196,566915983,2490386,-1.0297462,1.2970588,-9.142858,51.47947,0,0,0,0,10
566919886,566919690,2490386,-0.1898602,0.18794483,-10.04607,51.47343,0,0,0,0,10
566923600,566923397,2490386,-0.9938331,-0.53821653,-10.28956,51.533817,0,0,0,0,10
566928540,566928340,2490386,-0.0009576807,0.21164744,-8.136456,51.588165,0,0,0,0,10
566929790,566929575,2490386,-0.7704541,-0.09481039,-9.756372,51.545895,0,0,0,0,10
566933479,566933282,2490386,-0.36523548,0.80427223,-7.5327573,51.557972,0,0,0,0,10
566938412,566938224,2490386,-0.96923274,-0.0031124623,-8.349838,51.684784,0,0,0,0,10
566940884,566940695,2490386,-1.4264654,-0.48817775,-11.009737,51.65459,0,0,0,0,10
566944605,566944406,2490386,-1.3838485,-0.22481555,-11.138545,51.61232,0,0,0,0,10
566949682,566949344,2490386,-0.34476504,-0.26551697,-11.122503,51.533817,0,0,0,0,10
566950864,566950580,2490386,-0.64619505,0.8271967,-10.04607,51.539856,0,0,0,0,10
566954576,566954287,2490386,-0.7987057,0.0009576807,-11.328165,51.624397,0,0,0,0,10
566958340,566957994,2490386,-1.5773001,0.09720459,-10.454042,51.600243,0,0,0,0,10
566962085,566961705,2490386,-0.2372654,-0.28682536,-9.728121,51.503624,0,0,0,0,10
566965704,566965407,2490386,0.58945245,1.093432,-10.173442,51.642513,0,0,0,0,10
566970731,566970350,2490386,-0.712275,-0.48817775,-10.571598,51.61836,0,0,0,0,10
566971973,566971585,2490386,-1.0469844,0.1364695,-8.903558,51.42512,0,0,0,0,10
566975813,566975294,2490386,-2.2294807,-0.21523874,-10.489237,51.582127,0,0,0,0,10
566979185,566978999,2490386,-0.39480385,0.60932434,-8.977538,51.52778,0,0,0,0,10
566982910,566982707,2490386,-1.3053188,1.6764201,-10.937431,51.5157,0,0,0,0,10
566986618,566986413,2490386,-2.6374526,1.1700463,-10.105686,51.57005,0,0,0,0,10
566989115,566988884,2490386,-1.4657303,1.307713,-7.5766907,51.672707,0,0,0,0,10
566992858,566992591,2490386,-2.3393745,1.9057846,-7.669107,51.57005,0,0,0,0,10
566997725,566997533,2490386,-0.9588778,-0.07757214,-12.397416,51.56401,0,0,0,0,10
567000192,567000004,2490386,0.1079785,-0.5044583,-8.3105135,51.42512,0,0,0,0,10
567003896,567003713,2490386,-0.18100165,-0.23678654,-9.098925,51.739132,0,0,0,0,10
567007608,567007418,2490386,-3.86903,-1.9055451,-11.741165,51.648552,0,0,0,0,10
567010075,567009889,2490386,-2.2675486,-0.46782702,-10.19523,51.52778,0,0,0,0,10
567013829,567013596,2490386,0.04213795,-0.82073236,-10.140641,51.509663,0,0,0,0,10
567018732,567018538,2490386,-1.7803284,1.1085154,-8.105091,51.66063,0,0,0,0,10
567021193,567021009,2490386,-2.7993007,1.0031705,-10.87638,51.636475,0,0,0,0,10
567024902,567024716,2490386,1.0297462,1.1714829,-6.4727244,51.648552,0,0,0,0,10
567028635,567028423,2490386,3.499844,-1.4118607,-10.870154,51.545895,0,0,0,0,10
567031097,567030895,2490386,-3.2273839,3.73687,-6.8488536,51.413044,0,0,0,0,10
567034791,567034601,2490386,-1.5734694,-2.2196643,-10.743262,51.400967,0,0,0,0,10
567039732,567039544,2490386,2.5668237,3.0842106,-10.959698,51.678745,0,0,0,0,10
567042240,567042015,2490386,-3.6521153,2.3580494,-3.5216312,51.52174,0,0,0,0,10
567046062,567045721,2490386,-6.316383,6.7075953,-11.065761,51.43116,0,0,0,0,10
567049759,567049430,2490386,-1.7721881,0.74842745,-7.994958,51.5157,0,0,0,0,10
567052258,567051909,2490386,2.573288,1.9515139,-9.887095,51.539856,0,0,0,0,10
567055887,567055606,2490386,1.6563088,-0.8300697,-11.428962,51.672707,0,0,0,0,10
567059634,567059313,2490386,-0.35051113,1.2059594,-2.5706544,51.52778,0,0,0,0,10
567063393,567063020,2490386,-1.39151,-1.0536882,-16.891092,51.630436,0,0,0,0,10
567067182,567066727,2490386,-3.9434896,2.432509,-7.3353553,51.60628,0,0,0,0,10
567070616,567070433,2490386,-1.9531897,-2.3130383,-5.142985,51.594204,0,0,0,0,10
567073112,567072906,2490386,-1.718558,-1.4839262,-11.3530655,51.533817,0,0,0,0,10
567076839,567076612,2490386,-1.0465056,-1.9816808,-7.3394256,51.61232,0,0,0,0,10
567080526,567080318,2490386,-1.4247894,2.0015526,-8.883446,51.461353,0,0,0,0,10
567084213,567084025,2490386,-4.313154,-1.0362105,-8.076361,51.600243,0,0,0,0,10
567087924,567087732,2490386,-1.8454506,-0.82312655,-8.82407,51.57005,0,0,0,0,10
567091639,567091439,2490386,-1.0465056,0.3632004,-5.408741,51.57005,0,0,0,0,10
567094098,567093910,2490386,0.6514623,2.1346703,-11.942757,51.594204,0,0,0,0,10
567100273,567100088,2490386,-0.9083601,4.149152,-7.7514677,51.509663,0,0,0,0,10
567102755,567102559,2490386,2.6839,-0.29233202,-7.9137945,51.52174,0,0,0,0,10
567106454,567106266,2490386,1.3079524,1.2212822,-13.16404,51.461353,0,0,0,0,10
567110167,567109973,2490386,1.9993979,0.8781932,-0.34811693,51.509663,0,0,0,0,10
567112626,567112444,2490386,-1.055843,-0.53127337,-16.325583,51.57005,0,0,0,0,10
567115105,567114915,2490386,-1.2073959,-3.0013714,-13.583504,51.47947,0,0,0,0,10
567120062,567119858,2490386,-5.3519983,5.9428873,-8.951442,51.449276,0,0,0,0,10
567122514,567122329,2490386,-1.3824121,1.9203892,-7.2898655,51.557972,0,0,0,0,10
567126223,567126040,2490386,-3.6578615,1.1370064,-6.2864556,51.636475,0,0,0,0,10
567129934,567129742,2490386,1.8511968,3.1069555,-17.522923,51.509663,0,0,0,0,10
567133672,567133455,2490386,-2.731784,2.0913353,-8.277234,51.551933,0,0,0,0,10
567136168,567135920,2490386,2.9838936,-1.8258182,-10.130346,51.61232,0,0,0,0,10
567139948,567139627,2490386,-0.011252748,-1.2981362,-7.3327217,51.582127,0,0,0,0,10
567143760,567143341,2490386,-6.191406,-0.7084443,-10.344627,51.52778,0,0,0,0,10
567147507,567147041,2490386,4.50493,-0.6014235,-16.447208,51.47343,0,0,0,0,10
567151144,567150747,2490386,-0.43742067,2.4801536,-10.155725,51.61232,0,0,0,0,10
567154878,567154454,2490386,-5.599559,0.6818687,-8.846336,51.485508,0,0,0,0,10
567157314,567156925,2490386,1.0536882,-0.87843263,-10.221565,51.52174,0,0,0,0,10
567161058,567160649,2490386,-4.3179426,-5.2825665,-11.734462,51.557972,0,0,0,0,10
567164522,567164339,2490386,-2.2266076,1.4156915,-5.5176773,51.509663,0,0,0,0,10
567169486,567169282,2490386,1.4364612,-4.5935154,-1.9309835,51.413044,0,0,0,0,10
567171983,567171753,2490386,-1.0290279,1.972104,-10.113108,51.419083,0,0,0,0,10
567175643,567175459,2490386,-5.8648367,1.6230294,-11.530476,51.43116,0,0,0,0,10
567179385,567179166,2490386,1.4834474,-1.9258959,-10.684604,51.43116,0,0,0,0,10
567181826,567181637,2490386,-4.125449,-1.9644425,-13.365392,51.42512,0,0,0,0,10
567185526,567185344,2490386,1.3079524,-5.495172,-7.2965693,51.491547,0,0,0,0,10
567189254,567189051,2490386,-4.093606,1.7848774,-4.9883194,51.497585,0,0,0,0,10
567192961,567192758,2490386,1.7951725,-3.5747826,-9.612001,51.52174,0,0,0,0,10
567196652,567196466,2490386,-0.14173675,-8.855913,-11.343967,51.42512,0,0,0,0,10
567200354,567200171,2490386,-6.393357,0.9504981,-2.8967447,51.52174,0,0,0,0,10
567204066,567203878,2490386,6.0247693,3.1802182,-7.67605,51.4372,0,0,0,0,10
567206531,567206349,2490386,-5.481525,1.4487314,-13.368265,51.47947,0,0,0,0,10
567210248,567210056,2490386,1.096305,-2.5701756,-24.445278,51.497585,0,0,0,0,10
567215198,567214998,2490386,-3.7998376,3.6298492,-11.460804,51.539856,0,0,0,0,10
567217687,567217470,2490386,4.152982,4.273411,-9.140822,51.407005,0,0,0,0,10
567220128,567219941,2490386,-3.6636076,2.6599581,-12.763729,51.52174,0,0,0,0,10
567223842,567223648,2490386,-1.1708245,-4.708916,-3.1042023,51.52174,0,0,0,0,10
567227621,567227355,2490386,-1.4736311,-2.8117504,-9.558372,51.588165,0,0,0,0,10
567231437,567231061,2490386,-2.3064542,1.7435175,-1.2093711,51.42512,0,0,0,0,10
567235101,567234768,2490386,-0.1637634,-0.89112186,-25.833675,51.588165,0,0,0,0,10
567240101,567239711,2490386,4.7591944,1.0955867,-7.2968087,51.600243,0,0,0,0,10
567241233,567240946,2490386,0.032321725,0.7584831,-17.490122,51.467392,0,0,0,0,10
567245083,567244653,2490386,-3.3401508,0.9149442,3.6375108,51.47947,0,0,0,0,10
567250037,567249600,2490386,-4.191768,-1.2591107,-5.7810397,51.467392,0,0,0,0,10
567252500,567252074,2490386,4.987122,1.3970168,-9.00148,51.600243,0,0,0,0,10
567255954,567255773,2490386,-9.245449,4.1060557,-4.5068455,51.4372,0,0,0,0,10
567260915,567260715,2490386,-3.3626564,-2.15957,-21.749168,51.449276,0,0,0,0,10
567262155,567261952,2490386,-7.872614,-2.0171149,-17.600256,51.38889,0,0,0,0,10
567265873,567265658,2490386,4.3181825,7.1352,-16.723738,51.443237,0,0,0,0,10
567269552,567269365,2490386,-2.3475149,6.293159,-1.2715605,51.419083,0,0,0,0,10
567273262,567273072,2490386,-4.035906,1.6189592,-7.8963165,51.443237,0,0,0,0,10
567276999,567276778,2490386,5.0852847,-2.3829489,-9.26197,51.42512,0,0,0,0,10
567280668,567280485,2490386,-3.2755075,-1.553837,-17.779581,51.455315,0,0,0,0,10
567284380,567284192,2490386,0.42281604,1.6948555,2.441128,51.443237,0,0,0,0,10
567286854,567286663,2490386,-2.5682602,-1.0491391,-30.57276,51.413044,0,0,0,0,10
567290574,567290370,2490386,-2.15957,3.188598,-0.398874,51.38889,0,0,0,0,10
567294263,567294077,2490386,3.3437421,-5.8219805,-16.80562,51.4372,0,0,0,0,10
567297972,567297784,2490386,-1.2947843,-2.8083987,-21.918917,51.370773,0,0,0,0,10
567301685,567301490,2490386,-5.4164023,8.668447,9.886138,51.34662,0,0,0,0,10
567304146,567303962,2490386,1.176032,4.315309,-19.629581,51.364735,0,0,0,0,10
567307853,567307668,2490386,-5.757816,1.0998963,8.391677,51.135265,0,0,0,0,10
567311586,567311376,2490386,10.335529,3.1866825,-17.940712,51.29831,0,0,0,0,10
567315329,567315083,2490386,-3.3684025,-0.7632715,-20.636822,51.394928,0,0,0,0,10
567319041,567318789,2490386,-6.638643,-0.95073754,-0.46710876,51.376812,0,0,0,0,10
567321531,567321260,2490386,-1.4595053,-4.5406036,-26.115234,51.38285,0,0,0,0,10
567326531,567326204,2490386,-5.00867,8.338286,-15.193126,51.268116,0,0,0,0,10
567330390,567329913,2490386,-0.78457993,7.7713394,13.159491,51.328503,0,0,0,0,10
567332664,567332381,2490386,-3.1103075,-9.962034,-37.584656,51.274155,0,0,0,0,10
567336432,567336087,2490386,-6.597941,2.3736117,5.697003,51.304348,0,0,0,0,10
567340159,567339794,2490386,5.3792925,-3.357868,-13.548548,51.177536,0,0,0,0,10
567344000,567343500,2490386,-3.2965763,-3.1239545,-22.741564,51.25,0,0,0,0,10
567346445,567345972,2490386,2.2057781,-1.7010803,-15.407407,51.316425,0,0,0,0,10
567351124,567350914,2490386,5.123352,-3.7469256,-24.34568,51.25,0,0,0,0,10
567353581,567353385,2490386,-2.069548,1.8753783,10.877816,51.25604,0,0,0,0,10
567357304,567357092,2490386,2.835453,3.3494883,-4.639484,51.183575,0,0,0,0,10
567360996,567360799,2490386,0.8236054,-2.840002,-40.233124,51.34662,0,0,0,0,10
567364693,567364506,2490386,-4.942351,-2.5383327,-14.7988,51.25604,0,0,0,0,10
567367177,567366977,2490386,5.7379436,2.935052,-18.883787,51.177536,0,0,0,0,10
567370884,567370690,2490386,-10.183976,-2.541924,-33.870052,51.268116,0,0,0,0,10
567375820,567375626,2490386,-6.256528,-2.192131,-18.070238,51.15338,0,0,0,0,10
567378304,567378099,2490386,1.5610195,4.0167522,-19.631018,51.394928,0,0,0,0,10
567381986,567381804,2490386,-7.322427,-4.056496,-43.990105,51.237923,0,0,0,0,10
567385721,567385512,2490386,0.67923504,1.8777725,14.619953,51.135265,0,0,0,0,10
567389409,567389218,2490386,2.9352913,4.3344626,-12.946167,51.171497,0,0,0,0,10
567393120,567392934,2490386,-5.228218,-5.758534,-47.26274,51.086956,0,0,0,0,10
567395581,567395395,2490386,13.314634,5.5148044,37.307648,50.978264,0,0,0,0,10
567399290,567399102,2490386,-3.9193082,-0.69024837,-36.172558,51.086956,0,0,0,0,10
567402997,567402809,2490386,-4.755842,-7.704302,-44.91714,51.099037,0,0,0,0,10
567406699,567406516,2490386,11.73925,-0.24995466,15.89343,51.050724,0,0,0,0,10
567409216,567408987,2490386,-8.111076,4.660074,-24.7424,51.050724,0,0,0,0,10
567413054,567412693,2490386,-1.2126632,-1.2909535,-23.156,51.050724,0,0,0,0,10
567416802,567416400,2490386,-1.1777078,-2.2965183,12.304281,50.978264,0,0,0,0,10
567420449,567420108,2490386,-12.744336,-2.5455153,-33.270065,51.068844,0,0,0,0,10
567424096,567423814,2490386,11.032481,-1.7542316,-20.61719,51.02657,0,0,0,0,10
567427855,567427521,2490386,-1.6745046,-6.8004904,-21.56242,51.032608,0,0,0,0,10
567430437,567429992,2490386,-2.8668172,-3.0289047,-27.96691,50.972225,0,0,0,0,10
567434078,567433698,2490386,5.7252545,4.43885,-13.521733,51.032608,0,0,0,0,10
567437837,567437405,2490386,-6.3582816,-7.097611,-25.87294,50.905796,0,0,0,0,10
567442548,567442347,2490386,-1.4762648,0.24301147,-11.187626,50.972225,0,0,0,0,10
567445049,567444819,2490386,2.0082564,2.984133,-23.509865,51.129227,0,0,0,0,10
567448746,567448526,2490386,-4.6595955,-0.49129018,-16.219519,50.94203,0,0,0,0,10
567451236,567450997,2490386,5.3089027,0.9210494,-15.334622,50.996376,0,0,0,0,10
567454906,567454703,2490386,4.6880865,-1.5200787,-31.010899,51.008457,0,0,0,0,10
567459842,567459646,2490386,0.12018893,-6.5902796,-18.163372,51.02657,0,0,0,0,10
