timestamp,timestamp_sample,xyz[0],xyz[1],xyz[2]
564941942,564941387,-0.7135645,0.1914825,-9.8333025
564946862,564946391,-0.7149645,0.18862073,-9.835439
564951933,564951400,-0.71379465,0.17775372,-9.840119
564956821,564956409,-0.7597064,0.17393306,-9.832344
564961848,564961419,-0.69248474,0.23300621,-9.830473
564966853,564966429,-0.6839451,0.21058334,-9.856981
564971890,564971438,-0.7658452,0.10495885,-9.806319
564976947,564976448,-0.70614165,0.12738329,-9.804009
564981977,564981458,-0.6898303,0.13267075,-9.819205
564986893,564986467,-0.6557894,0.09675941,-9.830555
564991914,564991477,-0.6402598,0.2707867,-9.810985
564996920,564996487,-0.8491294,0.39319372,-9.778679
565001925,565001496,-0.8937533,0.19181402,-9.897348
565006944,565006506,-0.78392303,0.21931759,-9.848708
565012049,565011515,-0.70927006,0.22271378,-9.923486
565017069,565016525,-0.6093821,0.071486644,-9.962146
565022010,565021535,-0.7749474,0.11357422,-9.697825
565027052,565026544,-0.72297895,0.15803595,-9.772312
565032117,565031554,-0.4939611,-0.047603197,-9.874094
565037041,565036564,-0.7312863,0.1091075,-9.786598
565042007,565041573,-0.8229568,0.22915886,-9.818388
565047004,565046583,-0.68208015,0.26260623,-9.779717
565052102,565051593,-0.81108856,0.24901018,-9.806752
565057029,565056602,-0.87068367,0.24670565,-9.953359
565062036,565061612,-0.7408187,0.30927223,-9.95445
565067055,565066621,-0.6460573,0.16614409,-9.801021
565072051,565071631,-0.6791149,0.034400694,-9.748783
565077100,565076641,-0.66057086,0.11620927,-9.812973
565082132,565081650,-0.70068777,0.10024035,-9.804902
565087076,565086660,-0.7537177,0.17320316,-9.744092
565092117,565091669,-0.64999855,0.09794185,-9.844982
565097100,565096682,-0.6729368,0.23126553,-9.910279
565102105,565101689,-0.7526815,0.30226418,-9.941289
565107150,565106707,-0.7586086,0.2218023,-9.861118
565112209,565111708,-0.77735794,0.24832113,-9.780511
565117247,565116719,-0.777592,0.106745705,-9.823274
565122230,565121727,-0.72711,0.16205359,-9.886201
565127242,565126737,-0.6998649,0.14148839,-9.808603
565132199,565131746,-0.6792613,0.08807674,-9.747038
565137178,565136756,-0.6642933,0.13066824,-9.783154
565142179,565141767,-0.66915596,0.1511836,-9.819689
565147187,565146775,-0.76388663,0.29639035,-9.775025
565152195,565151785,-0.83405036,0.2164015,-9.827927
565157214,565156795,-0.7246944,0.21378335,-9.893849
565162221,565161805,-0.749373,0.23026489,-9.856564
565167244,565166814,-0.84199494,0.25909558,-9.86037
565172275,565171824,-0.7411402,0.17954707,-9.807552
565177337,565176833,-0.5868865,0.09838868,-9.820301
565182262,565181849,-0.6868606,0.12608075,-9.771786
565187268,565186853,-0.7720363,0.100899205,-9.79094
565192290,565191862,-0.7555556,0.18687789,-9.848527
565197312,565196872,-0.6932296,0.1609773,-9.809197
565202322,565201882,-0.7261,0.20005213,-9.841861
565207336,565206891,-0.80280656,0.19517368,-9.873571
565212414,565211901,-0.6568188,0.20038544,-9.870414
565217408,565216910,-0.66632843,0.22733635,-9.805098
565222398,565221920,-0.7412039,0.19716276,-9.831206
565227479,565226930,-0.724055,0.15582834,-9.733255
565232417,565231939,-0.7054286,0.16137476,-9.797177
565237359,565236951,-0.7328392,0.21652374,-9.833275
565242439,565241958,-0.7484116,0.16353194,-9.855144
565247373,565246968,-0.6983508,0.18848357,-9.885119
565252404,565251978,-0.6994548,0.18812847,-9.914521
565257407,565256989,-0.7955342,0.12803176,-9.911935
565262414,565261998,-0.7500598,0.2225844,-9.9019785
565267485,565267007,-0.71717083,0.17345507,-9.865051
565272445,565272016,-0.7226958,0.18682702,-9.852387
565277531,565277026,-0.724429,0.1661652,-9.853927
565282501,565282035,-0.73085916,0.1933525,-9.848885
565287556,565287046,-0.7148375,0.16559288,-9.900796
565292560,565292055,-0.7410021,0.21688598,-9.904317
565297509,565297064,-0.71728057,0.19612134,-9.84959
565302551,565302075,-0.7008784,0.22063012,-9.890268
565307551,565307084,-0.6909572,0.19141215,-9.865175
565312636,565312094,-0.732363,0.20715035,-9.904639
565317658,565317103,-0.7564002,0.16902983,-9.862379
565322533,565322112,-0.74193484,0.17898647,-9.911784
565327543,565327122,-0.7241197,0.13947897,-9.8225565
565332538,565332134,-0.69881785,0.1777269,-9.91377
565337555,565337141,-0.7072138,0.12891553,-9.852863
565342564,565342151,-0.711459,0.18360412,-9.907287
565347668,565347161,-0.74259114,0.18491639,-9.796215
565352646,565352170,-0.76081145,0.1764147,-9.853154
565357663,565357180,-0.7499688,0.28088453,-9.895679
565362592,565362189,-0.66343564,0.1998641,-9.919883
565367618,565367199,-0.68908167,0.24026375,-9.957781
565372664,565372209,-0.7110505,0.18532826,-9.875629
565377694,565377219,-0.7297153,0.15367971,-9.877753
565382661,565382228,-0.79314846,0.11709914,-9.923706
565387674,565387238,-0.82694834,0.15418136,-9.827995
565392711,565392247,-0.6038325,0.14608476,-9.946982
565397677,565397257,-0.63284916,0.19363129,-9.844171
565402720,565402266,-0.7784799,0.17588216,-9.769295
565407736,565407276,-0.74810773,0.18362392,-9.903393
565412759,565412290,-0.78824204,0.16785753,-9.904654
565417814,565417295,-0.80044705,0.20664255,-9.856367
565422737,565422308,-0.67094713,0.19172125,-9.92387
565427785,565427315,-0.6343365,0.17381383,-9.875158
565432743,565432324,-0.63994217,0.21675183,-9.906454
565437738,565437334,-0.64535624,0.1799025,-9.906682
565442755,565442344,-0.7705574,0.16340093,-9.838709
565447832,565447354,-0.82873124,0.17435448,-9.86225
565452776,565452363,-0.68079084,0.1771348,-9.93187
565457808,565457379,-0.65530914,0.19317284,-9.869331
565462806,565462382,-0.63436717,0.13687627,-9.9119625
565467824,565467391,-0.6538582,0.24221013,-9.990589
565472896,565472401,-0.8073113,0.14104378,-9.9342165
565477941,565477411,-0.8760739,0.21262662,-9.839246
565482863,565482420,-0.78397596,0.2194414,-9.916337
565487915,565487430,-0.7171622,0.17787915,-9.912846
565493001,565492440,-0.6889065,0.183523,-9.850718
565497915,565497449,-0.58700347,0.20700896,-10.040071
565502925,565502465,-0.75501764,0.17082901,-9.956882
565507887,565507468,-0.81780565,0.17150384,-9.877433
565512992,565512478,-0.6922985,0.12397083,-9.823483
565517917,565517489,-0.8488955,0.17626496,-9.912269
565522944,565522498,-0.7404905,0.1649587,-9.860364
565527953,565527508,-0.52118856,0.1531556,-9.956857
565532951,565532517,-0.70507354,0.25581795,-9.951405
565537950,565537526,-0.8626722,0.14229104,-9.870918
565542988,565542536,-0.67631936,0.23224081,-9.908712
565548088,565547555,-0.73170716,0.14728366,-9.868424
565552972,565552555,-0.84812105,0.1866398,-9.942782
565558133,565557567,-0.62049943,0.16250332,-9.883008
565563030,565562575,-0.6030301,0.17055222,-9.999884
565568096,565567584,-0.8009803,0.22708221,-10.060209
565573050,565572594,-0.7352223,0.16280733,-9.935916
565578142,565577603,-0.7032785,0.21007735,-9.826962
565583079,565582613,-0.8268225,0.099145696,-9.866553
565588097,565587622,-0.6979301,0.162062,-9.973896
565593093,565592632,-0.59645253,0.21400183,-9.966219
565598101,565597647,-0.7970611,0.15390462,-9.963516
565603074,565602656,-0.81856686,0.18941866,-9.9412985
565608075,565607661,-0.6766258,0.15763274,-9.94754
565613178,565612671,-0.7681413,0.20834647,-9.826504
565618166,565617680,-0.74040425,0.1601355,-9.896316
565623100,565622690,-0.64482087,0.21540879,-9.901534
565628125,565627700,-0.77025175,0.22516537,-9.86748
565633166,565632709,-0.7611842,0.1783347,-9.9881315
565638131,565637719,-0.6458302,0.16646217,-9.963813
565643201,565642729,-0.70790595,0.15798025,-9.876099
565648151,565647738,-0.7163849,0.13908665,-9.816033
565653174,565652748,-0.64449376,0.2094494,-9.900269
565658242,565657757,-0.8104673,0.20696223,-9.924453
565663210,565662768,-0.76368517,0.24659058,-9.955845
565668210,565667776,-0.6604086,0.20326793,-9.972966
565673233,565672787,-0.76893747,0.20017603,-9.932974
565678350,565677797,-0.67206323,0.1517853,-9.930978
565683271,565682805,-0.69296396,0.15348478,-9.870249
565688252,565687815,-0.813309,0.19582096,-9.959631
565693280,565692824,-0.7003783,0.16725868,-10.06904
565698242,565697834,-0.6607502,0.13089319,-9.96397
565703248,565702844,-0.7203146,0.23390366,-9.969216
565708261,565707853,-0.689791,0.18974757,-9.988288
565713356,565712863,-0.63446003,0.20582958,-9.990912
565718310,565717873,-0.85855013,0.20098282,-9.891968
565723296,565722882,-0.8570069,0.14200836,-9.974243
565728412,565727892,-0.63954407,0.17742375,-10.045059
565733319,565732902,-0.73467654,0.21892089,-10.059116
565738314,565737911,-0.85662466,0.1252757,-9.950553
565743336,565742921,-0.6630332,0.16056138,-9.930423
565748335,565747930,-0.7373502,0.16165066,-9.923227
565753380,565752940,-0.8259859,0.16330294,-9.899427
565758415,565757955,-0.6171738,0.17194207,-9.961928
565763444,565762959,-0.55457187,0.21532856,-9.989728
565768424,565767968,-0.692616,0.18095657,-9.960163
565773533,565772988,-0.7447159,0.1299783,-9.854061
565778510,565777988,-0.71328086,0.22565523,-9.8701725
565783409,565782999,-0.72013986,0.17698605,-9.9643545
565788462,565788008,-0.7275255,0.18463804,-9.913947
565793490,565793017,-0.7115319,0.17976487,-9.926714
565798445,565798027,-0.7317799,0.23225832,-10.031494
565803450,565803036,-0.65989745,0.080832325,-10.032657
565808460,565808045,-0.7839982,0.2258854,-9.935281
565813544,565813061,-0.84961015,0.1470596,-9.880177
565818585,565818064,-0.6416382,0.14301151,-10.009162
565823485,565823074,-0.65561,0.13829543,-9.887958
565828524,565828086,-0.7893073,0.15233523,-9.869861
565833508,565833093,-0.72362936,0.19961342,-9.930444
565838527,565838103,-0.6442114,0.20822044,-9.904046
565843652,565843112,-0.77624255,0.30038527,-9.827949
565848667,565848126,-0.63948536,0.1253794,-9.856915
565853572,565853132,-0.6823701,0.21433756,-9.986508
565858637,565858141,-0.81718487,0.2135488,-9.96897
565863619,565863151,-0.767677,0.12206975,-9.922097
565868617,565868160,-0.67098564,0.20661731,-9.977287
565873581,565873170,-0.7675473,0.09520455,-9.940812
565878672,565878185,-0.7489448,0.14940375,-9.98156
565883609,565883189,-0.5728297,0.14573282,-9.980373
565888619,565888199,-0.7505623,0.18314978,-9.9612465
565893640,565893209,-0.85642827,0.19647172,-9.950396
565898651,565898219,-0.6632031,0.22021604,-9.879549
565903725,565903228,-0.67228824,0.17736363,-9.916958
565908659,565908238,-0.7169707,0.1392301,-9.910555
565913755,565913247,-0.6419703,0.21930104,-9.967546
565918676,565918257,-0.76727706,0.20421779,-9.836602
565923677,565923266,-0.90267473,0.13716848,-9.959663
565928697,565928277,-0.72782964,0.23633441,-9.913417
565933722,565933285,-0.6828425,0.18328519,-9.8066
565938744,565938295,-0.7288695,0.11292127,-9.877661
565943827,565943304,-0.5900552,0.12165381,-9.973937
565948767,565948314,-0.7325874,0.21940602,-9.925506
565953809,565953324,-0.9420239,0.12979609,-9.8359375
565958849,565958333,-0.7885434,0.16856782,-9.9324255
565963793,565963344,-0.5946668,0.29661205,-9.929832
565968773,565968352,-0.6594966,0.17251237,-9.985458
565973873,565973362,-0.6768683,0.16307452,-9.907086
565978810,565978377,-0.6910551,0.2494613,-9.931871
565983801,565983381,-0.8581318,0.15326826,-9.951939
565988806,565988391,-0.8327185,0.15597644,-9.77882
565993824,565993400,-0.6880308,0.15876798,-9.832073
565998827,565998410,-0.62320495,0.14808014,-9.942712
566003838,566003420,-0.5522992,0.13230194,-9.972472
566008851,566008434,-0.70644337,0.19572242,-9.8770895
566013917,566013439,-0.90216744,0.09556923,-9.862871
566018977,566018449,-0.83644813,0.2134053,-9.863262
566023969,566023458,-0.7161374,0.26894352,-9.815323
566029042,566028468,-0.647974,0.2272369,-9.93993
566033922,566033477,-0.5991391,0.25797287,-10.088937
566038943,566038487,-0.6737193,0.16670716,-10.029453
566044045,566043496,-0.9221139,0.15501983,-9.873191
566048985,566048506,-0.83355194,0.11374701,-9.890744
566053961,566053516,-0.64616275,0.23780416,-9.926087
566058962,566058525,-0.68907857,0.11718371,-9.890602
566063948,566063535,-0.5620351,0.17060414,-9.931028
566068958,566068545,-0.59199345,0.20339127,-9.965501
566073975,566073554,-0.93929386,0.14883775,-9.992764
566079083,566078566,-0.9257443,0.115112185,-9.819119
566084030,566083573,-0.67240745,0.20151907,-9.883827
566089092,566088583,-0.6291264,0.14720789,-10.001022
566094000,566093592,-0.5876196,0.22514172,-10.026662
566099021,566098602,-0.64360565,0.25641146,-10.011234
566104034,566103612,-0.88503057,0.16933952,-9.9780855
566109069,566108622,-0.89030534,0.13074537,-9.953114
566119097,566118641,-0.6033556,0.15210475,-9.960612
566124097,566123650,-0.65939,0.1363969,-10.012697
566129234,566128671,-0.5896984,0.18873821,-9.980189
566134092,566133669,-0.81188524,0.16392751,-9.879785
566139154,566138679,-1.0170647,0.097583726,-9.903184
566144170,566143689,-0.68896043,0.22415353,-9.958857
566149206,566148698,-0.6128443,0.22300716,-9.86628
566154162,566153715,-0.68993133,0.17408854,-9.821424
566159142,566158717,-0.6397968,0.23040935,-10.000957
566164130,566163727,-0.73708946,0.18383363,-9.904901
566169151,566168736,-0.97710216,0.12654293,-9.819095
566174165,566173746,-0.7726798,0.19572373,-9.7775
566179212,566178756,-0.5247048,0.14965749,-9.921537
566184174,566183767,-0.5793588,0.17621264,-9.932055
566189267,566188775,-0.6578922,0.13568275,-9.964048
566194201,566193784,-0.7843737,0.14260417,-9.878113
566199212,566198794,-0.9007367,0.12547137,-9.892705
566204236,566203804,-0.7806764,0.16544534,-9.902402
566209342,566208813,-0.6625231,0.26685598,-9.845968
566214346,566213827,-0.62134594,0.16978776,-9.896365
566219273,566218840,-0.6948979,0.25249568,-9.928901
566224349,566223842,-0.7895199,0.16057804,-9.849767
566229315,566228852,-0.93094236,0.14466566,-9.833673
566234329,566233861,-0.72979593,0.19096512,-9.86592
566239361,566238871,-0.5591897,0.15573858,-9.870179
566244359,566243881,-0.5946175,0.1337376,-9.79986
566249299,566248890,-0.6020796,0.139357,-9.932101
566254321,566253900,-0.7051939,0.22084491,-9.851982
566259327,566258909,-0.9342223,0.1315131,-9.750127
566264353,566263919,-0.8237679,0.2258362,-9.76537
566269358,566268929,-0.64854467,0.19348462,-9.807778
566274375,566273938,-0.69689107,0.18867473,-9.902095
566279439,566278948,-0.6548776,0.130606,-9.857202
566284382,566283962,-0.7242133,0.19502546,-9.961628
566289400,566288970,-0.8259984,0.13533789,-9.924385
566294390,566293977,-0.83572435,0.20428237,-9.690628
566299394,566298986,-0.6801929,0.19580251,-9.718303
566304432,566303996,-0.6425526,0.11061774,-9.854732
566309518,566309005,-0.6199839,0.2124436,-9.941399
566314478,566314016,-0.62627923,0.22256501,-9.8094
566319521,566319024,-0.8434215,0.12830368,-9.785837
566324506,566324034,-0.85495764,0.14037447,-9.7834
566329518,566329044,-0.6211754,0.23699811,-9.801118
566334525,566334053,-0.6601675,0.18349266,-9.738181
566339471,566339063,-0.74437195,0.21063612,-9.866383
566344570,566344073,-0.68693435,0.18237695,-9.884195
566349574,566349082,-0.8264062,0.22669233,-9.802935
566354523,566354092,-0.8472368,0.1305675,-9.856977
566359508,566359101,-0.6873858,0.26069513,-9.850344
566364517,566364111,-0.5704183,0.14130653,-9.792876
566369622,566369120,-0.7163213,0.18823572,-9.804237
566374624,566374131,-0.78503287,0.15956113,-9.7909155
566379555,566379140,-0.7496878,0.15472974,-9.867582
566384549,566384149,-0.8241689,0.22612713,-9.722246
566389678,566389159,-0.76945186,0.20499025,-9.723633
566394605,566394169,-0.62429094,0.17566623,-9.804691
566399601,566399178,-0.57519543,0.23765382,-9.901689
566404633,566404188,-0.8519132,0.15664187,-9.812208
566409721,566409197,-0.88794154,0.18186337,-9.768571
566414778,566414207,-0.7151608,0.1614218,-9.818785
566419696,566419217,-0.6550225,0.24015145,-9.862841
566424656,566424226,-0.63641745,0.15206674,-9.815399
566429648,566429236,-0.6406761,0.17550912,-9.786062
566434657,566434247,-0.65389943,0.23005658,-9.77499
566439667,566439255,-0.8787201,0.16646779,-9.876652
566444692,566444265,-0.8219362,0.18908824,-9.802562
566449819,566449282,-0.5999333,0.20020436,-9.866492
566454737,566454284,-0.64801,0.14350694,-9.858276
566459696,566459293,-0.70754445,0.13211448,-9.781004
566464717,566464303,-0.6438344,0.23115776,-9.851079
566469773,566469313,-0.8923105,0.1507141,-9.807305
566474745,566474322,-0.970071,0.16995461,-9.797078
566479865,566479332,-0.65034115,0.20201963,-9.747813
566484878,566484345,-0.57530594,0.18139187,-9.82339
566489918,566489353,-0.65466356,0.16233526,-9.916037
566494804,566494361,-0.6226574,0.16846044,-9.819992
566499822,566499370,-0.7978837,0.21590786,-9.723666
566504862,566504380,-0.962473,0.13396603,-9.774358
566509985,566509390,-0.6602038,0.25347033,-9.875153
566514949,566514400,-0.5390692,0.19931677,-9.839138
566519861,566519409,-0.6872514,0.1679077,-9.815029
566524833,566524418,-0.69281834,0.23755795,-9.843783
566529883,566529432,-0.69180375,0.13696967,-9.818593
566534863,566534438,-0.9759405,0.20679599,-9.796437
566539867,566539447,-0.7473373,0.17389154,-9.72365
566544937,566544457,-0.53280497,0.13427168,-9.854821
566549972,566549467,-0.6488803,0.20996211,-9.887492
566554912,566554476,-0.66719836,0.13682346,-9.810063
566559950,566559486,-0.72243804,0.22814356,-9.851438
566564934,566564495,-0.89271784,0.12158031,-9.847019
566569963,566569505,-0.72732675,0.2529548,-9.897262
566574927,566574515,-0.6024127,0.14677316,-9.770133
566579995,566579540,-0.71398693,0.17041898,-9.921808
566585016,566584534,-0.69940907,0.19843413,-9.912858
566590033,566589544,-0.7125591,0.20534222,-9.864062
566595000,566594553,-0.90433156,0.1460717,-9.915408
566600054,566599563,-0.7545036,0.17928743,-9.921007
566605047,566604572,-0.61311704,0.16091642,-9.857636
566610109,566609582,-0.73039496,0.15503767,-9.817289
566615064,566614592,-0.71132493,0.19374526,-9.953743
566620010,566619601,-0.66266614,0.25989616,-9.931394
566625038,566624611,-0.84196234,0.17527123,-9.842474
566630172,566629620,-0.8183836,0.24669409,-9.790363
566635055,566634638,-0.6000072,0.18067989,-9.8461485
566640081,566639640,-0.7008987,0.18069088,-9.954336
566645145,566644651,-0.75698626,0.18849273,-9.886904
566650096,566649659,-0.63514155,0.16407414,-9.979714
566655085,566654669,-0.798205,0.19724245,-9.933471
566660102,566659678,-0.75365686,0.13364638,-9.881569
566665111,566664688,-0.656441,0.1251154,-9.8661
566670216,566669697,-0.78305525,0.12592107,-9.924597
566675217,566674708,-0.73722416,0.19524619,-9.9512005
566680259,566679717,-0.69928795,0.22979863,-9.838742
566685174,566684727,-0.7868328,0.15940425,-9.867962
566690300,566689738,-0.7366056,0.19921711,-9.954712
566695217,566694746,-0.5773219,0.24088319,-9.96043
566700225,566699764,-0.7448498,0.15675756,-9.827543
566705190,566704766,-0.8179744,0.18556018,-9.838638
566710188,566709774,-0.58450687,0.1628365,-9.877498
566715267,566714784,-0.72363544,0.21542716,-9.8768
566720249,566719794,-0.8411823,0.11241669,-9.874153
566725222,566724803,-0.654225,0.22175507,-9.907961
566730314,566729815,-0.65880924,0.11024154,-9.933939
566735244,566734822,-0.8124041,0.13674787,-9.953379
566740251,566739832,-0.6481527,0.16462396,-9.865442
566745254,566744842,-0.72247297,0.29210848,-9.995157
566750355,566749851,-0.8109886,0.19044894,-9.942799
566755270,566754861,-0.7265763,0.20796804,-9.82538
566760367,566759870,-0.70801455,0.17154619,-9.892036
566765319,566764880,-0.72528726,0.17365435,-9.983416
566770397,566769890,-0.68527335,0.26090834,-9.988701
566775344,566774899,-0.7611358,0.17061369,-9.88813
566780369,566779909,-0.7443992,0.18895634,-9.895316
566785380,566784919,-0.638324,0.16019627,-9.957002
566790474,566789932,-0.69523597,0.08736761,-9.8804655
566795417,566794938,-0.7290705,0.18840174,-9.876747
566800357,566799947,-0.64947474,0.14221165,-9.886206
566805368,566804957,-0.8290947,0.22152776,-9.851512
566810458,566809970,-0.8476904,0.1989724,-9.902042
566815448,566814976,-0.6231259,0.2485142,-10.010092
566820516,566819986,-0.68911946,0.20671226,-10.037469
566825407,566824996,-0.82008517,0.1543347,-10.028406
566830502,566830007,-0.6674166,0.22587667,-9.92481
566835430,566835014,-0.7163355,0.13804872,-9.929658
566840448,566840024,-0.8750006,0.22383048,-10.043026
566845590,566845034,-0.6668143,0.21410567,-9.944654
566850465,566850043,-0.65340596,0.08885143,-9.90658
566855528,566855053,-0.7384138,0.1482155,-10.01449
566860513,566860063,-0.6784211,0.12186391,-10.007789
566865498,566865072,-0.71825504,0.21537143,-9.89489
566870589,566870082,-0.86066705,0.1444359,-9.882731
566875541,566875091,-0.6500955,0.23380132,-10.000301
566880684,566880102,-0.62353075,0.26321575,-9.995724
566885543,566885112,-0.7822197,0.12806097,-10.058158
566890612,566890121,-0.7949349,0.15787047,-9.96747
566895534,566895130,-0.6504808,0.16051957,-9.986289
566900549,566900139,-0.7784947,0.21035667,-9.999477
566905576,566905149,-0.7061929,0.19360015,-9.903409
566910652,566910159,-0.5920427,0.123059474,-10.009403
566915652,566915169,-0.7401213,0.2159652,-9.975053
566920601,566920178,-0.6987233,0.10522486,-9.905047
566925613,566925187,-0.6949918,0.18513697,-9.912157
566930700,566930197,-0.78725946,0.12801252,-9.94042
566935613,566935207,-0.70634484,0.15855403,-9.940212
566940637,566940217,-0.6134201,0.15636513,-9.913038
566945724,566945226,-0.7872169,0.2252008,-10.021875
566950732,566950236,-0.8101253,0.22203742,-9.9956045
566955669,566955245,-0.6465149,0.20944886,-9.897806
566960692,566960255,-0.7610197,0.21049976,-9.92974
566965734,566965264,-0.7618547,0.17608969,-9.934409
566970794,566970274,-0.5978474,0.21981204,-10.027643
566975909,566975283,-0.8861521,0.19447228,-9.892525
566980791,566980294,-0.8803967,0.04002975,-9.920321
566985715,566985303,-0.38513994,0.23341016,-10.047292
566990786,566990312,-0.6421325,0.14014892,-10.033566
566995736,566995322,-1.4278334,0.06824494,-9.858772
567000756,567000332,-1.0554961,0.29090104,-9.948056
567005769,567005341,-0.2967321,0.19633138,-9.942571
567010792,567010351,-0.78282434,0.2767207,-9.780898
567015893,567015360,-1.2143096,-0.018035902,-10.028089
567020888,567020370,-0.84900457,0.008059414,-10.114384
567025801,567025380,-0.6861934,0.2964549,-9.741292
567030954,567030389,-0.9043173,0.29995924,-9.801549
567035814,567035398,-0.81157166,0.420518,-10.020343
567040855,567040408,-0.13715608,0.5144268,-9.965134
567045919,567045418,-0.4670045,0.16893305,-9.9619
567050980,567050429,-0.9640512,-0.047721747,-9.907404
567055915,567055437,-0.6573609,-0.34577054,-9.825616
567060943,567060447,-0.5986957,0.105885684,-9.969438
567065916,567065456,-0.8870085,0.21616574,-9.987478
567070906,567070466,-0.46046722,0.44667083,-10.2052555
567075897,567075475,-0.1603664,-0.08050277,-10.025253
567080906,567080485,-0.7075816,-0.0056661116,-10.006494
567085918,567085494,-0.9275385,0.40071428,-9.780016
567091108,567090505,-0.7466683,0.3903643,-10.125058
567096014,567095514,-0.7305224,-0.067737095,-10.043799
567100949,567100523,-0.4123638,0.096057996,-9.594438
567105984,567105533,-0.43797004,0.3467524,-9.803511
567110985,567110542,-0.9769225,0.12841173,-10.321912
567116062,567115552,-0.7379988,0.26722115,-10.546717
567121072,567120562,-0.5784941,0.18128441,-9.232792
567126002,567125571,-0.8872807,0.48647207,-9.826996
567131106,567130581,-0.80768377,0.18014264,-10.682337
567136028,567135590,-0.18869796,0.23084746,-10.44987
567141054,567140600,-0.82796943,0.01903023,-9.169361
567146134,567145610,-1.4400054,-0.12866265,-10.247538
567151231,567150619,-0.58666,0.31633952,-10.277305
567156098,567155629,-0.0008036299,0.18223706,-9.969762
567161096,567160639,-1.3206195,0.49941957,-9.604385
567166084,567165653,-1.0681452,-0.23573805,-10.812794
567171089,567170657,0.37796056,-0.4058918,-10.654186
567176080,567175667,-0.76217943,0.88454425,-9.650781
567181096,567180677,-1.258517,0.028243696,-10.373607
567186119,567185686,-0.16560237,-0.6896966,-10.403041
567191146,567190696,-0.017990688,0.482682,-9.441383
567196114,567195705,-1.0236102,0.7348679,-10.398817
567201132,567200715,-0.47792017,-1.0486912,-10.95666
567206156,567205725,0.2369407,0.5856173,-10.051058
567211233,567210734,-0.5594401,0.9973967,-9.984535
567216197,567215744,-0.99976414,-0.8117517,-10.131767
567221206,567220753,-0.66638505,0.86038774,-10.482411
567226286,567225767,-0.23594756,0.47610044,-10.309953
567231295,567230773,-0.7120699,-0.32398573,-9.982154
567236222,567235782,-0.9427544,1.2784755,-10.607872
567241262,567240792,-0.19304083,0.012599813,-10.542243
567246343,567245802,-0.72963804,0.2873477,-9.720463
567251318,567250812,-1.0268458,0.38199627,-10.919815
567256247,567255820,-0.044699024,0.22000602,-11.611199
567261294,567260830,-0.019936914,0.27945673,-10.1793
567266254,567265840,-0.43576747,0.18690449,-10.570954
567271353,567270849,-0.9449446,0.27717516,-11.056815
567276338,567275859,-0.67203295,-0.16135566,-11.371156
567281283,567280868,-0.14073308,0.76157826,-10.901924
567286303,567285878,-0.42603362,-0.15629224,-10.386311
567291376,567290887,-0.22297226,0.012253088,-11.761671
567296395,567295898,0.091389105,0.65161765,-12.368226
567301316,567300907,-0.011960043,-0.47289214,-11.744521
567306397,567305917,-0.73257643,0.74956876,-11.413927
567311433,567310926,-0.5273333,-0.38078484,-11.369762
567316442,567315935,-0.27895698,0.3311006,-11.497417
567321386,567320945,-0.17149514,0.13537304,-11.009321
567326385,567325954,-0.06915483,0.085605375,-11.084949
567331395,567330964,-0.092236795,0.119067535,-11.722296
567336462,567335974,0.3078751,-0.20566851,-12.517233
567341447,567340986,-0.26620108,0.09988088,-13.08657
567346473,567345994,-0.11149859,-0.5482245,-12.816867
567351492,567351002,-0.1391475,0.31961086,-12.944494
567356434,567356012,0.16618326,-0.40699202,-12.042439
567361474,567361021,-0.40079996,0.52219796,-12.05271
567366468,567366031,-0.3103202,-0.34689674,-12.09202
567371461,567371041,0.025742818,0.17479688,-12.427278
567376475,567376050,0.23059231,-0.2769105,-12.088062
567381481,567381060,0.16575663,-0.09404016,-12.410137
567386517,567386069,0.21075651,0.09518096,-13.2551365
567391515,567391079,0.52409106,-0.2049183,-13.384424
567396588,567396094,0.031293444,0.09740344,-13.353493
567401516,567401098,-0.39665768,-0.52662057,-13.533546
567406544,567406107,-0.21405888,0.3608124,-13.972154
567411633,567411116,-0.14234687,-0.5559898,-13.907545
567416646,567416127,0.09770609,0.27299353,-13.977681
567421580,567421136,0.3453386,-0.35603943,-14.215908
567426616,567426145,0.50445175,0.07002382,-14.2187395
567431636,567431155,0.40430027,-0.08645861,-13.981834
567436611,567436164,0.30810893,-0.0032419541,-14.092262
567441590,567441174,0.2700836,-0.1666447,-14.959237
567446608,567446183,0.4112721,-0.3484013,-14.993852
567451635,567451193,0.4012397,-0.18938152,-14.370723
567456636,567456202,-0.25691113,-0.10894473,-13.748781
567461636,567461212,-0.058905628,0.19493523,-13.818437
567466649,567466221,-0.020326028,-0.21996039,-13.225918
567471745,567471231,0.5054194,-0.0013246789,-13.06966
567481688,567481250,0.34400418,0.12074323,-13.758698
567486671,567486259,0.20360672,-0.2701439,-13.52658
567491680,567491269,0.31886333,0.026998945,-13.89199
567496689,567496278,-0.09688558,-0.16170101,-13.7652235
567501723,567501288,0.4730724,0.07592184,-14.067155
567506743,567506297,0.33793113,-0.3029927,-13.399592
567511836,567511307,0.18973844,-0.30398428,-13.399391
567516834,567516316,-0.087304704,-0.32755178,-13.561373
567521809,567521326,0.0696263,-0.23895516,-13.773621
567526830,567526335,0.13436268,-0.016928283,-12.911314
567531843,567531348,-0.2523802,0.36422345,-12.526405
567536756,567536354,-0.042909883,-0.17963071,-12.476204
567541782,567541364,-0.14728959,0.44285274,-12.76891
567546858,567546375,0.3641102,-0.37897018,-12.62739
567551809,567551389,0.04615712,0.26158348,-13.138296
567556804,567556392,0.5971628,-0.6359826,-12.858198
567561844,567561401,0.1912988,0.47209585,-12.739485
567566843,567566411,0.33038107,-0.8837343,-11.871648
567571857,567571420,0.036089215,0.17614825,-12.414853
567576949,567576436,0.28711253,-0.6353912,-12.226435
567581921,567581440,0.090106815,0.259913,-11.490193
567586875,567586449,0.14121339,-0.270354,-11.030757
567591941,567591458,0.27230793,-0.040754598,-11.119956
567596925,567596468,0.60456306,0.13262014,-11.264638
567601923,567601477,0.75772816,-0.6020185,-11.111115
567606949,567606487,0.18845424,0.36460498,-11.190231
567611975,567611497,0.16456172,-0.7590875,-11.1160965
567617064,567616506,0.056265254,0.44586125,-10.528373
567622006,567621516,0.18691792,-0.37099853,-9.991041
567626961,567626524,0.3088855,0.09128627,-10.261177
567632051,567631534,0.3500975,0.16566229,-10.605951
567636998,567636543,0.36042854,-0.480894,-10.92221
567641972,567641553,-0.038111713,0.5503502,-10.446564
567647028,567646562,-0.1425257,-0.78230757,-10.089716
567652009,567651572,0.18242611,0.3668313,-9.602659
567657009,567656581,0.26198354,-0.18118507,-9.524028
567661997,567661591,0.23348269,-0.37397745,-9.686195
567667025,567666600,-0.04433047,0.34279457,-10.198785
567672051,567671610,-0.0015538667,-0.6332325,-10.068665
567677163,567676619,-0.080564186,0.32960927,-9.294481
567682189,567681629,-0.13556254,-0.30356187,-9.184782
567687080,567686640,0.053908,0.06872787,-9.289096
567692084,567691648,0.19351399,0.0905873,-9.70891
567697105,567696657,0.09615953,-0.53379613,-9.688675
567702133,567701666,-0.05451448,0.30106476,-9.220019
567707167,567706676,0.011447689,-0.32491776,-9.286897
567712255,567711685,0.038062118,0.24273276,-9.074681
567717210,567716695,0.09494531,0.020461148,-9.919385
567722120,567721704,0.06584097,-0.42500898,-10.2633505
567727133,567726714,0.2142462,0.15241452,-9.901157
567732157,567731723,0.036514923,-0.20633097,-9.225235
567737181,567736733,0.0740558,0.16177583,-8.210303
567742248,567741742,0.17789976,-0.062663555,-9.140186
567747177,567746752,0.2005254,-0.16322611,-9.989173
567752177,567751761,0.27478763,-0.029480811,-10.018516
567757205,567756779,0.02806011,-0.13002795,-9.6280575
567762195,567761780,0.46762732,-0.1865246,-8.9815645
567767269,567766790,0.29304898,0.0409102,-9.086074
567772210,567771799,-0.035517894,0.029541388,-9.136963
567777361,567776809,0.20913346,-0.1823453,-9.492426
567782263,567781818,0.2798663,0.14331184,-10.088949
567787271,567786828,0.6165707,-0.47527748,-9.879588
567792276,567791837,-0.037144333,0.073363096,-9.53009
567797345,567796847,-0.18350649,0.17647421,-9.311303
567802322,567801856,0.41304946,-0.6455457,-9.3795595
567807340,567806865,0.36065686,0.33539012,-9.798077
567812281,567811875,0.30700317,-0.58578146,-9.67627
567817377,567816884,-0.2571538,0.19737266,-9.908028
567822322,567821894,-0.035745405,-0.019274307,-9.655703
567827328,567826903,0.37062076,-0.5698758,-9.429038
567832393,567831913,0.35488367,0.38211727,-9.597739
567837344,567836922,0.3440098,-0.6175281,-10.043311
567842461,567841933,-0.06941133,0.30460632,-10.470821
567847448,567846950,0.092836685,-0.35518882,-9.861717
567852461,567851951,0.1347071,-0.1522317,-9.516254
567857422,567856960,0.253493,0.08107044,-9.275371
567862393,567861970,0.36727065,-0.42018262,-9.496917
567867477,567866979,-0.018254692,0.25596088,-10.134959
567872424,567871989,-0.08014614,-0.34584007,-10.581688
567877549,567876999,0.048912097,-0.011682789,-10.69605
567882482,567882008,0.44341606,-0.0053277933,-9.662284
567887477,567887017,0.53118557,-0.31509352,-8.906669
567892483,567892026,0.18151379,0.2549102,-9.297576
567897473,567897036,-0.06989277,-0.3555512,-10.599727
567902468,567902045,-0.13984677,-0.06019476,-11.358148
567907500,567907055,-0.042337265,-0.044027805,-10.816956
567912564,567912065,0.34580913,-0.30921665,-9.71978
567917534,567917074,0.5526291,0.25535655,-9.132808
567922522,567922084,0.21014531,-0.40905845,-9.1549425
567927505,567927093,-0.06803145,0.005824935,-9.993878
567932580,567932103,-0.1369922,-0.15737706,-10.84952
567937525,567937112,0.35322627,-0.47143176,-10.707629
567942593,567942121,0.37008297,0.17042807,-9.937401
567947593,567947132,0.25548849,-0.38860604,-9.337044
567952616,567952140,0.009385478,0.1585797,-9.3916025
567957564,567957150,-0.14969847,-0.249387,-10.074106
567962618,567962159,0.042099714,-0.24305932,-10.256184
567967603,567967169,0.10024484,0.037552856,-10.345467
567972738,567972179,0.41027716,-0.45662993,-10.398892
567977731,567977189,0.24215639,0.20357157,-9.713795
567982673,567982197,-0.04596255,-0.48009533,-9.861457
567987693,567987207,-0.03264906,-0.015647037,-9.434567
567992679,567992216,0.13187774,-0.18484381,-9.53538
567997632,567997226,0.1316823,-0.40712607,-9.264286
568002645,568002235,-0.007870981,0.21351445,-9.358799
568007661,568007245,-0.015132305,-0.38745493,-10.263722
568012752,568012254,-0.010367793,0.17532164,-10.091532
568017799,568017264,0.08032534,-0.486738,-10.070727
568022708,568022279,0.20536567,0.04409404,-9.36519
568027709,568027286,0.21311505,-0.15940568,-9.236257
568032783,568032292,0.18500856,-0.11805503,-9.66745
568037707,568037302,0.078252114,0.17459406,-9.635198
568042726,568042311,-0.0732006,-0.40590912,-10.303576
568047843,568047321,0.13159673,0.088701755,-10.016086
568052882,568052332,0.16153559,-0.36138472,-9.903541
568057782,568057340,0.2611843,-0.09091858,-9.405239
568062788,568062349,0.22078031,-0.095040455,-9.40351
568067792,568067359,-0.057485793,-0.13805686,-10.0157385
568072853,568072370,0.23624349,0.011533121,-9.986778
568077992,568077377,0.17550619,-0.08661387,-10.479766
568082833,568082387,0.49226388,-0.29624543,-9.6817465
568087831,568087397,0.37414998,0.0028209423,-9.642528
568092875,568092407,0.0914956,-0.2668381,-9.260861
568097857,568097415,-0.14099121,-0.019997448,-9.136967
568102864,568102425,-0.34583944,0.2679318,-9.888142
568107885,568107435,0.4129777,-0.4172122,-9.707979
568112950,568112446,0.26139253,0.18167196,-10.512153
568117938,568117455,0.49011537,-0.5873407,-10.076701
568122913,568122463,0.09449016,0.038863704,-9.9606495
568127917,568127475,-0.015325326,-0.094326206,-9.108747
568132913,568132482,0.26293725,-0.19803537,-8.096195
568137927,568137491,0.03965991,0.37980038,-8.913073
568143042,568142501,0.47763863,-0.7043729,-9.638833
568147953,568147510,-0.16544762,0.32237488,-11.222034
568153014,568152521,-0.08467429,-0.70815396,-11.099755
568158021,568157529,0.03774939,0.07264603,-10.718138
568163005,568162539,0.3641248,-0.28336814,-9.76093
568168026,568167548,0.56195086,-0.32259238,-9.026839
568173079,568172559,0.147702,0.21065256,-9.541708
568178045,568177567,-0.012559725,-0.49324098,-9.808092
568182990,568182577,-0.14842908,0.30023795,-10.640007
568188052,568187587,0.11598694,-0.5665728,-10.397015
568193107,568192596,0.39120448,0.09949532,-10.606154
568198012,568197605,0.384945,-0.3571297,-10.260912
568203036,568202615,0.19232644,-0.16828708,-10.494944
568208112,568207624,-0.018081253,0.1766322,-10.401551
568213126,568212637,-0.12447515,-0.26385498,-10.239477
568218066,568217643,0.2505507,0.054041367,-10.315942
568223148,568222653,0.39000276,-0.19364779,-10.45511
568228103,568227662,0.4433214,-0.22001605,-10.758018
568233204,568232672,0.123720616,-0.15956207,-10.891716
568238120,568237682,-0.121945895,-0.10241157,-11.477234
568243203,568242691,0.026259657,-0.20038578,-11.225738
568248182,568247700,-0.014252162,0.17548566,-11.556671
568253211,568252710,0.5626276,-0.47649214,-10.929814
568258185,568257719,0.39177188,0.34716418,-11.558958
568263192,568262732,0.50701666,-0.57472736,-11.553291
568268176,568267738,0.10459418,0.42654786,-12.00874
568273205,568272748,0.016347887,-0.4934608,-11.949672
568278189,568277757,0.0796765,0.2620327,-11.836847
568283191,568282767,0.0023098195,-0.27301973,-11.98586
568288194,568287776,0.30846635,0.1502175,-11.578639
568293220,568292788,0.25546905,-0.22189364,-12.156887
568298200,568297795,0.49298376,-0.13335404,-11.983456
568303218,568302805,0.29016662,0.014355285,-13.021885
568308234,568307814,0.39586022,-0.4200505,-12.65645
568313339,568312830,0.2913849,0.14372538,-13.593605
568318288,568317833,0.30179673,-0.5703946,-12.978951
568323257,568322843,0.30699688,0.23289159,-13.793932
568328306,568327859,0.13096336,-0.6345935,-13.04412
568333299,568332864,0.370697,0.17783839,-13.830825
568338303,568337871,0.06866402,-0.8220173,-13.069312
568343400,568342880,0.37221164,0.23461498,-13.828923
568348436,568347890,0.08310599,-0.7621799,-13.122776
568353469,568352899,0.48396933,0.15025064,-13.746529
568363325,568362918,0.46856225,0.19235012,-13.287349
568368348,568367928,0.05841081,-0.63779235,-12.450493
568373368,568372942,0.63802123,0.21092087,-12.90085
568378453,568377947,0.09260057,-0.54365563,-12.131127
568383366,568382956,0.70335066,0.18637222,-12.600846
568388424,568387966,0.29905197,-0.46517298,-12.061453
568393403,568392975,0.80649567,0.023843978,-12.510206
568398407,568397984,0.3039581,-0.38980213,-12.157773
568403448,568402994,0.7033769,-0.045934755,-12.600773
568408519,568408004,0.25713244,-0.20614135,-12.158027
568413550,568413019,0.5014062,-0.14918366,-12.343574
568418425,568418023,0.0950427,-0.09241288,-11.956937
568423478,568423032,0.17721581,-0.31727356,-11.934201
568428515,568428056,-0.0043147593,-0.07138772,-11.575771
568433511,568433051,-0.027415749,-0.25138095,-11.514532
568438538,568438060,-0.011301156,-0.1257836,-10.944939
568443615,568443070,-0.023453519,-0.042188723,-11.152214
568448549,568448079,0.3459429,-0.30179766,-10.923887
568453497,568453089,0.09428721,0.23165613,-11.369168
568458540,568458099,0.3631792,-0.51234293,-11.166485
568463539,568463109,0.13491353,0.1438934,-11.159645
568468562,568468117,0.12404563,-0.5345327,-10.675792
568473668,568473128,-0.010160786,0.07008243,-9.923699
568478669,568478136,-0.01786667,-0.1264197,-9.656519
568483561,568483146,0.3040934,-0.1967587,-9.128948
568488586,568488155,0.22161192,0.0819896,-9.907475
568493655,568493165,0.22147132,-0.3344711,-10.056727
568498592,568498175,0.03858237,0.07287074,-10.536787
568503594,568503184,-0.09002784,-0.14997388,-10.315401
568508604,568508193,0.19040793,-0.3118397,-9.186769
568513710,568513204,0.2543285,0.20911117,-9.266149
568518654,568518212,0.48658794,-0.65180635,-8.528493
568523686,568523222,0.094607934,0.27752015,-9.644391
568528683,568528231,-0.19105653,-0.33884653,-9.66201
568533725,568533241,-0.057860084,-0.07657964,-9.583071
568538713,568538250,0.22059545,0.13760583,-9.473168
568543840,568543260,0.6841865,-0.6377138,-8.726097
568548744,568548271,0.29224145,0.2669641,-9.265963
568553689,568553279,-0.07405909,-0.66925573,-9.0810995
568558702,568558288,-0.28642797,0.24318999,-9.570417
568563709,568563298,-0.0059247897,-0.023358867,-9.186234
568568796,568568307,0.51952636,-0.4834485,-8.645503
568573727,568573316,0.47209647,0.35916317,-8.987476
568578864,568578327,0.2192402,-0.69161206,-8.940032
568583781,568583335,-0.23201057,0.32031792,-9.79142
568588756,568588345,-0.03347642,-0.50406045,-9.724901
568593775,568593354,0.40212968,-0.22928448,-9.606192
568598796,568598364,0.41251138,-0.01122687,-9.145196
568603827,568603373,0.20827115,-0.38521087,-8.762073
568608945,568608383,-0.03335524,0.28781435,-8.986313
568613936,568613393,0.09171184,-0.30544364,-9.156735
568618851,568618402,0.3464891,-0.21549359,-9.699894
568623888,568623411,0.49313492,-0.26367322,-9.887761
568628935,568628421,0.09977176,-0.31069827,-10.147683
568633979,568633431,-0.04491296,0.10009515,-9.503229
568638867,568638440,0.017972369,-0.12009426,-9.132734
568643878,568643449,0.45641777,-0.1252754,-8.675974
568648986,568648459,0.5310359,-0.19210468,-8.843394
568653951,568653468,0.14695606,-0.20912217,-9.749729
568658900,568658478,0.015798798,-0.17982224,-9.881581
568663908,568663487,-0.25424245,0.037803132,-10.4732895
568668909,568668497,0.35862666,-0.42028427,-9.502011
568673935,568673506,0.40144655,0.12419352,-9.60886
568679012,568678516,0.36338076,-0.44497466,-9.1670265
568683956,568683525,0.07615903,-0.080582954,-9.454623
568688961,568688534,-0.24213082,-0.04235934,-9.999246
568693971,568693544,0.3439011,-0.540317,-9.496334
568698998,568698553,0.18706559,0.25665244,-10.207492
568704009,568703563,0.47774303,-0.694705,-9.607899
568709023,568708572,0.032745726,0.25311908,-10.476836
568714088,568713583,-0.164942,-0.49587294,-10.125297
568719095,568718591,-0.121550255,0.02860576,-10.048078
568724059,568723601,0.049734425,-0.15694952,-9.758532
568729041,568728610,0.5337169,-0.3764827,-9.236607
568734124,568733620,0.1680561,0.23691182,-9.837004
568739060,568738632,0.2512258,-0.6164978,-9.975175
568744119,568743639,-0.23311612,0.3556349,-11.056799
568749155,568748648,-0.11799245,-0.52218914,-10.595408
568754067,568753658,0.16875817,0.022590857,-10.537544
568759073,568758667,0.41484368,-0.2130178,-9.780027
568764088,568763677,0.710027,-0.39302188,-9.585598
568769121,568768686,0.25906926,0.2223393,-9.72251
568774113,568773696,-0.086394235,-0.4550849,-10.163633
568779195,568778705,-0.24620514,0.1787448,-10.668939
568784161,568783715,0.009785199,-0.01225839,-10.737043
568789182,568788724,0.24810167,-0.42939758,-10.36655
568794223,568793733,0.42786744,0.29492915,-10.252622
568799195,568798743,0.123959936,-0.52681166,-10.043097
568804246,568803752,0.03893021,0.003142821,-9.883019
568809318,568808763,-0.10097236,-0.120790474,-10.054812
568814375,568813772,0.47503954,-0.37329262,-9.991506
568819322,568818790,0.48143965,-0.008774236,-10.396374
568824209,568823790,0.20386864,-0.46677583,-10.36671
568829223,568828800,-0.12663902,0.04029329,-10.527228
568834227,568833811,-0.43959042,-0.24576809,-10.156963
568839254,568838819,0.16525371,-0.032007296,-9.815723
568844324,568843828,0.2966269,-0.3224163,-9.487867
568849286,568848838,0.5786996,-0.3248706,-9.596793
568854276,568853848,0.069134556,-0.08257207,-10.070034
568859286,568858857,-0.18131682,-0.46699917,-10.664206
568864294,568863866,-0.27762336,-0.033773758,-10.807411
568869319,568868876,-0.13218646,-0.356231,-10.401979
568874315,568873886,0.43282908,-0.18433219,-9.76343
568879453,568878895,0.46435505,-0.252245,-9.406835
568884336,568883904,0.41248092,-0.30796075,-9.418888
568889430,568888915,-0.1166196,-0.08163634,-9.578386
568894366,568893923,-0.49984276,-0.08603044,-10.217276
568899406,568898933,-0.20557152,-0.2295656,-10.269038
568904408,568903942,-0.1857671,-0.011090266,-10.732165
568909510,568908952,0.2583647,-0.3701101,-10.339874
568914471,568913961,0.2708174,-0.16996081,-10.299051
568919383,568918971,0.1361559,-0.34163404,-10.207387
568924400,568923980,-0.013204041,-0.30420926,-9.6331
568929427,568928990,-0.21501262,-0.025358776,-10.179912
568934428,568933999,0.29697913,-0.5447999,-9.774672
568939425,568939008,0.2755525,0.23082195,-10.596496
568944506,568944018,0.51962274,-0.659989,-10.068825
568949516,568949029,0.2557518,0.16303161,-10.323727
568954458,568954037,-0.28131738,-0.26424468,-9.582125
568959456,568959046,0.16434634,2.5172638e-05,-9.377362
568964470,568964056,-0.13237685,0.03358103,-9.695422
568969497,568969065,0.49658877,-0.34634048,-10.146891
568974521,568974075,-0.09257311,0.12284797,-10.98739
568979598,568979084,-0.15208578,-0.3819935,-10.9518175
568984563,568984105,-0.3128691,-0.05900068,-10.691196
568989586,568989103,-0.0030736274,-0.2682265,-9.92359
568994584,568994113,0.65238404,-0.6268218,-9.308248
568999598,568999122,0.53399324,-0.029814359,-9.500486
569004578,569004132,0.26159847,-0.58195394,-9.853807
569009635,569009144,-0.23636095,0.061473705,-10.371215
569014665,569014159,-0.3840391,-0.18569623,-10.441458
569019638,569019160,0.011293695,-0.36831966,-10.120975
569024574,569024170,0.34078172,0.0015261099,-9.990628
569029595,569029179,0.44817957,-0.6464527,-9.701514
569034602,569034189,0.18739186,-0.04684187,-10.087345
569039623,569039198,-0.14646293,-0.52190185,-10.401779
569044747,569044224,-0.14648725,-0.2137881,-10.618393
569049649,569049217,-0.10444619,-0.24825953,-10.603679
569054758,569054227,0.31806982,-0.47786215,-10.10153
569059661,569059236,0.40090197,0.10682627,-9.939261
569064700,569064245,0.43505436,-0.68536764,-9.238452
569069703,569069255,0.2167935,0.34690145,-9.782647
569074805,569074264,-0.1503187,-0.72581077,-9.622746
569079804,569079274,-0.22916406,0.19811608,-10.381579
569084749,569084283,-0.38286108,-0.37063715,-10.455737
569089792,569089293,0.047793142,-0.17532744,-10.622861
569094797,569094302,0.118439175,-0.20143867,-10.544468
569099724,569099312,0.49667233,-0.555997,-10.0639
569104752,569104321,0.2172192,0.067302994,-10.193171
569109776,569109331,0.080002315,-0.7160892,-9.52583
569114786,569114340,-0.08754437,0.26193383,-10.05262
569119840,569119350,-0.1559404,-0.48733133,-9.516571
569124778,569124359,0.21453495,0.034787204,-9.988911
569129895,569129369,0.27103576,-0.11259461,-9.819466
569134803,569134378,0.42522544,-0.37034363,-9.715975
569139815,569139388,-0.03259469,0.2140778,-9.709457
569144949,569144397,-0.1813265,-0.48682654,-9.626136
569149866,569149407,-0.28861737,0.0843957,-10.043024
569154963,569154416,-0.02441358,-0.31988037,-10.2251
569159897,569159426,0.1543603,-0.33044535,-10.503319
569164876,569164435,0.4185311,-0.15266742,-10.564565
569170001,569169447,0.25800616,-0.62751794,-10.204587
569174893,569174454,0.1449415,-0.17077374,-9.768228
569179999,569179464,-0.05330477,-0.39870173,-9.595885
569184981,569184473,-0.0037090715,-0.19275181,-9.309344
569189982,569189483,0.13563852,-0.08249534,-9.723335
569194912,569194492,0.15681483,-0.27142194,-9.856666
569199929,569199502,0.25583777,0.12411799,-10.1163
569204947,569204511,0.074822135,-0.4623727,-10.088798
569210076,569209521,0.04781087,0.01712613,-10.070569
569215023,569214533,-0.22044249,-0.4894062,-9.906816
569219973,569219540,-0.032092948,-0.17945226,-9.929537
569224973,569224549,-0.009154907,-0.29606935,-10.118395
569230011,569229559,0.29231882,-0.4753408,-9.923395
569234985,569234568,0.33877033,-0.0051100035,-10.174246
569240013,569239578,0.27359444,-0.635413,-9.704125
569245109,569244589,0.16628519,0.1763538,-9.889943
569250066,569249598,-0.18817316,-0.64719886,-9.433421
569255055,569254606,-0.07441799,0.121156886,-9.822469
569260092,569259615,-0.13343978,-0.38676336,-9.900964
569265108,569264625,0.33169386,-0.2617234,-10.357989
569270111,569269634,0.23520316,-0.16493317,-10.634111
569275184,569274650,0.32010105,-0.6980626,-10.441188
569280179,569279658,0.11771394,0.011638941,-10.375942
569285079,569284663,-0.058047514,-0.61235785,-9.494839
569290106,569289672,0.10677879,0.13246377,-9.590116
569295096,569294683,0.19734128,-0.48169464,-9.236326
569300108,569299692,0.49494302,0.051914386,-10.21084
569305115,569304701,0.18783578,-0.06699609,-10.191903
569310199,569309711,-0.066686675,-0.31733742,-10.605452
569315149,569314725,-0.25188902,0.072306424,-10.037836
569320157,569319729,0.022635799,-0.3815305,-9.660936
569325164,569324739,0.43888506,-0.20781496,-9.300279
569330249,569329761,0.5592806,-0.22260498,-9.537089
569335162,569334758,0.09847712,-0.32212377,-10.42454
569340175,569339767,-0.029797915,-0.28674158,-10.808149
569345313,569344777,-0.3912743,-0.31948358,-11.082428
569350304,569349786,-0.16160233,-0.37132862,-9.799987
569355265,569354796,0.4249231,-0.22432542,-9.605624
569360300,569359805,0.7293824,-0.4924652,-8.710053
569365284,569364815,0.37403387,0.061161976,-9.448943
569370274,569369830,-0.21491939,-0.4120197,-9.963124
569375306,569374834,-0.25987214,0.095371895,-10.526425
569380257,569379843,-0.43859306,-0.45321026,-10.406219
569385288,569384852,0.2819763,-0.078201085,-9.591962
569390279,569389862,0.2565482,-0.25894585,-9.22737
569395277,569394871,0.41489366,-0.30803272,-9.341618
569400358,569399885,-0.0551128,-0.09758171,-10.414123
569405300,569404890,-0.41522688,-0.61036104,-10.897684
569410441,569409907,-0.30370352,0.09356151,-11.145787
569415389,569414909,0.028165013,-0.6661501,-10.151524
569420326,569419919,0.6922467,0.004711763,-9.318948
569425413,569424929,0.6103589,-0.5846925,-8.899773
569430464,569429938,0.40971637,-0.15615235,-9.842141
569435392,569434947,0.06729426,-0.36155656,-10.412389
569440399,569439957,-0.32025594,-0.056102805,-11.019087
569445420,569444966,0.043301076,-0.32105866,-10.451459
569450424,569449976,0.3908387,0.023041775,-10.157919
569455466,569454987,0.7423105,-0.58647895,-9.268059
569460491,569459995,0.45128658,0.15134665,-9.265856
569465442,569465004,-0.1435427,-0.25776592,-9.987274
569470512,569470014,-0.3094081,-0.17241386,-10.342641
569475510,569475023,-0.34981686,0.103167035,-11.209
569480462,569480033,0.36603478,-0.75684094,-10.624453
569485456,569485042,0.3389481,0.05967109,-11.140068
569490465,569490052,0.2380271,-0.7422393,-9.92568
569495467,569495061,0.16524178,0.0661422,-9.715943
569500474,569500071,-0.06872926,-0.5224359,-8.998917
569505489,569505080,0.5651478,-0.18859166,-9.040144
569510603,569510090,0.44379553,-0.32812506,-9.446308
569515585,569515099,0.5571129,-0.43096575,-10.021633
569520512,569520108,-0.20977989,0.00394538,-11.077302
569525561,569525118,-0.42331195,-0.41707712,-11.063282
569530585,569530127,-0.25024155,-0.19928987,-10.980748
569535575,569535137,0.030921955,-0.25653136,-9.9450655
569540591,569540146,0.5281289,-0.5650021,-9.322498
569545633,569545156,0.56337684,-0.10146497,-9.45865
569550791,569550166,0.31154546,-0.51792675,-9.696721
569555606,569555175,-0.13477145,-0.13454325,-10.690834
569560607,569560184,-0.26899663,-0.32641825,-10.87366
569565608,569565194,-0.0800091,-0.40855932,-10.513692
569570731,569570203,0.22517136,0.07747451,-9.86461
569575634,569575213,0.6289635,-0.7197222,-9.011159
569580705,569580222,0.5151367,0.38064626,-9.414681
569585658,569585232,0.1484267,-0.73846716,-9.753543
569590766,569590242,-0.33981335,0.3470801,-10.877605
569595685,569595251,-0.45828778,-0.48638827,-11.276031
569600682,569600260,-0.19101067,-0.31316584,-11.004048
569605694,569605270,0.32306594,-0.010100029,-10.661395
569610880,569610279,0.5673639,-0.9278359,-9.330696
569615848,569615289,0.44231847,0.3234346,-9.873453
569620752,569620298,0.056652542,-1.0056492,-9.489785
569625746,569625308,-0.1128568,0.43322033,-10.6786375
569630809,569630318,-0.2480713,-0.73533916,-10.5917225
569635802,569635326,0.2768977,0.049104687,-10.839584
569640816,569640336,0.48193398,-0.3917752,-10.060341
569645901,569645350,0.5490689,-0.34230155,-9.395159
569650836,569650355,0.20045471,-0.14185253,-9.5717125
569655795,569655365,-0.20439303,-0.33585787,-9.723357
569660855,569660374,-0.23771831,-0.1512665,-10.704709
569665807,569665383,-0.14150302,-0.16925755,-10.697219
569670846,569670393,0.29188114,-0.4370867,-10.794042
569675904,569675402,0.25502124,-0.03315822,-10.219844
569680852,569680412,0.2535016,-0.50770354,-9.735434
569685835,569685421,-0.040222578,-0.023691548,-9.444662
569690946,569690437,-0.09755155,-0.1976392,-9.533772
569695931,569695440,0.1297566,-0.40738755,-9.93987
569700867,569700450,0.24588434,0.07215691,-10.421133
569705888,569705459,0.3734257,-0.7500365,-10.65334
569711029,569710469,0.19056438,0.2245504,-10.480653
569715991,569715479,0.0937593,-0.8455324,-10.112921
569720947,569720488,0.041225705,0.1449672,-9.562031
569725949,569725497,0.10445426,-0.4988603,-9.490562
569731081,569730507,0.24523905,-0.17447233,-9.594357
569736008,569735516,0.27231756,0.003531528,-10.067799
569740984,569740530,0.07127413,-0.4288916,-10.20973
569746031,569745535,-0.01915142,0.34380722,-10.190562
569751051,569750545,-0.11203374,-0.68491614,-9.836373
569755972,569755554,0.113788694,0.17928189,-9.376168
569761004,569760564,0.20988925,-0.6888959,-9.464555
569766002,569765573,0.3406817,-0.22890633,-9.589571
569771000,569770582,0.2911603,-0.3149112,-10.0494585
569776067,569775592,-0.15769754,-0.36264205,-10.230136
569781056,569780602,-0.044360746,-0.07936041,-10.223726
569786025,569785611,-0.27007547,-0.43602216,-9.996505
569791053,569790620,0.1512047,-0.011772101,-9.434951
569796157,569795641,0.23213291,-0.52417755,-9.477753
569801098,569800640,0.39137754,-0.11873903,-9.505522
569806173,569805650,0.23720106,-0.37726146,-10.115008
569811187,569810658,-0.15002826,-0.15904939,-10.456818
569816115,569815668,-0.111658886,-0.19564928,-10.520902
569821141,569820677,-0.34380257,-0.2145226,-10.302906
569826149,569825687,0.26454902,-0.18462136,-9.575151
569831218,569830696,0.07812667,-0.18842323,-9.292586
569836177,569835707,0.4735036,-0.26824313,-9.204753
569841153,569840716,0.1818382,-0.040593535,-9.932247
569846234,569845725,0.0023773205,-0.48113397,-10.328584
569851285,569850734,-0.2009277,0.08897522,-10.78793
569856164,569855744,-0.29609957,-0.47997698,-10.528
569861187,569860754,0.19875619,-0.046639383,-10.063302
569866183,569865764,0.112450965,-0.28390166,-9.509965
569871189,569870776,0.5622185,-0.19833253,-9.2756815
569876265,569875782,0.29425544,-0.04601443,-9.625818
569881206,569880791,0.2822866,-0.44681463,-9.899024
569886225,569885801,-0.063939825,-0.018301418,-10.380458
569891225,569890810,-0.17243935,-0.3506188,-10.630394
569896250,569895819,0.15502308,-0.09705039,-10.474786
569901340,569900831,0.17480342,-0.2563086,-10.258463
569906370,569905839,0.48979217,-0.23046552,-9.731905
569911421,569910854,0.22786723,-0.06442054,-9.7189455
569916407,569915857,0.09814139,-0.28875044,-9.562332
569921361,569920867,0.11392722,-0.15459137,-9.512631
569926315,569925876,-0.0013781816,0.019719914,-9.775645
569931380,569930886,0.33056778,-0.55602485,-9.720259
569936305,569935896,0.21059549,0.110125445,-10.313546
569941323,569940905,0.16535537,-0.54251397,-10.105852
569946392,569945914,-0.13952999,-0.12273954,-10.452494
569951363,569950924,-0.09578954,-0.13373135,-10.099762
569956349,569955933,0.21547732,-0.43715927,-9.836729
569961396,569960943,0.2724767,0.0027222512,-9.543799
569966372,569965952,0.52464837,-0.6752576,-9.600101
569971388,569970962,0.20185173,0.060229197,-9.760401
569976456,569975971,0.036858167,-0.53827095,-9.711246
569981396,569980983,-0.11158018,0.043679528,-9.853559
569986449,569985990,-0.08758643,-0.19646424,-9.757962
569991453,569991007,0.1210522,-0.20881128,-10.11544
569996476,569996009,0.14257987,0.017695954,-10.205201
570001451,570001018,0.24162148,-0.64286786,-10.519323
570006536,570006028,0.03505796,0.17708127,-10.285851
570011576,570011037,0.04171826,-0.7333785,-9.992593
570016579,570016049,0.06370906,0.15767373,-9.637701
570021471,570021057,0.19095214,-0.5145523,-9.507736
570026486,570026066,0.14636403,0.06395615,-9.898141
570031493,570031075,0.2793235,-0.18600258,-10.214573
570036500,570036085,-0.008211806,-0.22766231,-10.686797
570041619,570041094,0.1856062,-0.11052759,-10.569663
570046540,570046103,-0.023074483,-0.37239978,-10.492833
570051523,570051113,0.25023916,-0.14850053,-9.656199
570056543,570056122,0.182804,-0.18472672,-9.794878
570061553,570061132,0.23236102,-0.22623827,-9.668963
570066547,570066141,0.21934891,0.036731087,-10.396932
570071557,570071151,-0.21393624,-0.3212713,-10.610118
570076689,570076160,-0.12472988,0.0036713127,-10.522812
570081611,570081170,-0.23591803,-0.06544404,-10.327513
570086644,570086179,0.49298182,-0.36230043,-9.561824
570091633,570091189,0.36316487,-0.011247618,-9.718519
570096702,570096198,0.48074403,-0.5853131,-9.684363
570101679,570101208,0.095670864,0.023839975,-10.204661
570106699,570106218,-0.1445169,-0.4994907,-10.280671
570116721,570116236,0.122548886,-0.15789074,-10.144115
570121662,570121246,0.4941911,-0.37333128,-9.743169
570126673,570126255,0.07967409,0.087796345,-10.334718
570131745,570131264,-0.07887946,-0.3980426,-9.945803
570136690,570136274,0.019546416,-0.20336297,-10.1960745
570141692,570141283,-0.026348606,-0.2967002,-9.787269
570146785,570146293,0.3945916,-0.3905743,-9.383594
570151819,570151304,0.2061577,-0.12396261,-9.843714
570156732,570156312,0.22815865,-0.37638286,-9.820824
570161747,570161321,-0.0792265,-0.051188968,-10.821096
570166755,570166334,-0.12859444,-0.35492593,-10.509558
570171791,570171340,0.15481515,-0.31937084,-10.391174
570176845,570176350,0.15644847,-0.04429277,-9.683349
570181894,570181359,0.5323455,-0.59877217,-9.178299
570186810,570186368,0.21369807,0.053420078,-9.501719
570191937,570191378,0.15022026,-0.51250625,-9.797118
570196885,570196388,-0.23371558,0.049355313,-10.665095
570201839,570201402,-0.24646905,-0.24351117,-10.555989
570206828,570206406,0.07015611,-0.3479583,-10.666145
570211923,570211418,0.21958025,0.022433119,-10.079874
570216919,570216425,0.5712833,-0.76225865,-9.744929
570221884,570221435,0.28725305,0.23403244,-9.56014
570226871,570226444,0.19208944,-0.7863077,-9.547133
570231941,570231455,-0.14922638,0.19743437,-9.930202
570236894,570236463,0.0672067,-0.31608263,-10.115193
570241899,570241472,0.10963157,-0.22110379,-10.214515
570246986,570246482,0.32603154,0.038957898,-10.251006
570251925,570251491,0.14559083,-0.5002461,-10.129402
570256915,570256501,0.053308647,0.1577663,-9.759992
570261931,570261510,-0.062888466,-0.5324986,-9.838495
570266979,570266520,0.19871187,-0.13089551,-9.724607
570271988,570271529,0.3470423,-0.39705718,-10.313814
570277084,570276541,0.015321191,-0.34122103,-10.518638
570282039,570281548,0.1420065,-0.30521128,-10.689672
570287033,570286558,-0.2869946,-0.10231124,-10.4864855
570292029,570291567,0.39344984,-0.34639657,-9.600828
570297082,570296576,0.418907,-0.17293419,-9.424121
570301994,570301586,0.68653077,-0.3986964,-9.200695
570307001,570306596,0.15787296,-0.24362937,-9.68649
570312043,570311605,-0.19224648,-0.2732784,-10.365613
570317122,570316614,-0.22187035,-0.3701601,-10.6400585
570322040,570321624,-0.20261122,-0.027198354,-10.818912
570327068,570326633,0.43962562,-0.6189981,-10.011326
570332060,570331643,0.17281245,0.07857103,-9.522611
570337078,570336653,0.26670304,-0.5390985,-9.05217
570342098,570341662,0.13593172,-0.058006752,-8.963014
570347171,570346671,0.07256823,-0.16305304,-9.5856285
570352250,570351682,0.33224863,-0.55629456,-10.027743
570357145,570356690,0.01915844,0.0064547164,-10.6858015
570362140,570361700,-0.0677944,-0.7101574,-10.563226
570367146,570366709,-0.38639024,0.071107775,-10.175536
570372152,570371719,0.06729289,-0.27253124,-9.550375
570377308,570376728,0.4475454,-0.46570536,-8.789614
570382238,570381737,0.55540663,0.07253552,-9.288341
570387225,570386747,0.21316786,-0.6536604,-9.538484
570392259,570391758,-0.01520461,0.13280834,-10.40316
570397260,570396768,-0.16259103,-0.2648645,-10.623657
570402189,570401775,0.18088025,-0.4199742,-10.36353
570407191,570406785,0.23860833,0.06838856,-10.564549
570412270,570411795,0.069759324,-0.6162869,-9.788882
570417233,570416804,-0.0011034188,0.23713464,-9.70552
570422227,570421813,-0.13942723,-0.32797357,-9.131897
570427263,570426822,0.41487008,-0.0015496738,-9.381069
570432236,570431832,0.29539564,-0.16856107,-9.661964
570437257,570436841,0.19324566,-0.38089764,-10.506985
570442327,570441851,-0.26198918,-0.026932886,-10.947576
570447355,570446861,-0.28070608,-0.49145743,-11.226289
570452417,570451872,0.030040303,-0.24381298,-10.897585
570457327,570456879,0.36452752,-0.48255566,-10.366786
570462343,570461889,0.52959573,-0.30704823,-9.713222
570467389,570466898,0.1629028,-0.16892366,-9.009944
570472415,570471909,-0.08895854,-0.01638965,-9.096289
570477508,570476917,0.16432302,-0.3099798,-8.96477
570482342,570481926,0.04827007,0.21978487,-10.273939
570487434,570486936,0.12607704,-0.61703867,-10.526872
570492363,570491945,-0.27984557,0.13391234,-11.457125
570497431,570496955,-0.28560504,-0.53199536,-11.063336
570502456,570501964,-0.32942137,-0.3477138,-10.227315
570507381,570506974,0.17239898,-0.054650858,-9.502978
570512468,570511983,0.5461359,-0.68124044,-8.504091
570517404,570516997,0.5530942,0.23648128,-9.090534
570522409,570522002,0.26998833,-0.8135639,-9.647644
570527485,570527016,-0.19341034,0.11920396,-10.687071
