timestamp,timestamp_sample,lat,lon,alt,alt_ellipsoid,delta_alt,eph,epv,terrain_alt,lat_lon_reset_counter,alt_reset_counter,terrain_alt_valid,dead_reckoning
564939780,564939022,59.39622289762051,24.660573777905878,30.617065,42.59927,0.03908609,0.39328983,0.58591104,nan,2,2,0,0
564949721,564948907,59.39622289528768,24.660573780767702,30.61758,42.599785,0.03908609,0.3936403,0.5860922,nan,2,2,0,0
564959615,564958792,59.3962228929527,24.66057378361479,30.618105,42.60031,0.03908609,0.39399427,0.58627456,nan,2,2,0,0
564969697,564968678,59.396222890626305,24.660573786453455,30.618633,42.600838,0.03908609,0.39435172,0.58645827,nan,2,2,0,0
564980295,564978562,59.3962228884843,24.660573789858585,30.618935,42.59843,0.03908609,0.39041424,0.5845492,nan,2,2,0,0
564989073,564988446,59.39622288638303,24.660573793280562,30.619244,42.59874,0.03908609,0.39073607,0.5847202,nan,2,2,0,0
564999107,564998331,59.39622288427961,24.660573796677266,30.619686,42.599182,0.03908609,0.39106113,0.5848168,nan,2,2,0,0
565008901,565008216,59.39622288210545,24.660573800029752,30.620144,42.59964,0.03908609,0.39138952,0.5849899,nan,2,2,0,0
565018956,565018101,59.39622287999776,24.660573803314854,30.620607,42.600105,0.03908609,0.3917212,0.58516425,nan,2,2,0,0
565029115,565027986,59.396222877842895,24.66057380675578,30.62107,42.600567,0.03908609,0.39205623,0.58533984,nan,2,2,0,0
565039022,565037871,59.39622287575449,24.66057381006615,30.621546,42.601044,0.03908609,0.3923946,0.58551675,nan,2,2,0,0
565048903,565047755,59.39622287359533,24.660573813328085,30.622023,42.60152,0.03908609,0.39273638,0.5856949,nan,2,2,0,0
565058867,565057640,59.39622287142116,24.660573816562643,30.622623,42.60212,0.03908609,0.39308158,0.58579355,nan,2,2,0,0
565068653,565067525,59.39622286924912,24.66057381987512,30.623228,42.602726,0.03908609,0.39343017,0.5859738,nan,2,2,0,0
565078060,565077410,59.39622286711571,24.660573823115993,30.623838,42.603336,0.03908609,0.39378226,0.5861554,nan,2,2,0,0
565087903,565087295,59.39622286496726,24.660573826348447,30.624445,42.603943,0.03908609,0.3941378,0.5863383,nan,2,2,0,0
565098846,565097179,59.396222862445754,24.660573830431655,30.624823,42.599873,0.03908609,0.3902373,0.58444464,nan,2,2,0,0
565107677,565107075,59.39622285997783,24.660573834567508,30.625223,42.600273,0.03908609,0.3905576,0.58461493,nan,2,2,0,0
565117858,565116952,59.39622285746489,24.660573838602282,30.62563,42.600677,0.03908609,0.39088112,0.5847865,nan,2,2,0,0
565127786,565126836,59.396222854941236,24.660573842609683,30.626139,42.60119,0.03908609,0.3912079,0.5848833,nan,2,2,0,0
565137546,565136719,59.39622285242185,24.66057384655812,30.626644,42.601692,0.03908609,0.39153802,0.5850569,nan,2,2,0,0
565147448,565146603,59.39622284992819,24.66057385051919,30.627144,42.602192,0.03908609,0.39187145,0.5852318,nan,2,2,0,0
565157491,565156488,59.39622284741527,24.660573854436038,30.627663,42.60271,0.03908609,0.39220825,0.585408,nan,2,2,0,0
565167274,565166373,59.39622284490447,24.660573858336036,30.628195,42.603245,0.03908609,0.3925484,0.5855854,nan,2,2,0,0
565177028,565176258,59.396222842412975,24.660573862168654,30.628729,42.60378,0.03908609,0.39289197,0.5857641,nan,2,2,0,0
565186909,565186143,59.396222839932186,24.66057386590861,30.62939,42.60444,0.03908609,0.39323896,0.58586293,nan,2,2,0,0
565196642,565196028,59.39622283743853,24.660573869665416,30.63006,42.60511,0.03908609,0.3935894,0.5860438,nan,2,2,0,0
565206645,565205926,59.39622283493202,24.66057387339695,30.630732,42.60578,0.03908609,0.3939433,0.5862259,nan,2,2,0,0
565216489,565215797,59.39622283245983,24.660573877145332,30.631403,42.606453,0.03908609,0.39430073,0.5864094,nan,2,2,0,0
565226507,565225688,59.3962228300005,24.660573880891608,30.632076,42.607124,0.03908609,0.39466164,0.58659416,nan,2,2,0,0
565236354,565235567,59.3962228275004,24.660573884612614,30.632751,42.6078,0.03908609,0.39502612,0.58678025,nan,2,2,0,0
565246264,565245457,59.396222825008905,24.660573888274655,30.63344,42.60849,0.03908609,0.39539415,0.5869677,nan,2,2,0,0
565256365,565255336,59.3962228225324,24.660573891917746,30.634245,42.609295,0.03908609,0.39576575,0.58706856,nan,2,2,0,0
565266512,565265222,59.39622281974931,24.660573894497393,30.634789,42.603615,0.03908609,0.3915697,0.5850793,nan,2,2,0,0
565275679,565275106,59.3962228170005,24.66057389708125,30.63533,42.604156,0.03908609,0.39190307,0.58525425,nan,2,2,0,0
565285578,565284991,59.396222814243124,24.66057389967774,30.635876,42.6047,0.03908609,0.3922398,0.5854305,nan,2,2,0,0
565295569,565294876,59.39622281146431,24.66057390234162,30.636425,42.605247,0.03908609,0.3925799,0.585608,nan,2,2,0,0
565305600,565304761,59.3962228087391,24.66057390495706,30.636974,42.605797,0.03908609,0.3929234,0.5857868,nan,2,2,0,0
565315840,565314646,59.39622280600316,24.660573907534605,30.637537,42.60636,0.03908609,0.39327034,0.5859669,nan,2,2,0,0
565325527,565324530,59.39622280326938,24.66057391005318,30.638218,42.60704,0.03908609,0.39362073,0.58606595,nan,2,2,0,0
565335366,565334417,59.396222800569895,24.66057391256965,30.638895,42.60772,0.03908609,0.39397454,0.58624816,nan,2,2,0,0
565345405,565344300,59.39622279784896,24.660573915138766,30.639574,42.6084,0.03908609,0.3943319,0.5864317,nan,2,2,0,0
565356509,565354185,59.39622279480426,24.660573918666035,30.640085,42.605827,0.03908609,0.3903975,0.5845261,nan,2,2,0,0
565365439,565364070,59.396222791832486,24.660573922182774,30.640614,42.606358,0.03908609,0.3907192,0.58469695,nan,2,2,0,0
565375596,565373954,59.396222788910016,24.66057392566372,30.64115,42.606895,0.03908609,0.3910442,0.584869,nan,2,2,0,0
565385536,565383843,59.396222785981095,24.660573929092013,30.64179,42.607536,0.03908609,0.39137247,0.584966,nan,2,2,0,0
565395584,565393725,59.39622278304361,24.660573932467663,30.642439,42.608185,0.03908609,0.39170405,0.58514017,nan,2,2,0,0
565405643,565403609,59.39622278014685,24.660573935853844,30.643099,42.60884,0.03908609,0.392039,0.5853156,nan,2,2,0,0
565416084,565413496,59.39622277725869,24.660573939208433,30.643763,42.609505,0.03908609,0.3923773,0.5854923,nan,2,2,0,0
565425370,565423378,59.396222774346946,24.660573942621987,30.644432,42.610176,0.03908609,0.39271897,0.5856703,nan,2,2,0,0
565435236,565433264,59.396222771473774,24.66057394592183,30.645117,42.610863,0.03908609,0.39306402,0.5858496,nan,2,2,0,0
565443760,565443148,59.39622276859203,24.660573949166917,30.645819,42.611565,0.03908609,0.39341256,0.5860302,nan,2,2,0,0
565453700,565453033,59.396222765727465,24.66057395243938,30.646637,42.61238,0.03908609,0.39376456,0.58612937,nan,2,2,0,0
565463523,565462918,59.39622276294008,24.660573955680256,30.647451,42.613197,0.03908609,0.39411998,0.58631206,nan,2,2,0,0
565473531,565472811,59.396222760139814,24.660573958904287,30.648273,42.614017,0.03908609,0.39447898,0.5864961,nan,2,2,0,0
565483837,565482689,59.39622275664484,24.660573960708987,30.648838,42.609856,0.03908609,0.3905172,0.5845821,nan,2,2,0,0
565493425,565492572,59.39622275321633,24.660573962517894,30.64941,42.610428,0.03908609,0.39084023,0.5847534,nan,2,2,0,0
565503398,565502457,59.39622274989078,24.660573964301538,30.64999,42.611008,0.03908609,0.3911666,0.5849259,nan,2,2,0,0
565513483,565512342,59.39622274653518,24.66057396600937,30.650702,42.61172,0.03908609,0.39149624,0.585023,nan,2,2,0,0
565523154,565522228,59.39622274314098,24.66057396772141,30.65142,42.61244,0.03908609,0.3918292,0.58519757,nan,2,2,0,0
565533021,565532111,59.39622273991189,24.660573969526116,30.652145,42.613163,0.03908609,0.3921655,0.5853735,nan,2,2,0,0
565542710,565541997,59.396222736616345,24.660573971328706,30.652876,42.613895,0.03908609,0.39250523,0.58555067,nan,2,2,0,0
565552451,565551881,59.39622273332507,24.66057397312077,30.653622,42.61464,0.03908609,0.39284834,0.5857291,nan,2,2,0,0
565562383,565561766,59.396222730106714,24.660573974843345,30.654379,42.6154,0.03908609,0.39319488,0.58590883,nan,2,2,0,0
565572307,565571651,59.39622272689905,24.6605739765975,30.655148,42.616165,0.03908609,0.39354485,0.5860899,nan,2,2,0,0
565582367,565581535,59.39622272369783,24.660573978408518,30.656027,42.617046,0.03908609,0.3938983,0.5861892,nan,2,2,0,0
565592265,565591420,59.396222720535214,24.66057398015215,30.656916,42.617935,0.03908609,0.39425528,0.5863724,nan,2,2,0,0
565602503,565601305,59.396222717589154,24.660573983150858,30.657576,42.61432,0.03908609,0.39033252,0.58447427,nan,2,2,0,0
565612309,565611190,59.39622271464739,24.660573986115867,30.658234,42.61498,0.03908609,0.39065394,0.58464485,nan,2,2,0,0
565621895,565621075,59.39622271171419,24.660573989049293,30.658901,42.615646,0.03908609,0.3909786,0.58481663,nan,2,2,0,0
565632009,565630960,59.39622270882173,24.660573991961662,30.659586,42.61633,0.03908609,0.39130658,0.58498967,nan,2,2,0,0
565641526,565640845,59.39622270596144,24.660573994798217,30.660385,42.61713,0.03908609,0.3916379,0.5850869,nan,2,2,0,0
565651340,565650731,59.39622270314617,24.66057399766636,30.66118,42.617924,0.03908609,0.3919725,0.58526206,nan,2,2,0,0
565661444,565660614,59.396222700307305,24.660574000576624,30.661985,42.61873,0.03908609,0.3923105,0.58543843,nan,2,2,0,0
565671472,565670501,59.396222697496334,24.66057400351847,30.66281,42.619553,0.03908609,0.39265192,0.5856161,nan,2,2,0,0
565681361,565680384,59.396222694672474,24.660574006380298,30.663635,42.62038,0.03908609,0.3929967,0.5857951,nan,2,2,0,0
565691406,565690268,59.39622269186151,24.660574009227386,30.66447,42.621216,0.03908609,0.39334494,0.5859754,nan,2,2,0,0
565700992,565700153,59.3962226890977,24.660574012011296,30.665312,42.622055,0.03908609,0.39369667,0.58615696,nan,2,2,0,0
565711270,565710038,59.39622268636606,24.66057401481416,30.666279,42.623024,0.03908609,0.39405185,0.58625644,nan,2,2,0,0
565720922,565719923,59.39622268364084,24.66057401761913,30.667246,42.62399,0.03908609,0.39441055,0.58644015,nan,2,2,0,0
565731343,565729814,59.39622268049753,24.66057402117167,30.66791,42.62022,0.03908609,0.39045873,0.58453315,nan,2,2,0,0
565740375,565739693,59.396222677409945,24.660574024658928,30.668594,42.620903,0.03908609,0.39078155,0.58470416,nan,2,2,0,0
565751742,565749577,59.39622267431379,24.660574028120916,30.669296,42.621605,0.03908609,0.39110768,0.5848764,nan,2,2,0,0
565760494,565759463,59.396222671204775,24.660574031528153,30.670017,42.622326,0.03908609,0.3914371,0.5850499,nan,2,2,0,0
565770380,565769347,59.396222668172946,24.660574034956447,30.670755,42.623066,0.03908609,0.39176986,0.5852247,nan,2,2,0,0
565781306,565779231,59.39622266514326,24.660574038376318,30.671618,42.623928,0.03908609,0.392106,0.58532244,nan,2,2,0,0
565790422,565789131,59.396222662139316,24.6605740418341,30.672491,42.6248,0.03908609,0.3924455,0.58549935,nan,2,2,0,0
565800108,565799003,59.396222659178235,24.660574045209746,30.673376,42.625687,0.03908609,0.39278838,0.5856775,nan,2,2,0,0
565810042,565808886,59.39622265623004,24.660574048547492,30.674269,42.62658,0.03908609,0.3931347,0.585857,nan,2,2,0,0
565820398,565818776,59.396222653268964,24.660574051845224,30.67517,42.62748,0.03908609,0.39348447,0.5860377,nan,2,2,0,0
565829308,565828656,59.39622265038723,24.660574055050304,30.676092,42.628403,0.03908609,0.39383772,0.5862198,nan,2,2,0,0
565839246,565838540,59.39622264749048,24.660574058249065,30.677132,42.62944,0.03908609,0.39419445,0.5863194,nan,2,2,0,0
565850719,565848426,59.39622264470523,24.660574060952953,30.677921,42.625824,0.03908609,0.39028034,0.5844279,nan,2,2,0,0
565859171,565858310,59.39622264192427,24.660574063639995,30.678732,42.626633,0.03908609,0.39060158,0.5845982,nan,2,2,0,0
565869019,565868195,59.39622263915617,24.660574066278603,30.679564,42.627464,0.03908609,0.3909261,0.5847697,nan,2,2,0,0
565879174,565878080,59.39622263639236,24.66057406884351,30.680408,42.62831,0.03908609,0.39125392,0.5849425,nan,2,2,0,0
565888947,565887964,59.396222633688595,24.66057407137893,30.681265,42.629166,0.03908609,0.39158505,0.58511657,nan,2,2,0,0
565898696,565897849,59.39622263096552,24.66057407396068,30.682138,42.63004,0.03908609,0.39191955,0.58529186,nan,2,2,0,0
565908410,565907734,59.39622262833035,24.660574076534008,30.683136,42.63104,0.03908609,0.39225742,0.5853898,nan,2,2,0,0
565918225,565917619,59.39622262572737,24.660574079086278,30.684143,42.632046,0.03908609,0.3925987,0.58556724,nan,2,2,0,0
565928167,565927508,59.39622262304718,24.660574081566953,30.68517,42.63307,0.03908609,0.39294338,0.58574593,nan,2,2,0,0
565938082,565937388,59.39622262043989,24.660574084070785,30.686205,42.634106,0.03908609,0.3932915,0.58592594,nan,2,2,0,0
565947971,565947280,59.396222617894786,24.660574086503022,30.687256,42.63516,0.03908609,0.39364308,0.58610725,nan,2,2,0,0
565958063,565957158,59.39622261524033,24.660574088920516,30.68832,42.636223,0.03908609,0.39399815,0.5862899,nan,2,2,0,0
565967937,565967043,59.39622261265877,24.660574091407508,30.689516,42.637417,0.03908609,0.39435676,0.58638966,nan,2,2,0,0
565978239,565976929,59.396222609856366,24.660574095122197,30.69028,42.633392,0.03908609,0.39041215,0.5844889,nan,2,2,0,0
565987666,565986812,59.396222607023944,24.66057409877792,30.691061,42.63417,0.03908609,0.3907349,0.5846597,nan,2,2,0,0
565997307,565996697,59.39622260418938,24.660574102414692,30.691856,42.634968,0.03908609,0.39106095,0.5848317,nan,2,2,0,0
566007233,566006582,59.39622260147274,24.660574105914588,30.692675,42.635788,0.03908609,0.39139032,0.585005,nan,2,2,0,0
566017254,566016467,59.396222598698216,24.66057410939553,30.693506,42.63662,0.03908609,0.391723,0.58517957,nan,2,2,0,0
566027162,566026351,59.39622259591512,24.66057411292701,30.69434,42.63745,0.03908609,0.39205906,0.58535534,nan,2,2,0,0
566037012,566036237,59.39622259323278,24.660574116401634,30.695301,42.638412,0.03908609,0.3923985,0.58545345,nan,2,2,0,0
566046837,566046125,59.396222590518285,24.660574119789917,30.696281,42.639393,0.03908609,0.39274135,0.5856314,nan,2,2,0,0
566056930,566056006,59.39622258782095,24.660574123190834,30.69727,42.64038,0.03908609,0.39308766,0.5858106,nan,2,2,0,0
566066850,566065891,59.39622258517078,24.660574126520157,30.69827,42.64138,0.03908609,0.3934374,0.5859911,nan,2,2,0,0
566076715,566075779,59.39622258246702,24.660574129790515,30.699299,42.64241,0.03908609,0.3937906,0.58617294,nan,2,2,0,0
566086893,566085660,59.396222579761094,24.660574133096674,30.700329,42.64344,0.03908609,0.39414737,0.58635604,nan,2,2,0,0
566097190,566095545,59.39622257714736,24.660574136385982,30.701485,42.644596,0.03908609,0.39450762,0.586456,nan,2,2,0,0
566107095,566105430,59.39622257448219,24.660574139614223,30.702658,42.645767,0.03908609,0.3948714,0.58664125,nan,2,2,0,0
566118733,566115315,59.3962225729427,24.66057414100618,30.703474,42.641365,0.03908609,0.39083332,0.5847078,nan,2,2,0,0
566126842,566125200,59.39622257147396,24.66057414236655,30.704302,42.642193,0.03908609,0.39116034,0.5848802,nan,2,2,0,0
566137055,566135084,59.396222570007346,24.660574143798513,30.705141,42.643032,0.03908609,0.39149067,0.58505374,nan,2,2,0,0
566146793,566144975,59.3962225684164,24.66057414525575,30.706009,42.6439,0.03908609,0.39182433,0.5852287,nan,2,2,0,0
566156840,566154854,59.39622256691763,24.66057414668772,30.706902,42.644794,0.03908609,0.39216137,0.5854048,nan,2,2,0,0
566166951,566164738,59.39622256540601,24.66057414808178,30.70792,42.645813,0.03908609,0.3925018,0.585503,nan,2,2,0,0
566177229,566174623,59.39622256375502,24.66057414951585,30.70895,42.646843,0.03908609,0.39284563,0.58568126,nan,2,2,0,0
566185154,566184508,59.396222562241235,24.660574150958347,30.710001,42.647892,0.03908609,0.39319292,0.58586085,nan,2,2,0,0
566195010,566194393,59.39622256073176,24.660574152303973,30.711067,42.64896,0.03908609,0.39354366,0.5860417,nan,2,2,0,0
566204878,566204278,59.39622255908721,24.660574153662235,30.71214,42.650032,0.03908609,0.3938979,0.58622384,nan,2,2,0,0
566215019,566214162,59.39622255750482,24.66057415507104,30.713223,42.651115,0.03908609,0.39425564,0.5864073,nan,2,2,0,0
566225020,566224047,59.39622255595246,24.660574156524063,30.71444,42.652332,0.03908609,0.3946169,0.5865073,nan,2,2,0,0
566234858,566233932,59.39622255429289,24.660574157932864,30.71566,42.653553,0.03908609,0.3949817,0.5866929,nan,2,2,0,0
566244843,566243830,59.39622255269764,24.660574159305867,30.71689,42.65478,0.03908609,0.3953501,0.5868799,nan,2,2,0,0
566254553,566253702,59.39622255115385,24.660574160695717,30.718138,42.65603,0.03908609,0.39572212,0.5870682,nan,2,2,0,0
566264516,566263586,59.396222549494276,24.66057416216559,30.719397,42.657288,0.03908609,0.39609778,0.5872578,nan,2,2,0,0
566274813,566273471,59.39622254718289,24.66057416379761,30.720243,42.65177,0.03908609,0.39183575,0.58524346,nan,2,2,0,0
566284076,566283356,59.39622254491437,24.660574165387516,30.721117,42.65264,0.03908609,0.3921724,0.5854196,nan,2,2,0,0
566293942,566293241,59.39622254260513,24.66057416697742,30.722105,42.653633,0.03908609,0.39251244,0.58551764,nan,2,2,0,0
566303703,566303129,59.39622254033877,24.660574168573643,30.723095,42.65462,0.03908609,0.39285585,0.5856959,nan,2,2,0,0
566314099,566313013,59.396222538141004,24.660574170188813,30.724102,42.65563,0.03908609,0.39320272,0.58587545,nan,2,2,0,0
566323633,566322895,59.396222535900364,24.660574171759766,30.725124,42.65665,0.03908609,0.39355305,0.58605623,nan,2,2,0,0
566333855,566332780,59.39622253371119,24.660574173332822,30.726156,42.657684,0.03908609,0.39390683,0.5862384,nan,2,2,0,0
566343693,566342665,59.39622253153059,24.660574174893245,30.727205,42.65873,0.03908609,0.39426413,0.58642185,nan,2,2,0,0
566354194,566352550,59.39622252886542,24.660574175383907,30.727812,42.656265,0.03908609,0.39033833,0.58451754,nan,2,2,0,0
566363347,566362434,59.396222526198095,24.66057417589352,30.728533,42.65699,0.03908609,0.39066002,0.58461374,nan,2,2,0,0
566372984,566372319,59.39622252359081,24.660574176394707,30.729275,42.65773,0.03908609,0.39098498,0.58478534,nan,2,2,0,0
566382884,566382204,59.39622252100281,24.66057417700119,30.730038,42.658493,0.03908609,0.39131323,0.58495814,nan,2,2,0,0
566392726,566392089,59.39622251838266,24.660574177603458,30.730818,42.65927,0.03908609,0.39164484,0.5851323,nan,2,2,0,0
566402707,566401973,59.39622251584828,24.660574178190988,30.731617,42.660072,0.03908609,0.39197975,0.58530766,nan,2,2,0,0
566412860,566411860,59.39622251323885,24.660574178776415,30.732439,42.660896,0.03908609,0.39231807,0.5854843,nan,2,2,0,0
566422590,566421747,59.396222510674455,24.660574179347094,30.733393,42.66185,0.03908609,0.39265975,0.58558255,nan,2,2,0,0
566432438,566431627,59.3962225082001,24.660574179886186,30.734364,42.66282,0.03908609,0.39300486,0.5857613,nan,2,2,0,0
566442534,566441512,59.396222505674295,24.660574180490563,30.735352,42.663807,0.03908609,0.39335343,0.5859414,nan,2,2,0,0
566452375,566451398,59.39622250318492,24.660574181166535,30.736355,42.66481,0.03908609,0.39370546,0.58612275,nan,2,2,0,0
566461973,566461284,59.39622250073631,24.66057418179197,30.737377,42.665833,0.03908609,0.39406097,0.5863054,nan,2,2,0,0
566471811,566471167,59.396222498242665,24.66057418241951,30.73842,42.666878,0.03908609,0.39442,0.5864894,nan,2,2,0,0
566482669,566481052,59.39622249672676,24.66057418452534,30.739113,42.662533,0.03908609,0.3904652,0.5845762,nan,2,2,0,0
566491975,566490937,59.396222495281606,24.660574186546942,30.73994,42.66336,0.03908609,0.39078832,0.5846726,nan,2,2,0,0
566501788,566500824,59.39622249381071,24.660574188616973,30.740791,42.66421,0.03908609,0.39111468,0.5848446,nan,2,2,0,0
566512524,566510706,59.3962224922605,24.660574190731232,30.741663,42.665085,0.03908609,0.39144439,0.5850179,nan,2,2,0,0
566521823,566520591,59.396222490826055,24.66057419270861,30.742554,42.665974,0.03908609,0.39177743,0.5851925,nan,2,2,0,0
566531682,566530476,59.39622248940449,24.660574194639654,30.743462,42.66688,0.03908609,0.3921138,0.58536834,nan,2,2,0,0
566541529,566540361,59.396222487867135,24.66057419662756,30.744389,42.66781,0.03908609,0.39245358,0.5855455,nan,2,2,0,0
566551537,566550245,59.39622248641768,24.66057419854387,30.745432,42.668854,0.03908609,0.39279675,0.5856439,nan,2,2,0,0
566560834,566560130,59.39622248495108,24.66057420047492,30.746489,42.669907,0.03908609,0.3931434,0.5858231,nan,2,2,0,0
566570591,566570015,59.39622248337729,24.660574202477562,30.74756,42.670982,0.03908609,0.39349344,0.58600366,nan,2,2,0,0
566580521,566579900,59.39622248185923,24.660574204478102,30.748646,42.672066,0.03908609,0.393847,0.5861855,nan,2,2,0,0
566590627,566589785,59.39622248033473,24.66057420642389,30.749748,42.67317,0.03908609,0.39420402,0.5863687,nan,2,2,0,0
566600485,566599669,59.39622247875235,24.660574208323357,30.750866,42.674286,0.03908609,0.39456457,0.5865531,nan,2,2,0,0
566611988,566609554,59.396222476205104,24.660574209641606,30.751543,42.670086,0.03908609,0.39058316,0.58463156,nan,2,2,0,0
566620343,566619439,59.39622247367715,24.660574211054623,30.752342,42.670883,0.03908609,0.39090753,0.58472806,nan,2,2,0,0
566630526,566629324,59.39622247112132,24.660574212511857,30.753164,42.671707,0.03908609,0.39123517,0.58490056,nan,2,2,0,0
566640111,566639223,59.39622246863625,24.660574213973305,30.754004,42.672546,0.03908609,0.39156616,0.5850743,nan,2,2,0,0
566649783,566649103,59.396222466119035,24.66057421543686,30.75486,42.6734,0.03908609,0.39190045,0.5852493,nan,2,2,0,0
566659724,566658979,59.39622246358678,24.660574216860404,30.755743,42.674286,0.03908609,0.39223814,0.5854256,nan,2,2,0,0
566669585,566668864,59.3962224611103,24.660574218208136,30.756649,42.675194,0.03908609,0.39257923,0.5856032,nan,2,2,0,0
566679452,566678749,59.396222458610204,24.660574219638,30.757568,42.67611,0.03908609,0.3929237,0.585782,nan,2,2,0,0
566689380,566688637,59.39622245611656,24.6605742210805,30.758636,42.677177,0.03908609,0.39327165,0.5858809,nan,2,2,0,0
566699340,566698518,59.39622245368725,24.660574222552473,30.759714,42.678257,0.03908609,0.39362305,0.58606184,nan,2,2,0,0
566709238,566708403,59.396222451227906,24.660574224007608,30.760803,42.679344,0.03908609,0.3939779,0.5862441,nan,2,2,0,0
566719207,566718288,59.396222448768576,24.6605742254501,30.761904,42.680447,0.03908609,0.39433628,0.5864277,nan,2,2,0,0
566729165,566728172,59.39622244636283,24.660574226879962,30.763018,42.68156,0.03908609,0.3946982,0.58661264,nan,2,2,0,0
566739364,566738057,59.396222444996994,24.660574225298486,30.763859,42.6776,0.03908609,0.39069256,0.58468324,nan,2,2,0,0
566748595,566747942,59.39622244361403,24.66057422385599,30.764816,42.67856,0.03908609,0.39101803,0.5847799,nan,2,2,0,0
566758507,566757827,59.39622244219673,24.660574222476672,30.765797,42.67954,0.03908609,0.39134678,0.5849528,nan,2,2,0,0
566768358,566767711,59.396222440775176,24.660574221147893,30.7668,42.680542,0.03908609,0.39167887,0.5851269,nan,2,2,0,0
566779246,566777597,59.3962224393686,24.660574219878075,30.76782,42.681564,0.03908609,0.39201432,0.5853023,nan,2,2,0,0
566788253,566787481,59.39622243794916,24.660574218585097,30.768848,42.68259,0.03908609,0.39235312,0.58547896,nan,2,2,0,0
566798400,566797366,59.396222436536185,24.66057421727738,30.769897,42.68364,0.03908609,0.39269534,0.58565694,nan,2,2,0,0
566808106,566807251,59.39622243511891,24.66057421605389,30.770964,42.684708,0.03908609,0.39304096,0.5858362,nan,2,2,0,0
566818330,566817136,59.39622243371664,24.660574214902002,30.772148,42.68589,0.03908609,0.39339003,0.5859351,nan,2,2,0,0
566828240,566827021,59.396222432247896,24.660574213766957,30.77335,42.68709,0.03908609,0.3937426,0.5861165,nan,2,2,0,0
566838205,566836905,59.396222430804876,24.660574212705622,30.774569,42.688313,0.03908609,0.39409864,0.5862992,nan,2,2,0,0
566848312,566846790,59.39622242931899,24.66057421176642,30.775806,42.68955,0.03908609,0.39445817,0.5864832,nan,2,2,0,0
566859619,566856675,59.39622242754791,24.660574211779057,30.776539,42.685444,0.03908609,0.3904957,0.58457065,nan,2,2,0,0
566868424,566866559,59.396222425755404,24.660574211856975,30.777298,42.686203,0.03908609,0.39081922,0.5847419,nan,2,2,0,0
566878501,566876444,59.396222423960744,24.660574212012804,30.778196,42.687103,0.03908609,0.39114603,0.5848386,nan,2,2,0,0
566888204,566886329,59.39622242222613,24.66057421216443,30.77911,42.688015,0.03908609,0.39147618,0.58501196,nan,2,2,0,0
566898284,566896214,59.39622242045721,24.66057421234553,30.780043,42.68895,0.03908609,0.39180964,0.58518654,nan,2,2,0,0
566907845,566906099,59.39622241866898,24.66057421248873,30.781004,42.68991,0.03908609,0.3921465,0.58536243,nan,2,2,0,0
566917833,566915983,59.39622241693435,24.66057421256875,30.781988,42.690895,0.03908609,0.39248672,0.5855396,nan,2,2,0,0
566926520,566925868,59.39622241523192,24.66057421266562,30.78299,42.691895,0.03908609,0.3928303,0.58571804,nan,2,2,0,0
566936441,566935753,59.39622241348014,24.66057421282356,30.784016,42.69292,0.03908609,0.3931774,0.5858978,nan,2,2,0,0
566946353,566945638,59.39622241174553,24.660574212945697,30.785164,42.69407,0.03908609,0.39352793,0.5859968,nan,2,2,0,0
566956240,566955523,59.396222409998046,24.660574213133117,30.786327,42.695232,0.03908609,0.39388195,0.5861787,nan,2,2,0,0
566966143,566965407,59.39622240823126,24.660574213387925,30.787504,42.69641,0.03908609,0.39423946,0.5863618,nan,2,2,0,0
566978724,566975294,59.39622240623934,24.660574215403205,30.788256,42.69237,0.03908609,0.39031553,0.58446485,nan,2,2,0,0
566985990,566985177,59.396222404245286,24.66057421741849,30.789032,42.69315,0.03908609,0.3906374,0.5846354,nan,2,2,0,0
566995951,566995062,59.39622240219333,24.66057421949484,30.789833,42.69395,0.03908609,0.39096254,0.58480716,nan,2,2,0,0
567005964,567004947,59.39622239998487,24.660574221615416,30.790771,42.69489,0.03908609,0.39129096,0.58490413,nan,2,2,0,0
567015988,567014833,59.39622239778283,24.6605742236686,30.791739,42.695854,0.03908609,0.39162275,0.585078,nan,2,2,0,0
567025324,567024716,59.39622239542641,24.660574225593333,30.79274,42.696857,0.03908609,0.39195788,0.5852531,nan,2,2,0,0
567035177,567034601,59.39622239301209,24.66057422776655,30.79376,42.697876,0.03908609,0.39229637,0.58542955,nan,2,2,0,0
567045356,567044487,59.39622239086151,24.66057423043043,30.794798,42.698914,0.03908609,0.3926383,0.58560723,nan,2,2,0,0
567055161,567054371,59.39622238853724,24.660574232584697,30.795847,42.699963,0.03908609,0.39298362,0.5857862,nan,2,2,0,0
567065086,567064255,59.396222386228004,24.66057423447995,30.796951,42.70107,0.03908609,0.39333236,0.58596647,nan,2,2,0,0
567075144,567074140,59.39622238407528,24.660574236476275,30.798183,42.7023,0.03908609,0.39368463,0.5860657,nan,2,2,0,0
567084838,567084025,59.39622238187753,24.66057423831467,30.799421,42.703537,0.03908609,0.39404035,0.5862481,nan,2,2,0,0
567094800,567093910,59.39622237954683,24.66057424039523,30.800688,42.704803,0.03908609,0.39439958,0.5864318,nan,2,2,0,0
567104469,567103795,59.39622237740698,24.660574242166238,30.801945,42.706062,0.03908609,0.3947624,0.5866169,nan,2,2,0,0
567114895,567113679,59.39622237560803,24.660574242570558,30.802824,42.701637,0.03908609,0.39074364,0.5846867,nan,2,2,0,0
567124217,567123564,59.39622237375333,24.660574242701124,30.803688,42.702503,0.03908609,0.39106983,0.58485883,nan,2,2,0,0
567134119,567133455,59.39622237150412,24.660574243168615,30.804668,42.703484,0.03908609,0.39139932,0.58495593,nan,2,2,0,0
567144211,567143341,59.39622236957439,24.660574243621372,30.80573,42.704544,0.03908609,0.39173216,0.58513016,nan,2,2,0,0
567154047,567153219,59.396222367704695,24.66057424391619,30.806837,42.70565,0.03908609,0.39206833,0.58530563,nan,2,2,0,0
567163931,567163103,59.3962223657578,24.66057424430577,30.807978,42.706795,0.03908609,0.3924079,0.5854824,nan,2,2,0,0
567173876,567172990,59.3962223637852,24.660574244577422,30.809185,42.708,0.03908609,0.39275092,0.5856605,nan,2,2,0,0
567183750,567182879,59.396222361407325,24.660574244819593,30.810396,42.709213,0.03908609,0.3930973,0.58583987,nan,2,2,0,0
567193677,567192758,59.39622235949474,24.66057424438369,30.811672,42.710487,0.03908609,0.3934472,0.5860205,nan,2,2,0,0
567203332,567202643,59.396222357206945,24.6605742437372,30.81305,42.711864,0.03908609,0.39380056,0.5861199,nan,2,2,0,0
567214458,567212527,59.39622235515927,24.660574243648757,30.81447,42.713287,0.03908609,0.3941574,0.5863027,nan,2,2,0,0
567223336,567222413,59.39622235315021,24.6605742434845,30.815952,42.714767,0.03908609,0.39451787,0.58648676,nan,2,2,0,0
567233237,567232298,59.39622235114328,24.660574243604536,30.81746,42.716274,0.03908609,0.39488178,0.5866722,nan,2,2,0,0
567243174,567242182,59.3962223491235,24.660574244206806,30.819061,42.717876,0.03908609,0.39524934,0.586859,nan,2,2,0,0
567253234,567252074,59.39622234709942,24.660574245087044,30.82066,42.719475,0.03908609,0.39562055,0.58704704,nan,2,2,0,0
567264562,567261952,59.39622234463579,24.66057424772355,30.821814,42.714268,0.03908609,0.39144522,0.5850606,nan,2,2,0,0
567273122,567271837,59.39622234292261,24.660574250473765,30.82325,42.715702,0.03908609,0.3917783,0.585158,nan,2,2,0,0
567282850,567281721,59.39622234083206,24.66057425311869,30.824785,42.71724,0.03908609,0.3921146,0.58533365,nan,2,2,0,0
567292932,567291605,59.39622233880156,24.66057425645222,30.826439,42.71889,0.03908609,0.39245445,0.58551055,nan,2,2,0,0
567302095,567301490,59.39622233725133,24.660574259539374,30.828135,42.72059,0.03908609,0.39279765,0.5856887,nan,2,2,0,0
567312134,567311376,59.39622233614067,24.66057426225379,30.830233,42.722687,0.03908609,0.39314425,0.5858682,nan,2,2,0,0
567322090,567321260,59.39622233471266,24.6605742648208,30.83245,42.724903,0.03908609,0.39349437,0.58604896,nan,2,2,0,0
567332026,567331144,59.39622233352053,24.66057426804483,30.834837,42.72729,0.03908609,0.39384806,0.58614826,nan,2,2,0,0
567341864,567341033,59.39622233310241,24.660574270411782,30.837566,42.73002,0.03908609,0.39420512,0.5863312,nan,2,2,0,0
567351987,567350914,59.39622233284083,24.660574271462593,30.840767,42.73322,0.03908609,0.39456588,0.5865154,nan,2,2,0,0
567362354,567360799,59.39622233219973,24.66057427145417,30.843546,42.73198,0.03908609,0.39058253,0.5845987,nan,2,2,0,0
567371575,567370690,59.39622233146642,24.66057427128149,30.846458,42.734894,0.03908609,0.3909071,0.58477014,nan,2,2,0,0
567381225,567380577,59.396222331247714,24.66057427069186,30.84957,42.738003,0.03908609,0.391235,0.5849429,nan,2,2,0,0
567391591,567390453,59.39622233173444,24.66057426950417,30.853022,42.741455,0.03908609,0.39156634,0.58511686,nan,2,2,0,0
567401000,567400338,59.39622233205821,24.660574267191965,30.8572,42.745636,0.03908609,0.391901,0.5852143,nan,2,2,0,0
567411095,567410223,59.3962223316594,24.660574264233272,30.861809,42.750244,0.03908609,0.39223915,0.58539045,nan,2,2,0,0
567420891,567420108,59.396222331796615,24.660574260567024,30.866735,42.75517,0.03908609,0.39258093,0.5855678,nan,2,2,0,0
567431195,567429992,59.396222332431286,24.660574255911026,30.871933,42.76037,0.03908609,0.3929261,0.5857464,nan,2,2,0,0
567440660,567439876,59.396222332782926,24.66057425090336,30.877546,42.76598,0.03908609,0.39327475,0.58592635,nan,2,2,0,0
567450968,567449763,59.39622233266072,24.66057424509127,30.883575,42.77201,0.03908609,0.39362726,0.58610755,nan,2,2,0,0
567460621,567459646,59.396222332227595,24.660574238813783,30.890085,42.77852,0.03908609,0.39398354,0.586207,nan,2,2,0,0
567470426,567469531,59.39622233206893,24.66057423199089,30.896957,42.785393,0.03908609,0.39434344,0.5863904,nan,2,2,0,0
567481363,567479417,59.39622233229834,24.660574226362,30.903559,42.786747,0.03908609,0.39039215,0.5844897,nan,2,2,0,0
567490161,567489300,59.39622233228119,24.660574219964484,30.910645,42.793835,0.03908609,0.39071608,0.5846604,nan,2,2,0,0
567499891,567499184,59.396222331730144,24.66057421414818,30.918018,42.80121,0.03908609,0.3910436,0.5848324,nan,2,2,0,0
567509849,567509070,59.39622233099256,24.660574208866755,30.925554,42.808743,0.03908609,0.3913748,0.58500564,nan,2,2,0,0
567519674,567518954,59.396222330377185,24.660574203473722,30.933369,42.81656,0.03908609,0.39170957,0.5851801,nan,2,2,0,0
567529789,567528839,59.3962223302957,24.660574197739543,30.94182,42.82501,0.03908609,0.392048,0.5852778,nan,2,2,0,0
567539830,567538723,59.39622233042006,24.66057419171476,30.950644,42.83383,0.03908609,0.39239007,0.5854544,nan,2,2,0,0
567550127,567548608,59.396222330194924,24.660574185437277,30.959835,42.843025,0.03908609,0.392736,0.58563226,nan,2,2,0,0
567559589,567558493,59.39622232930082,24.66057417961676,30.969198,42.852386,0.03908609,0.39308563,0.58581144,nan,2,2,0,0
567570070,567568377,59.396222328709044,24.660574174497484,30.97862,42.86181,0.03908609,0.39343908,0.58599186,nan,2,2,0,0
567579840,567578261,59.396222328333806,24.660574169414005,30.988216,42.871407,0.03908609,0.39379635,0.58617365,nan,2,2,0,0
567589879,567588146,59.39622232784923,24.660574163892516,30.998486,42.881676,0.03908609,0.39415765,0.58627325,nan,2,2,0,0
567599873,567598031,59.39622232671283,24.66057415907227,31.008951,42.89214,0.03908609,0.39452285,0.58645713,nan,2,2,0,0
567611008,567607915,59.39622232354591,24.660574156183074,31.018345,42.89545,0.03908609,0.39052013,0.5845477,nan,2,2,0,0
567619985,567617800,59.39622232095365,24.66057415305381,31.027802,42.904907,0.03908609,0.39084816,0.5847189,nan,2,2,0,0
567629731,567627684,59.39622231802687,24.660574149962446,31.037401,42.914505,0.03908609,0.3911798,0.58489126,nan,2,2,0,0
567639999,567637569,59.39622231531881,24.660574147336476,31.047117,42.92422,0.03908609,0.39151508,0.585065,nan,2,2,0,0
567649486,567647454,59.3962223129195,24.660574144822117,31.056889,42.933994,0.03908609,0.3918541,0.58523995,nan,2,2,0,0
567659541,567657338,59.396222310357246,24.660574142467798,31.06691,42.944016,0.03908609,0.3921968,0.58533776,nan,2,2,0,0
567667838,567667223,59.39622230806943,24.66057414013454,31.076942,42.95405,0.03908609,0.39254305,0.58551484,nan,2,2,0,0
567677750,567677107,59.39622230598104,24.660574137575956,31.08705,42.964153,0.03908609,0.39289287,0.5856932,nan,2,2,0,0
567687627,567686992,59.39622230363749,24.660574135223744,31.097141,42.974247,0.03908609,0.3932465,0.5858728,nan,2,2,0,0
567697643,567696882,59.396222301540504,24.660574133037894,31.107178,42.984283,0.03908609,0.39360398,0.5860538,nan,2,2,0,0
567707699,567706761,59.39622229964079,24.66057413054038,31.1173,42.994404,0.03908609,0.39396515,0.586236,nan,2,2,0,0
567717742,567716646,59.39622229767459,24.66057412868514,31.127327,43.004433,0.03908609,0.39432997,0.5864196,nan,2,2,0,0
567727536,567726530,59.39622229588208,24.660574126642487,31.137577,43.014683,0.03908609,0.39469853,0.5865196,nan,2,2,0,0
567737905,567736415,59.396222294891494,24.660574119632173,31.147089,43.0185,0.03908609,0.39065555,0.58460194,nan,2,2,0,0
567747185,567746299,59.39622229391804,24.660574113125154,31.156439,43.02785,0.03908609,0.39098617,0.58477354,nan,2,2,0,0
567756857,567756184,59.3962222930561,24.660574106639196,31.165936,43.037346,0.03908609,0.39132023,0.5849464,nan,2,2,0,0
567766655,567766068,59.39622229246861,24.66057410000372,31.175322,43.046734,0.03908609,0.3916577,0.5851205,nan,2,2,0,0
567776953,567775953,59.39622229164739,24.660574094050535,31.184683,43.056095,0.03908609,0.3919987,0.5852959,nan,2,2,0,0
567786675,567785838,59.396222291188536,24.660574087821487,31.194166,43.06558,0.03908609,0.39234325,0.58539385,nan,2,2,0,0
567796521,567795722,59.39622229051313,24.66057408216312,31.20366,43.075073,0.03908609,0.3926912,0.58557135,nan,2,2,0,0
567806410,567805606,59.396222290191496,24.660574076511068,31.213152,43.084564,0.03908609,0.3930427,0.5857501,nan,2,2,0,0
567816484,567815491,59.39622228969406,24.66057407113909,31.222668,43.094078,0.03908609,0.39339778,0.5859302,nan,2,2,0,0
567826220,567825376,59.39622228930812,24.66057406611458,31.232204,43.103615,0.03908609,0.39375642,0.5861116,nan,2,2,0,0
567836132,567835260,59.396222289295245,24.66057406083947,31.241781,43.113194,0.03908609,0.39411882,0.5862943,nan,2,2,0,0
567846116,567845145,59.396222289005784,24.66057405606766,31.251387,43.1228,0.03908609,0.3944846,0.58647823,nan,2,2,0,0
567855701,567855029,59.39622228922877,24.660574051209505,31.261038,43.13245,0.03908609,0.3948542,0.5865784,nan,2,2,0,0
567866231,567864914,59.39622228525352,24.660574052896276,31.26985,43.135582,0.03908609,0.39078724,0.5846531,nan,2,2,0,0
567875494,567874799,59.39622228159347,24.660574054469336,31.278687,43.144417,0.03908609,0.39111853,0.58482504,nan,2,2,0,0
567885552,567884683,59.396222278435125,24.660574056132944,31.287441,43.15317,0.03908609,0.39145327,0.58499825,nan,2,2,0,0
567895408,567894568,59.396222274747196,24.66057405790395,31.296497,43.162228,0.03908609,0.39179146,0.5851728,nan,2,2,0,0
567905267,567904452,59.39622227185259,24.660574059544395,31.30549,43.17122,0.03908609,0.39213306,0.58534855,nan,2,2,0,0
567915627,567914337,59.396222269283896,24.660574061283818,31.31449,43.18022,0.03908609,0.3924782,0.5854466,nan,2,2,0,0
567925116,567924222,59.39622226629925,24.660574063130632,31.323767,43.1895,0.03908609,0.39282683,0.58562446,nan,2,2,0,0
567934736,567934106,59.39622226411007,24.66057406479424,31.332914,43.198647,0.03908609,0.39317897,0.5858037,nan,2,2,0,0
567944697,567943991,59.39622226184156,24.660574066721075,31.342113,43.207844,0.03908609,0.39353472,0.5859841,nan,2,2,0,0
567954627,567953875,59.39622225976602,24.66057406839311,31.351505,43.217236,0.03908609,0.39389405,0.5861659,nan,2,2,0,0
567964594,567963760,59.39622225827369,24.66057406986298,31.360794,43.226524,0.03908609,0.39425695,0.586349,nan,2,2,0,0
567975396,567973652,59.39622226282144,24.660574064404663,31.369907,43.231285,0.03908609,0.39030182,0.5844535,nan,2,2,0,0
567984697,567983529,59.396222267720816,24.66057405901373,31.379154,43.240532,0.03908609,0.3906278,0.5845497,nan,2,2,0,0
567994681,567993414,59.39622227277029,24.660574053675443,31.388422,43.2498,0.03908609,0.39095727,0.584721,nan,2,2,0,0
568004408,568003298,59.39622227788838,24.660574048284513,31.397755,43.259132,0.03908609,0.39129022,0.5848936,nan,2,2,0,0
568014943,568013183,59.396222283175845,24.66057404328316,31.407032,43.26841,0.03908609,0.39162645,0.5850674,nan,2,2,0,0
568024245,568023068,59.396222288281066,24.66057403838078,31.416399,43.27778,0.03908609,0.39196622,0.58524245,nan,2,2,0,0
568033686,568032952,59.396222293746504,24.660574033219383,31.425823,43.2872,0.03908609,0.39230958,0.5854188,nan,2,2,0,0
568043492,568042837,59.396222299370606,24.66057402826015,31.435265,43.296642,0.03908609,0.3926562,0.5855171,nan,2,2,0,0
568053478,568052723,59.39622230485106,24.660574023591515,31.4448,43.306175,0.03908609,0.39300653,0.58569556,nan,2,2,0,0
568063452,568062606,59.396222310640255,24.660574018994485,31.454369,43.315746,0.03908609,0.39336038,0.58587533,nan,2,2,0,0
568073263,568072491,59.39622231635441,24.66057401444167,31.463877,43.325256,0.03908609,0.39371774,0.58605635,nan,2,2,0,0
568083230,568082375,59.39622232200853,24.660574010168933,31.473475,43.334854,0.03908609,0.39407876,0.58623874,nan,2,2,0,0
568093246,568092260,59.39622232826303,24.66057400559296,31.483076,43.34445,0.03908609,0.39444336,0.58642244,nan,2,2,0,0
568103058,568102144,59.39622233391287,24.66057400183194,31.492605,43.35398,0.03908609,0.39481163,0.58660746,nan,2,2,0,0
568113845,568112030,59.396222335297985,24.66057399670845,31.501469,43.357204,0.03908609,0.3907568,0.5846037,nan,2,2,0,0
568122600,568121914,59.39622233733491,24.660573991254346,31.510479,43.366215,0.03908609,0.39108714,0.58477545,nan,2,2,0,0
568132535,568131798,59.39622233906095,24.66057398661941,31.519333,43.37507,0.03908609,0.391421,0.58494836,nan,2,2,0,0
568142409,568141683,59.39622234104858,24.660573982348783,31.528057,43.383793,0.03908609,0.39175814,0.58512264,nan,2,2,0,0
568152244,568151568,59.396222342691,24.660573978326646,31.537195,43.39293,0.03908609,0.39209875,0.5852981,nan,2,2,0,0
568162306,568161452,59.396222344588566,24.66057397450877,31.546295,43.40203,0.03908609,0.3924429,0.5854749,nan,2,2,0,0
568172150,568171337,59.39622234699001,24.660573971019407,31.555172,43.410908,0.03908609,0.3927905,0.58565295,nan,2,2,0,0
568182173,568181221,59.396222348668886,24.660573968115465,31.564358,43.420094,0.03908609,0.39314157,0.5857517,nan,2,2,0,0
568192122,568191106,59.39622235082375,24.660573965234686,31.573685,43.42942,0.03908609,0.39349625,0.5859319,nan,2,2,0,0
568201956,568200991,59.3962223530258,24.660573962722427,31.582983,43.438717,0.03908609,0.3938544,0.5861134,nan,2,2,0,0
568211928,568210877,59.39622235481402,24.660573960833496,31.592342,43.44808,0.03908609,0.39421612,0.5862962,nan,2,2,0,0
568221431,568220760,59.396222357183305,24.660573958702393,31.601784,43.45752,0.03908609,0.3945816,0.5864803,nan,2,2,0,0
568231346,568230644,59.39622235913662,24.660573956817675,31.611412,43.467148,0.03908609,0.39495066,0.58666575,nan,2,2,0,0
568241295,568240530,59.39622236083908,24.660573955244615,31.621216,43.47695,0.03908609,0.39532307,0.5867663,nan,2,2,0,0
568251220,568250414,59.39622236328127,24.660573953540997,31.631079,43.486813,0.03908609,0.39569932,0.5869539,nan,2,2,0,0
568261177,568260303,59.396222365150955,24.660573952182734,31.641136,43.496872,0.03908609,0.39607948,0.5871428,nan,2,2,0,0
568271930,568270183,59.3962223666047,24.66057395128144,31.651434,43.507168,0.03908609,0.39646313,0.58733314,nan,2,2,0,0
568282024,568280068,59.39622236700995,24.66057395250282,31.661474,43.510166,0.03908609,0.3921058,0.58530825,nan,2,2,0,0
568291629,568289954,59.396222367398025,24.660573954061135,31.671839,43.52053,0.03908609,0.3924489,0.585485,nan,2,2,0,0
568301001,568299837,59.39622236744091,24.660573955697366,31.682552,43.531242,0.03908609,0.39279544,0.58566296,nan,2,2,0,0
568311990,568309722,59.3962223672951,24.660573957579977,31.693592,43.542282,0.03908609,0.39314547,0.5857616,nan,2,2,0,0
568321156,568319606,59.3962223673337,24.660573959708973,31.704887,43.55358,0.03908609,0.39349905,0.5859417,nan,2,2,0,0
568331603,568329491,59.396222367556696,24.660573962086456,31.716534,43.565224,0.03908609,0.39385623,0.5861231,nan,2,2,0,0
568341332,568339375,59.39622236791691,24.660573964859836,31.728579,43.57727,0.03908609,0.3942171,0.58630586,nan,2,2,0,0
568351410,568349260,59.39622236823425,24.66057396805649,31.741028,43.58972,0.03908609,0.39458165,0.5864899,nan,2,2,0,0
568362818,568359144,59.39622236698421,24.660573961374688,31.75268,43.59764,0.03908609,0.3905747,0.5845763,nan,2,2,0,0
568371628,568369031,59.39622236541255,24.660573955185647,31.76477,43.609734,0.03908609,0.3909023,0.58467275,nan,2,2,0,0
568380631,568378914,59.39622236351497,24.660573949419884,31.777197,43.622158,0.03908609,0.39123344,0.5848449,nan,2,2,0,0
568390968,568388799,59.396222361508045,24.66057394414267,31.789919,43.63488,0.03908609,0.39156815,0.5850182,nan,2,2,0,0
568399320,568398683,59.39622235969195,24.66057393914343,31.802917,43.64788,0.03908609,0.39190653,0.58519286,nan,2,2,0,0
568411253,568408568,59.396222358223206,24.66057393457167,31.816175,43.661137,0.03908609,0.3922485,0.5853688,nan,2,2,0,0
568419108,568418452,59.39622235718973,24.660573930151532,31.829712,43.674675,0.03908609,0.3925941,0.585546,nan,2,2,0,0
568429227,568428338,59.39622235613481,24.660573925800882,31.843517,43.68848,0.03908609,0.3929434,0.5857245,nan,2,2,0,0
568439005,568438222,59.396222354563136,24.660573921629233,31.857609,43.70257,0.03908609,0.39329648,0.58582324,nan,2,2,0,0
568449000,568448106,59.396222352697734,24.660573917855583,31.87187,43.71683,0.03908609,0.3936534,0.5860039,nan,2,2,0,0
568458931,568457991,59.396222351093904,24.660573914113524,31.8863,43.731262,0.03908609,0.3940142,0.5861858,nan,2,2,0,0
568468784,568467877,59.396222349740945,24.660573909885013,31.900898,43.74586,0.03908609,0.39437893,0.58636904,nan,2,2,0,0
568481497,568477760,59.39622235384056,24.660573906366167,31.914993,43.755524,0.03908609,0.39039573,0.5844709,nan,2,2,0,0
568488601,568487645,59.39622235802166,24.660573902994727,31.929054,43.769585,0.03908609,0.3907235,0.58464146,nan,2,2,0,0
568498286,568497529,59.39622236217488,24.660573899513786,31.943277,43.78381,0.03908609,0.39105484,0.58473814,nan,2,2,0,0
568508011,568507419,59.39622236589711,24.660573895834894,31.957605,43.798138,0.03908609,0.3913897,0.58491075,nan,2,2,0,0
568518004,568517299,59.396222370118956,24.66057389206756,31.97181,43.81234,0.03908609,0.39172822,0.5850847,nan,2,2,0,0
568528055,568527183,59.39622237391409,24.660573888411836,31.986042,43.826576,0.03908609,0.39207035,0.5852599,nan,2,2,0,0
568537838,568537068,59.39622237748624,24.660573884537104,32.00031,43.840843,0.03908609,0.39241618,0.5854364,nan,2,2,0,0
568547901,568546952,59.396222381877465,24.660573880171714,32.014526,43.855057,0.03908609,0.3927656,0.58561414,nan,2,2,0,0
568557662,568556837,59.396222385207324,24.66057387629698,32.028774,43.86931,0.03908609,0.3931187,0.5857932,nan,2,2,0,0
568567672,568566722,59.396222389116126,24.660573872093735,32.042942,43.883476,0.03908609,0.39347547,0.5858922,nan,2,2,0,0
568577932,568576606,59.39622239305276,24.66057386769676,32.05715,43.897682,0.03908609,0.39383596,0.58607334,nan,2,2,0,0
568587130,568586491,59.39622239636763,24.66057386335243,32.071465,43.911995,0.03908609,0.3942,0.58625585,nan,2,2,0,0
568597193,568596376,59.396222400411496,24.660573859052317,32.08554,43.92607,0.03908609,0.39456773,0.58643967,nan,2,2,0,0
568607578,568606260,59.396222401951,24.660573848396808,32.098675,43.933567,0.03908609,0.39054653,0.58453214,nan,2,2,0,0
568617047,568616145,59.396222403794944,24.660573837073752,32.111942,43.946835,0.03908609,0.3908764,0.58470327,nan,2,2,0,0
568626878,568626031,59.396222405433086,24.660573826275048,32.12514,43.960033,0.03908609,0.3912096,0.5848756,nan,2,2,0,0
568636805,568635914,59.396222407182705,24.660573815935415,32.138252,43.973145,0.03908609,0.39154628,0.58497274,nan,2,2,0,0
568646835,568645799,59.39622240912316,24.6605738052062,32.151512,43.986404,0.03908609,0.39188638,0.58514714,nan,2,2,0,0
568656538,568655683,59.39622241033675,24.660573795182444,32.164845,43.999737,0.03908609,0.39222997,0.58532286,nan,2,2,0,0
568666466,568665568,59.39622241235439,24.66057378486387,32.178013,44.012905,0.03908609,0.39257696,0.5854999,nan,2,2,0,0
568676076,568675452,59.39622241396035,24.660573774873804,32.191257,44.02615,0.03908609,0.39292738,0.58567816,nan,2,2,0,0
568686114,568685337,59.396222415461246,24.66057376501219,32.204636,44.039528,0.03908609,0.3932814,0.58585775,nan,2,2,0,0
568697181,568695222,59.39622241728164,24.660573754992647,32.218014,44.052906,0.03908609,0.39363897,0.58595693,nan,2,2,0,0
568706109,568705106,59.39622241853168,24.660573745263704,32.23143,44.066322,0.03908609,0.39399996,0.5861386,nan,2,2,0,0
568716574,568714991,59.39622242031347,24.66057373548001,32.24488,44.079773,0.03908609,0.39436468,0.5863216,nan,2,2,0,0
568726023,568724876,59.396222421790775,24.66057372566894,32.258457,44.09335,0.03908609,0.394733,0.58650595,nan,2,2,0,0
568737265,568734760,59.39622242441952,24.66057371607688,32.27154,44.101326,0.03908609,0.39068833,0.58458966,nan,2,2,0,0
568746138,568744647,59.39622242770007,24.66057370634583,32.28457,44.114353,0.03908609,0.39101866,0.5847612,nan,2,2,0,0
568755804,568754529,59.39622243033736,24.660573696806413,32.29774,44.127525,0.03908609,0.3913525,0.58493406,nan,2,2,0,0
568765687,568764414,59.396222432582285,24.660573687140644,32.311127,44.14091,0.03908609,0.39168963,0.5850314,nan,2,2,0,0
568774918,568774299,59.3962224357642,24.660573676906303,32.32444,44.154224,0.03908609,0.3920301,0.5852063,nan,2,2,0,0
568784812,568784183,59.39622243828358,24.660573666981513,32.33784,44.167625,0.03908609,0.39237416,0.58538246,nan,2,2,0,0
568794838,568794068,59.39622244032695,24.660573657389453,32.351402,44.181187,0.03908609,0.39272168,0.5855599,nan,2,2,0,0
568804773,568803953,59.39622244273055,24.660573647193015,32.36496,44.194744,0.03908609,0.39307272,0.58573866,nan,2,2,0,0
568814922,568813837,59.3962224446131,24.66057363726823,32.378582,44.208366,0.03908609,0.39342725,0.5859187,nan,2,2,0,0
568824745,568823721,59.39622244705957,24.660573626894905,32.3923,44.222084,0.03908609,0.39378533,0.586018,nan,2,2,0,0
568834501,568833606,59.39622244898287,24.66057361670057,32.40615,44.235935,0.03908609,0.39414707,0.5862002,nan,2,2,0,0
568844597,568843491,59.3962224504216,24.660573607013745,32.420002,44.249786,0.03908609,0.39451241,0.5863837,nan,2,2,0,0
568854291,568853375,59.396222452672944,24.660573596989988,32.433815,44.2636,0.03908609,0.39488134,0.58656853,nan,2,2,0,0
568864595,568863260,59.39622245241993,24.66057358058767,32.446594,44.270718,0.03908609,0.39081243,0.58464396,nan,2,2,0,0
568873798,568873145,59.396222452184084,24.660573564414882,32.45953,44.283653,0.03908609,0.39114356,0.584816,nan,2,2,0,0
568883696,568883029,59.39622245287235,24.66057354786515,32.47234,44.296463,0.03908609,0.391478,0.5849892,nan,2,2,0,0
568893866,568892914,59.396222452627924,24.66057353216618,32.485317,44.30944,0.03908609,0.391816,0.58508664,nan,2,2,0,0
568903533,568902798,59.39622244787005,24.660573530801603,32.498516,44.32264,0.03908609,0.39215747,0.585262,nan,2,2,0,0
568913814,568912683,59.396222448097326,24.660573514862566,32.511757,44.33588,0.03908609,0.39250168,0.5854386,nan,2,2,0,0
568923428,568922568,59.39622244800083,24.6605734991299,32.525032,44.349155,0.03908609,0.3928487,0.5856165,nan,2,2,0,0
568933341,568932452,59.396222447732804,24.660573483805766,32.5384,44.362522,0.03908609,0.3931985,0.5857957,nan,2,2,0,0
568943162,568942337,59.396222447878614,24.6605734683258,32.551834,44.375957,0.03908609,0.39355102,0.5859762,nan,2,2,0,0
568952971,568952222,59.39622244728897,24.66057345346495,32.565365,44.38949,0.03908609,0.39390633,0.5860756,nan,2,2,0,0
568962774,568962106,59.3962224468537,24.660573438658847,32.57901,44.403133,0.03908609,0.3942644,0.58625823,nan,2,2,0,0
568974743,568972003,59.39622244484033,24.66057342268612,32.592007,44.41114,0.03908609,0.39034256,0.5843738,nan,2,2,0,0
568982621,568981876,59.396222442642596,24.660573407182987,32.605,44.424133,0.03908609,0.39066383,0.5845438,nan,2,2,0,0
568992523,568991760,59.39622244131535,24.6605733915135,32.617928,44.43706,0.03908609,0.39098766,0.5847151,nan,2,2,0,0
569002465,569001645,59.39622243886888,24.660573377010635,32.631046,44.45018,0.03908609,0.39131412,0.58488774,nan,2,2,0,0
569012993,569011529,59.39622243635807,24.660573362503566,32.64431,44.463444,0.03908609,0.3916431,0.58506155,nan,2,2,0,0
569022465,569021414,59.39622243490006,24.660573347484778,32.657623,44.476757,0.03908609,0.39197472,0.58515924,nan,2,2,0,0
569033065,569031299,59.396222432625095,24.660573333061944,32.671104,44.49024,0.03908609,0.39230892,0.5853352,nan,2,2,0,0
569042460,569041183,59.39622243037375,24.660573319178198,32.68464,44.503773,0.03908609,0.39264572,0.58551246,nan,2,2,0,0
569052715,569051072,59.39622242866486,24.660573305486082,32.698135,44.51727,0.03908609,0.3929851,0.585691,nan,2,2,0,0
569062626,569060952,59.39622242623768,24.660573292208817,32.711815,44.53095,0.03908609,0.39332712,0.5858708,nan,2,2,0,0
569072567,569070837,59.39622242377191,24.660573279022103,32.725693,44.544827,0.03908609,0.39367175,0.58605194,nan,2,2,0,0
569082487,569080724,59.39622242220453,24.660573265883823,32.73953,44.558662,0.03908609,0.39401898,0.5862344,nan,2,2,0,0
569093168,569090606,59.39622242038628,24.660573253040358,32.75339,44.572525,0.03908609,0.39436886,0.58633435,nan,2,2,0,0
569102465,569100491,59.39622241775112,24.660573241180316,32.767395,44.58653,0.03908609,0.3947214,0.5865189,nan,2,2,0,0
569114074,569110375,59.396222415411856,24.66057323008469,32.78054,44.593407,0.03908609,0.3907726,0.58460045,nan,2,2,0,0
569122013,569120261,59.39622241333418,24.66057321887114,32.793785,44.60665,0.03908609,0.39108953,0.5847722,nan,2,2,0,0
569132726,569130145,59.396222410793364,24.66057320801137,32.807125,44.61999,0.03908609,0.3914089,0.58494526,nan,2,2,0,0
569140754,569140029,59.39622240879714,24.660573197294795,32.82048,44.633347,0.03908609,0.39173073,0.58511955,nan,2,2,0,0
569150590,569149914,59.396222406835236,24.660573186710888,32.833843,44.64671,0.03908609,0.39205506,0.58521736,nan,2,2,0,0
569160454,569159798,59.3962224041229,24.660573176876657,32.847324,44.66019,0.03908609,0.3923819,0.5853938,nan,2,2,0,0
569170650,569169684,59.39622240191656,24.660573166863433,32.86096,44.673824,0.03908609,0.39271125,0.58557147,nan,2,2,0,0
569180406,569179568,59.396222399943944,24.66057315657013,32.87466,44.687527,0.03908609,0.39304316,0.58575046,nan,2,2,0,0
569190443,569189452,59.396222397726895,24.660573147001234,32.888374,44.70124,0.03908609,0.39337754,0.58593076,nan,2,2,0,0
569200301,569199337,59.39622239569638,24.660573138064084,32.902107,44.714973,0.03908609,0.3937145,0.5861124,nan,2,2,0,0
569210519,569209222,59.39622239384169,24.660573129339625,32.915897,44.728764,0.03908609,0.39405403,0.58629525,nan,2,2,0,0
569220090,569219106,59.39622239159462,24.660573120693083,32.929817,44.742683,0.03908609,0.3943961,0.5863953,nan,2,2,0,0
569229658,569228991,59.39622238943545,24.660573112107613,32.943836,44.756702,0.03908609,0.3947408,0.5865804,nan,2,2,0,0
569239478,569238876,59.39622238782091,24.660573103800107,32.95783,44.770695,0.03908609,0.39508805,0.5867668,nan,2,2,0,0
569249517,569248760,59.39622238587402,24.660573096012744,32.971825,44.78469,0.03908609,0.39543793,0.58695453,nan,2,2,0,0
569259402,569258645,59.396222383532596,24.660573088869768,32.985935,44.7988,0.03908609,0.39579043,0.5871436,nan,2,2,0,0
569270151,569268529,59.39622238287864,24.660573083897898,32.99912,44.804142,0.03908609,0.39170715,0.5851432,nan,2,2,0,0
569279488,569278414,59.39622238216893,24.660573078599626,33.012375,44.817398,0.03908609,0.39202386,0.585241,nan,2,2,0,0
569289159,569288299,59.396222381234075,24.660573073941528,33.025635,44.830658,0.03908609,0.39234307,0.5854175,nan,2,2,0,0
569299036,569298183,59.39622238076022,24.66057306940136,33.038933,44.843956,0.03908609,0.39266476,0.58559525,nan,2,2,0,0
569309107,569308068,59.39622237994329,24.660573065250766,33.052402,44.857426,0.03908609,0.39298892,0.58577436,nan,2,2,0,0
569318634,569317953,59.396222379250744,24.660573061064373,33.065907,44.87093,0.03908609,0.3933156,0.5859547,nan,2,2,0,0
569328563,569327837,59.39622237930434,24.660573056343097,33.079494,44.884518,0.03908609,0.39364484,0.5861364,nan,2,2,0,0
569338306,569337722,59.3962223784038,24.66057305184925,33.093277,44.8983,0.03908609,0.39397663,0.5863194,nan,2,2,0,0
569348481,569347606,59.39622237812506,24.660573047429114,33.10698,44.912003,0.03908609,0.39431095,0.5864194,nan,2,2,0,0
569359331,569357494,59.39622237573647,24.66057304747544,33.11995,44.921066,0.03908609,0.39051065,0.5845141,nan,2,2,0,0
569368369,569367376,59.39622237221791,24.66057304788398,33.133213,44.934326,0.03908609,0.39081225,0.58468515,nan,2,2,0,0
569378123,569377262,59.39622236947555,24.66057304768182,33.14654,44.947655,0.03908609,0.39111626,0.5848575,nan,2,2,0,0
569388232,569387145,59.396222367554394,24.66057304726908,33.159874,44.96099,0.03908609,0.39142275,0.5850311,nan,2,2,0,0
569397871,569397030,59.396222364644785,24.66057304682896,33.17342,44.974533,0.03908609,0.39173165,0.58520603,nan,2,2,0,0
569407813,569406914,59.39622236256067,24.660573046363577,33.18691,44.98802,0.03908609,0.39204305,0.58530396,nan,2,2,0,0
569417962,569416799,59.39622236089252,24.660573046075076,33.20042,45.001534,0.03908609,0.392357,0.585481,nan,2,2,0,0
569427497,569426684,59.39622235806653,24.660573046043492,33.214287,45.015404,0.03908609,0.3926734,0.58565927,nan,2,2,0,0
569437355,569436572,59.396222356025305,24.66057304542438,33.228134,45.02925,0.03908609,0.3929924,0.58583885,nan,2,2,0,0
569447373,569446453,59.396222354618736,24.660573044592574,33.241955,45.043068,0.03908609,0.39331397,0.58601975,nan,2,2,0,0
569457424,569456337,59.39622235222586,24.66057304405138,33.25601,45.05712,0.03908609,0.39363813,0.58620197,nan,2,2,0,0
569467349,569466222,59.396222350752836,24.660573043270116,33.270058,45.071175,0.03908609,0.3939649,0.5863855,nan,2,2,0,0
569478683,569476107,59.396222349783685,24.66057304012611,33.282887,45.078247,0.03908609,0.39024678,0.5844111,nan,2,2,0,0
569487285,569485991,59.39622234791398,24.66057303785392,33.295956,45.091316,0.03908609,0.3905418,0.58458143,nan,2,2,0,0
569497191,569495881,59.39622234646882,24.660573035366934,33.30924,45.1046,0.03908609,0.39083928,0.58475316,nan,2,2,0,0
569506397,569505760,59.396222344864995,24.660573033008404,33.32259,45.11795,0.03908609,0.39113927,0.58492607,nan,2,2,0,0
569516401,569515645,59.39622234388727,24.66057303042876,33.335873,45.131233,0.03908609,0.39144176,0.58510023,nan,2,2,0,0
569526129,569525530,59.39622234334265,24.660573028213424,33.349228,45.14459,0.03908609,0.39174682,0.5852757,nan,2,2,0,0
569536153,569535414,59.39622234153513,24.660573027002574,33.36289,45.15825,0.03908609,0.39205447,0.5854525,nan,2,2,0,0
569546102,569545299,59.39622234029367,24.660573025469528,33.376587,45.171947,0.03908609,0.3923647,0.585551,nan,2,2,0,0
569556021,569555184,59.39622233998278,24.660573023875415,33.390244,45.185604,0.03908609,0.39267758,0.5857299,nan,2,2,0,0
569565992,569565068,59.39622233871558,24.66057302277196,33.40416,45.19952,0.03908609,0.3929931,0.5859101,nan,2,2,0,0
569575883,569574953,59.39622233767353,24.660573021733786,33.418148,45.21351,0.03908609,0.3933113,0.5860915,nan,2,2,0,0
569585739,569584837,59.396222337677806,24.660573020735622,33.43203,45.22739,0.03908609,0.39363217,0.5862743,nan,2,2,0,0
569595400,569594723,59.39622233653498,24.660573020331306,33.446205,45.241566,0.03908609,0.39395586,0.5864585,nan,2,2,0,0
569606094,569604607,59.396222334763905,24.66057301916257,33.459686,45.24898,0.03908609,0.39025533,0.584474,nan,2,2,0,0
569615183,569614492,59.39622233435438,24.660573017576876,33.47307,45.262363,0.03908609,0.39054734,0.584645,nan,2,2,0,0
569625052,569624376,59.39622233340451,24.660573016519752,33.48658,45.275875,0.03908609,0.39084193,0.5848172,nan,2,2,0,0
569638673,569634262,59.39622233219306,24.660573015687948,33.50034,45.289635,0.03908609,0.39113918,0.5849906,nan,2,2,0,0
569645265,569644145,59.396222331929344,24.660573014441297,33.514053,45.30335,0.03908609,0.39143908,0.5851653,nan,2,2,0,0
569654873,569654030,59.396222330930165,24.66057301384324,33.5279,45.317196,0.03908609,0.3917416,0.58534133,nan,2,2,0,0
569664799,569663914,59.39622232952575,24.660573013548426,33.541954,45.33125,0.03908609,0.39204687,0.58551866,nan,2,2,0,0
569674781,569673799,59.39622232893825,24.660573012901935,33.555992,45.345287,0.03908609,0.39235488,0.58561736,nan,2,2,0,0
569684312,569683684,59.39622232805272,24.660573012590273,33.570053,45.35935,0.03908609,0.39266562,0.5857968,nan,2,2,0,0
569694256,569693568,59.39622232710931,24.660573012407067,33.584305,45.3736,0.03908609,0.39297917,0.5859775,nan,2,2,0,0
569704095,569703453,59.39622232650678,24.660573011876398,33.598663,45.38796,0.03908609,0.39329562,0.5861595,nan,2,2,0,0
569714325,569713338,59.3962223255462,24.660573011924832,33.613033,45.40233,0.03908609,0.39361492,0.5863429,nan,2,2,0,0
569724027,569723223,59.39622232467782,24.660573012520786,33.627415,45.41671,0.03908609,0.39393705,0.5865275,nan,2,2,0,0
569735347,569733107,59.396222323697955,24.66057301467505,33.640892,45.4239,0.03908609,0.39024702,0.58453363,nan,2,2,0,0
569743822,569742992,59.396222322495085,24.660573016825104,33.65448,45.43749,0.03908609,0.39053738,0.584705,nan,2,2,0,0
569753778,569752876,59.396222321710326,24.660573018941466,33.668102,45.45111,0.03908609,0.3908305,0.5848777,nan,2,2,0,0
569763819,569762761,59.39622232085267,24.66057302149163,33.681812,45.46482,0.03908609,0.39112636,0.58505166,nan,2,2,0,0
569773790,569772646,59.396222319568324,24.660573024509283,33.69559,45.4786,0.03908609,0.39142504,0.5852269,nan,2,2,0,0
569783805,569782530,59.3962223188586,24.660573027581695,33.70939,45.492397,0.03908609,0.39172655,0.5854034,nan,2,2,0,0
569794100,569792415,59.39622231833115,24.660573030816252,33.723312,45.50632,0.03908609,0.39203095,0.5855811,nan,2,2,0,0
569804129,569802299,59.39622231721404,24.66057303445513,33.737362,45.52037,0.03908609,0.39233825,0.58568,nan,2,2,0,0
