timestamp,timestamp_sample,gps_hvel[0],gps_hvel[1],gps_vvel,gps_hpos[0],gps_hpos[1],gps_vpos,ev_hvel[0],ev_hvel[1],ev_vvel,ev_hpos[0],ev_hpos[1],ev_vpos,rng_vpos,baro_vpos,aux_hvel[0],aux_hvel[1],aux_vvel,flow[0],flow[1],terr_flow[0],terr_flow[1],heading,mag_field[0],mag_field[1],mag_field[2],gravity[0],gravity[1],gravity[2],drag[0],drag[1],airspeed,beta,hagl,hagl_rate
564939789,564840174,-0.032844,0.017752243,-0.03849626,0.0253613,-0.018018603,-0.06679082,-0.024888836,0.020686602,-0.042559426,-0.018534184,0.018089056,-2.4188788,0.0,1.1165318,0.0,0.0,nan,0.0,0.0,0.0,0.0,0.0026581138,0.009609602,0.003402479,-0.01274085,0.0043504476,0.007019029,-0.00020331096,0.0,0.0,0.0,0.0,0.0,0.0
564949729,564850059,-0.032844,0.017752243,-0.03849626,0.0253613,-0.018018603,-0.06679082,-0.024888836,0.020686602,-0.042559426,-0.018534184,0.018089056,-2.4188788,0.0,1.1165318,0.0,0.0,nan,0.0,0.0,0.0,0.0,0.0026581138,0.009609602,0.003402479,-0.01274085,0.012129365,0.0027655652,-0.0008668818,0.0,0.0,0.0,0.0,0.0,0.0
564959623,564859944,-0.032844,0.017752243,-0.03849626,0.0253613,-0.018018603,-0.06679082,-0.024888836,0.020686602,-0.042559426,-0.018534184,0.018089056,-2.4188788,0.0,1.1165318,0.0,0.0,nan,0.0,0.0,0.0,0.0,0.0026581138,0.009609602,0.003402479,-0.01274085,0.0074404837,-0.0033836877,-0.0006208617,0.0,0.0,0.0,0.0,0.0,0.0
564969705,564869828,-0.032844,0.017752243,-0.03849626,0.0253613,-0.018018603,-0.06679082,-0.024888836,0.020686602,-0.042559426,-0.018534184,0.018089056,-2.4188788,0.0,1.1165318,0.0,0.0,nan,0.0,0.0,0.0,0.0,0.0026581138,0.009609602,0.003402479,-0.01274085,0.0009033756,0.01187954,0.00013686539,0.0,0.0,0.0,0.0,0.0,0.0
564980308,564879713,-0.038901128,0.013750009,-0.04982912,0.035470486,-0.028227448,-0.05790186,-0.024888836,0.020686602,-0.042559426,-0.018534184,0.018089056,-2.4188788,0.0,1.1165318,0.0,0.0,nan,0.0,0.0,0.0,0.0,0.015742734,0.00799083,0.00052502006,-0.010250509,0.010466803,0.010338308,-0.00061102153,0.0,0.0,0.0,0.0,0.0,0.0
564989082,564889598,-0.038901128,0.013750009,-0.04982912,0.035470486,-0.028227448,-0.05790186,-0.024888836,0.020686602,-0.042559426,-0.018534184,0.018089056,-2.4188788,0.0,1.1165318,0.0,0.0,nan,0.0,0.0,0.0,0.0,0.015742734,0.00799083,0.00052502006,-0.010250509,0.008706327,-0.012741333,-0.00089128315,0.0,0.0,0.0,0.0,0.0,0.0
564999115,564899483,-0.038901128,0.013750009,-0.04982912,0.035470486,-0.028227448,-0.05790186,-0.024186242,0.02069652,-0.045197103,-0.019571781,0.019772649,-2.4235492,0.0,1.1422834,0.0,0.0,nan,0.0,0.0,0.0,0.0,0.015742734,0.00799083,0.00052502006,-0.010250509,0.0021710882,-0.008257801,-0.00031374054,0.0,0.0,0.0,0.0,0.0,0.0
565008909,564909372,-0.038901128,0.013750009,-0.04982912,0.035470486,-0.028227448,-0.05790186,-0.024186242,0.02069652,-0.045197103,-0.019571781,0.019772649,-2.4235492,0.0,1.1422834,0.0,0.0,nan,0.0,0.0,0.0,0.0,0.015742734,0.00799083,0.00052502006,-0.010250509,0.020961562,0.006518677,-0.0014768587,0.0,0.0,0.0,0.0,0.0,0.0
565018964,564919253,-0.038901128,0.013750009,-0.04982912,0.035470486,-0.028227448,-0.05790186,-0.024186242,0.02069652,-0.045197103,-0.019571781,0.019772649,-2.4235492,0.0,1.1422834,0.0,0.0,nan,0.0,0.0,0.0,0.0,0.015742734,0.00799083,0.00052502006,-0.010250509,0.008235888,0.010886382,-0.00043289922,0.0,0.0,0.0,0.0,0.0,0.0
565029123,564929137,-0.038901128,0.013750009,-0.04982912,0.035470486,-0.028227448,-0.05790186,-0.024601853,0.020100636,-0.046484206,-0.019407272,0.019315004,-2.4249988,0.0,1.1422834,0.0,0.0,nan,0.0,0.0,0.0,0.0,0.015742734,0.00799083,0.00052502006,-0.010250509,-0.0015005508,-0.0053377296,1.4394345e-05,0.0,0.0,0.0,0.0,0.0,0.0
565039030,564939022,-0.038901128,0.013750009,-0.04982912,0.035470486,-0.028227448,-0.05790186,-0.024601853,0.020100636,-0.046484206,-0.019407272,0.019315004,-2.4249988,0.0,1.1422834,0.0,0.0,nan,0.0,0.0,0.0,0.0,0.015742734,0.00799083,0.00052502006,-0.010250509,-0.0051300107,-0.0053395974,0.00028515904,0.0,0.0,0.0,0.0,0.0,0.0
565048912,564948907,-0.038901128,0.013750009,-0.04982912,0.035470486,-0.028227448,-0.05790186,-0.024601853,0.020100636,-0.046484206,-0.019407272,0.019315004,-2.4249988,0.0,1.1422834,0.0,0.0,nan,0.0,0.0,0.0,0.0,0.01999797,0.010881089,0.0009717643,-0.012783229,0.008102771,0.0047700615,-0.0005277782,0.0,0.0,0.0,0.0,0.0,0.0
565058906,564958792,-0.038901128,0.013750009,-0.04982912,0.035470486,-0.028227448,-0.05790186,-0.02495982,0.02037565,-0.048580214,-0.01926303,0.018933773,-2.4292922,0.0,1.0146964,0.0,0.0,nan,0.0,0.0,0.0,0.0,0.01999797,0.010881089,0.0009717643,-0.012783229,-0.0017830653,-0.006078793,2.0544314e-05,0.0,0.0,0.0,0.0,0.0,0.0
565068661,564968678,-0.038901128,0.013750009,-0.04982912,0.035470486,-0.028227448,-0.05790186,-0.02495982,0.02037565,-0.048580214,-0.01926303,0.018933773,-2.4292922,0.0,1.0146964,0.0,0.0,nan,0.0,0.0,0.0,0.0,0.01999797,0.010881089,0.0009717643,-0.012783229,0.049181208,0.032146875,-0.0032860371,0.0,0.0,0.0,0.0,0.0,0.0
565078068,564978562,-0.038901128,0.013750009,-0.04982912,0.035470486,-0.028227448,-0.05790186,-0.02495982,0.02037565,-0.048580214,-0.01926303,0.018933773,-2.4292922,0.0,1.0146964,0.0,0.0,nan,0.0,0.0,0.0,0.0,0.01999797,0.010881089,0.0009717643,-0.012783229,-0.08755879,0.0022028987,0.006199377,0.0,0.0,0.0,0.0,0.0,0.0
565087945,564988446,-0.038901128,0.013750009,-0.04982912,0.035470486,-0.028227448,-0.05790186,-0.02495982,0.02037565,-0.048580214,-0.01926303,0.018933773,-2.4292922,0.0,1.0146964,0.0,0.0,nan,0.0,0.0,0.0,0.0,0.01999797,0.010881089,0.0009717643,-0.012783229,-0.08923144,0.10934378,0.0076091415,0.0,0.0,0.0,0.0,0.0,0.0
565098858,564998331,-0.014227914,0.0038173683,-0.06380865,0.03292346,-0.025210261,-0.04295969,-0.024953756,0.021856735,-0.047778964,-0.020434141,0.01999867,-2.4257112,0.0,1.0146964,0.0,0.0,nan,0.0,0.0,0.0,0.0,0.01999797,0.010881089,0.0009717643,-0.012783229,0.2985518,-0.21082856,-0.03299159,0.0,0.0,0.0,0.0,0.0,0.0
565107685,565008216,-0.014227914,0.0038173683,-0.06380865,0.03292346,-0.025210261,-0.04295969,-0.024953756,0.021856735,-0.047778964,-0.020434141,0.01999867,-2.4257112,0.0,1.0146964,0.0,0.0,nan,0.0,0.0,0.0,0.0,0.01999797,0.010881089,0.0009717643,-0.012783229,-0.02584192,-0.021991124,0.0014808953,0.0,0.0,0.0,0.0,0.0,0.0
565117867,565018101,-0.014227914,0.0038173683,-0.06380865,0.03292346,-0.025210261,-0.04295969,-0.024953756,0.021856735,-0.047778964,-0.020434141,0.01999867,-2.4257112,0.0,1.0146964,0.0,0.0,nan,0.0,0.0,0.0,0.0,0.00718458,0.0089453235,0.0024196208,-0.012658119,-0.085908,0.07456721,0.0070953215,0.0,0.0,0.0,0.0,0.0,0.0
565127795,565027986,-0.014227914,0.0038173683,-0.06380865,0.03292346,-0.025210261,-0.04295969,-0.024774592,0.020821888,-0.050017484,-0.020318508,0.019680738,-2.4294734,0.0,0.83952117,0.0,0.0,nan,0.0,0.0,0.0,0.0,0.00718458,0.0089453235,0.0024196208,-0.012658119,-0.16041583,0.06365206,0.011610832,0.0,0.0,0.0,0.0,0.0,0.0
565137554,565037871,-0.014227914,0.0038173683,-0.06380865,0.03292346,-0.025210261,-0.04295969,-0.024774592,0.020821888,-0.050017484,-0.020318508,0.019680738,-2.4294734,0.0,0.83952117,0.0,0.0,nan,0.0,0.0,0.0,0.0,0.00718458,0.0089453235,0.0024196208,-0.012658119,0.1980616,-0.0196971,-0.017206192,0.0,0.0,0.0,0.0,0.0,0.0
565147456,565047755,-0.014227914,0.0038173683,-0.06380865,0.03292346,-0.025210261,-0.04295969,-0.024774592,0.020821888,-0.050017484,-0.020318508,0.019680738,-2.4294734,0.0,0.83952117,0.0,0.0,nan,0.0,0.0,0.0,0.0,0.00718458,0.0089453235,0.0024196208,-0.012658119,-0.044330366,0.004647212,0.0032976198,0.0,0.0,0.0,0.0,0.0,0.0
565157500,565057640,-0.014227914,0.0038173683,-0.06380865,0.03292346,-0.025210261,-0.04295969,-0.024774592,0.020821888,-0.050017484,-0.020318508,0.019680738,-2.4294734,0.0,0.83952117,0.0,0.0,nan,0.0,0.0,0.0,0.0,0.00718458,0.0089453235,0.0024196208,-0.012658119,0.15989922,-0.14312178,-0.016873676,0.0,0.0,0.0,0.0,0.0,0.0
565167284,565067525,-0.014227914,0.0038173683,-0.06380865,0.03292346,-0.025210261,-0.04295969,-0.025092233,0.020454086,-0.050339367,-0.020387888,0.01957333,-2.431522,0.0,0.83952117,0.0,0.0,nan,0.0,0.0,0.0,0.0,0.00718458,0.0089453235,0.0024196208,-0.012658119,-0.06245707,0.13543278,0.005942062,0.0,0.0,0.0,0.0,0.0,0.0
565177355,565077410,-0.014227914,0.0038173683,-0.06380865,0.03292346,-0.025210261,-0.04295969,-0.025092233,0.020454086,-0.050339367,-0.020387888,0.01957333,-2.431522,0.0,0.83952117,0.0,0.0,nan,0.0,0.0,0.0,0.0,0.00718458,0.0089453235,0.0024196208,-0.012658119,-0.13301633,-0.0018755007,0.00899085,0.0,0.0,0.0,0.0,0.0,0.0
565186917,565087295,-0.014227914,0.0038173683,-0.06380865,0.03292346,-0.025210261,-0.04295969,-0.025092233,0.020454086,-0.050339367,-0.020387888,0.01957333,-2.431522,0.0,1.1458375,0.0,0.0,nan,0.0,0.0,0.0,0.0,-0.0048578084,0.010580115,0.0048535205,-0.009865522,0.075857654,0.052242495,-0.005167501,0.0,0.0,0.0,0.0,0.0,0.0
565196651,565097179,-0.014227914,0.0038173683,-0.06380865,0.03292346,-0.025210261,-0.04295969,-0.02462648,0.022611562,-0.05320246,-0.0202384,0.019190669,-2.4364128,0.0,1.1458375,0.0,0.0,nan,0.0,0.0,0.0,0.0,-0.0048578084,0.010580115,0.0048535205,-0.009865522,-0.09191972,-0.13846238,0.0029904922,0.0,0.0,0.0,0.0,0.0,0.0
565206653,565107075,-0.014227914,0.0038173683,-0.06380865,0.03292346,-0.025210261,-0.04295969,-0.02462648,0.022611562,-0.05320246,-0.0202384,0.019190669,-2.4364128,0.0,1.1458375,0.0,0.0,nan,0.0,0.0,0.0,0.0,-0.0048578084,0.010580115,0.0048535205,-0.009865522,0.08827324,0.034264468,-0.0064510065,0.0,0.0,0.0,0.0,0.0,0.0
565216497,565116952,-0.014227914,0.0038173683,-0.06380865,0.03292346,-0.025210261,-0.04295969,-0.02462648,0.022611562,-0.05320246,-0.0202384,0.019190669,-2.4364128,0.0,1.1458375,0.0,0.0,nan,0.0,0.0,0.0,0.0,-0.0048578084,0.010580115,0.0048535205,-0.009865522,0.122143045,0.022689389,-0.009522162,0.0,0.0,0.0,0.0,0.0,0.0
565226515,565126836,-0.014227914,0.0038173683,-0.06380865,0.03292346,-0.025210261,-0.04295969,-0.025094382,0.020873223,-0.054655652,-0.02009058,0.018895388,-2.4381173,0.0,1.1458375,0.0,0.0,nan,0.0,0.0,0.0,0.0,-0.0048578084,0.010580115,0.0048535205,-0.009865522,-0.115960754,0.084302455,0.009120117,0.0,0.0,0.0,0.0,0.0,0.0
565236362,565136719,-0.014227914,0.0038173683,-0.06380865,0.03292346,-0.025210261,-0.04295969,-0.025094382,0.020873223,-0.054655652,-0.02009058,0.018895388,-2.4381173,0.0,1.1458375,0.0,0.0,nan,0.0,0.0,0.0,0.0,-0.0048578084,0.010580115,0.0048535205,-0.009865522,-0.01033993,0.018076813,0.001071635,0.0,0.0,0.0,0.0,0.0,0.0
565246272,565146603,-0.014227914,0.0038173683,-0.06380865,0.03292346,-0.025210261,-0.04295969,-0.025094382,0.020873223,-0.054655652,-0.02009058,0.018895388,-2.4381173,0.0,1.1458375,0.0,0.0,nan,0.0,0.0,0.0,0.0,-0.0048578084,0.010580115,0.0048535205,-0.009865522,0.0656168,-0.0746469,-0.006750674,0.0,0.0,0.0,0.0,0.0,0.0
565256373,565156488,-0.014227914,0.0038173683,-0.06380865,0.03292346,-0.025210261,-0.04295969,-0.025094382,0.020873223,-0.054655652,-0.02009058,0.018895388,-2.4381173,0.0,0.9642439,0.0,0.0,nan,0.0,0.0,0.0,0.0,0.0028023273,0.004881479,0.001761578,-0.013098478,0.0123694185,-0.04670611,-0.0018801317,0.0,0.0,0.0,0.0,0.0,0.0
565266525,565166373,-0.022783274,0.035867803,-0.07443897,0.03833747,-0.020612597,-0.046782017,-0.025543844,0.020004964,-0.053500548,-0.021074772,0.01734364,-2.4365993,0.0,0.9642439,0.0,0.0,nan,0.0,0.0,0.0,0.0,0.0028023273,0.004881479,0.001761578,-0.013098478,0.09891875,-0.02065647,-0.008300824,0.0,0.0,0.0,0.0,0.0,0.0
565275687,565176258,-0.022783274,0.035867803,-0.07443897,0.03833747,-0.020612597,-0.046782017,-0.025543844,0.020004964,-0.053500548,-0.021074772,0.01734364,-2.4365993,0.0,0.9642439,0.0,0.0,nan,0.0,0.0,0.0,0.0,0.0028023273,0.004881479,0.001761578,-0.013098478,-0.17305385,0.122140035,0.012825684,0.0,0.0,0.0,0.0,0.0,0.0
565285586,565186143,-0.022783274,0.035867803,-0.07443897,0.03833747,-0.020612597,-0.046782017,-0.025543844,0.020004964,-0.053500548,-0.021074772,0.01734364,-2.4365993,0.0,0.9642439,0.0,0.0,nan,0.0,0.0,0.0,0.0,0.0028023273,0.004881479,0.001761578,-0.013098478,0.0832745,0.042938076,-0.0059110927,0.0,0.0,0.0,0.0,0.0,0.0
565295578,565196028,-0.022783274,0.035867803,-0.07443897,0.03833747,-0.020612597,-0.046782017,-0.025595454,0.019485407,-0.055222426,-0.02095604,0.017061949,-2.4384074,0.0,0.9642439,0.0,0.0,nan,0.0,0.0,0.0,0.0,0.0028023273,0.004881479,0.001761578,-0.013098478,-0.022371206,-0.041680206,0.00081410847,0.0,0.0,0.0,0.0,0.0,0.0
565305609,565205926,-0.022783274,0.035867803,-0.07443897,0.03833747,-0.020612597,-0.046782017,-0.025595454,0.019485407,-0.055222426,-0.02095604,0.017061949,-2.4384074,0.0,0.9642439,0.0,0.0,nan,0.0,0.0,0.0,0.0,0.0028023273,0.004881479,0.001761578,-0.013098478,0.10214564,-0.027399465,-0.008699618,0.0,0.0,0.0,0.0,0.0,0.0
565315917,565215797,-0.022783274,0.035867803,-0.07443897,0.03833747,-0.020612597,-0.046782017,-0.025595454,0.019485407,-0.055222426,-0.02095604,0.017061949,-2.4384074,0.0,0.9642439,0.0,0.0,nan,0.0,0.0,0.0,0.0,0.0028023273,0.004881479,0.001761578,-0.013098478,-0.107720934,-0.06307697,0.0061204615,0.0,0.0,0.0,0.0,0.0,0.0
565325535,565225688,-0.022783274,0.035867803,-0.07443897,0.03833747,-0.020612597,-0.046782017,-0.025835529,0.019555204,-0.05701188,-0.020818233,0.016769767,-2.4428618,0.0,0.96396065,0.0,0.0,nan,0.0,0.0,0.0,0.0,0.025171846,0.008827865,-0.00057698786,-0.014412701,0.03435324,0.036579665,-0.002040928,0.0,0.0,0.0,0.0,0.0,0.0
565335374,565235567,-0.022783274,0.035867803,-0.07443897,0.03833747,-0.020612597,-0.046782017,-0.025835529,0.019555204,-0.05701188,-0.020818233,0.016769767,-2.4428618,0.0,0.96396065,0.0,0.0,nan,0.0,0.0,0.0,0.0,0.025171846,0.008827865,-0.00057698786,-0.014412701,0.07150786,-0.024901107,-0.006089559,0.0,0.0,0.0,0.0,0.0,0.0
565345414,565245457,-0.022783274,0.035867803,-0.07443897,0.03833747,-0.020612597,-0.046782017,-0.025835529,0.019555204,-0.05701188,-0.020818233,0.016769767,-2.4428618,0.0,0.96396065,0.0,0.0,nan,0.0,0.0,0.0,0.0,0.025171846,0.008827865,-0.00057698786,-0.014412701,-0.107665546,0.029623788,0.007940559,0.0,0.0,0.0,0.0,0.0,0.0
565356521,565255336,-0.029233547,0.0041514533,-0.0415349,0.046184063,-0.026161194,-0.04030943,-0.025835529,0.019555204,-0.05701188,-0.020818233,0.016769767,-2.4428618,0.0,0.96396065,0.0,0.0,nan,0.0,0.0,0.0,0.0,0.025171846,0.008827865,-0.00057698786,-0.014412701,0.076084375,0.028816164,-0.0055221855,0.0,0.0,0.0,0.0,0.0,0.0
565365448,565265222,-0.029233547,0.0041514533,-0.0415349,0.046184063,-0.026161194,-0.04030943,-0.025040299,0.019226253,-0.05739361,-0.021789312,0.018050551,-2.4409158,0.0,0.96396065,0.0,0.0,nan,0.0,0.0,0.0,0.0,0.025171846,0.008827865,-0.00057698786,-0.014412701,0.0056350357,0.026995683,2.0324382e-05,0.0,0.0,0.0,0.0,0.0,0.0
565375604,565275106,-0.029233547,0.0041514533,-0.0415349,0.046184063,-0.026161194,-0.04030943,-0.025040299,0.019226253,-0.05739361,-0.021789312,0.018050551,-2.4409158,0.0,0.96396065,0.0,0.0,nan,0.0,0.0,0.0,0.0,0.025171846,0.008827865,-0.00057698786,-0.014412701,-0.008973811,-0.01083802,0.00046625393,0.0,0.0,0.0,0.0,0.0,0.0
565385544,565284991,-0.029233547,0.0041514533,-0.0415349,0.046184063,-0.026161194,-0.04030943,-0.025040299,0.019226253,-0.05739361,-0.021789312,0.018050551,-2.4409158,0.0,0.9461005,0.0,0.0,nan,0.0,0.0,0.0,0.0,0.025171846,0.008827865,-0.00057698786,-0.014412701,0.05143832,0.005588332,-0.0038853092,0.0,0.0,0.0,0.0,0.0,0.0
565395592,565294876,-0.029233547,0.0041514533,-0.0415349,0.046184063,-0.026161194,-0.04030943,-0.026001593,0.019577147,-0.057910807,-0.02162242,0.017660022,-2.4452379,0.0,0.9461005,0.0,0.0,nan,0.0,0.0,0.0,0.0,0.025171846,0.008827865,-0.00057698786,-0.014412701,-0.017271848,-0.04657444,0.00032978572,0.0,0.0,0.0,0.0,0.0,0.0
565405652,565304761,-0.029233547,0.0041514533,-0.0415349,0.046184063,-0.026161194,-0.04030943,-0.026001593,0.019577147,-0.057910807,-0.02162242,0.017660022,-2.4452379,0.0,0.9461005,0.0,0.0,nan,0.0,0.0,0.0,0.0,0.0037935227,0.0070576444,0.0026353225,-0.019670546,-0.0015081929,-0.002071717,7.450555e-05,0.0,0.0,0.0,0.0,0.0,0.0
565416096,565314646,-0.029233547,0.0041514533,-0.0415349,0.046184063,-0.026161194,-0.04030943,-0.026001593,0.019577147,-0.057910807,-0.02162242,0.017660022,-2.4452379,0.0,0.9461005,0.0,0.0,nan,0.0,0.0,0.0,0.0,0.0037935227,0.0070576444,0.0026353225,-0.019670546,0.05477777,0.03468711,-0.0036914805,0.0,0.0,0.0,0.0,0.0,0.0
565425380,565324530,-0.029233547,0.0041514533,-0.0415349,0.046184063,-0.026161194,-0.04030943,-0.025270427,0.018643219,-0.060246795,-0.021426678,0.01737845,-2.4470932,0.0,0.9461005,0.0,0.0,nan,0.0,0.0,0.0,0.0,0.0037935227,0.0070576444,0.0026353225,-0.019670546,-0.06007578,0.046413038,0.005022576,0.0,0.0,0.0,0.0,0.0,0.0
565435244,565334417,-0.029233547,0.0041514533,-0.0415349,0.046184063,-0.026161194,-0.04030943,-0.025270427,0.018643219,-0.060246795,-0.021426678,0.01737845,-2.4470932,0.0,0.9461005,0.0,0.0,nan,0.0,0.0,0.0,0.0,0.0037935227,0.0070576444,0.0026353225,-0.019670546,0.0055139554,-0.030638479,-0.0010099525,0.0,0.0,0.0,0.0,0.0,0.0
565443774,565344300,-0.029233547,0.0041514533,-0.0415349,0.046184063,-0.026161194,-0.04030943,-0.025270427,0.018643219,-0.060246795,-0.021426678,0.01737845,-2.4470932,0.0,0.9461005,0.0,0.0,nan,0.0,0.0,0.0,0.0,0.0037935227,0.0070576444,0.0026353225,-0.019670546,0.04528366,0.015347755,-0.0032308658,0.0,0.0,0.0,0.0,0.0,0.0
565453708,565354185,-0.029233547,0.0041514533,-0.0415349,0.046184063,-0.026161194,-0.04030943,-0.025270427,0.018643219,-0.060246795,-0.021426678,0.01737845,-2.4470932,0.0,1.0025778,0.0,0.0,nan,0.0,0.0,0.0,0.0,0.0037935227,0.0070576444,0.0026353225,-0.019670546,0.05297151,-0.031325217,-0.0047163814,0.0,0.0,0.0,0.0,0.0,0.0
565463533,565364070,-0.029233547,0.0041514533,-0.0415349,0.046184063,-0.026161194,-0.04030943,-0.026100542,0.01948079,-0.06257284,-0.02162385,0.017244577,-2.45226,0.0,1.0025778,0.0,0.0,nan,0.0,0.0,0.0,0.0,0.0037935227,0.0070576444,0.0026353225,-0.019670546,-0.067567155,-0.031240968,0.0042100856,0.0,0.0,0.0,0.0,0.0,0.0
565473539,565373954,-0.029233547,0.0041514533,-0.0415349,0.046184063,-0.026161194,-0.04030943,-0.026100542,0.01948079,-0.06257284,-0.02162385,0.017244577,-2.45226,0.0,1.0025778,0.0,0.0,nan,0.0,0.0,0.0,0.0,-0.023894161,0.0072610453,0.0072552823,-0.018022418,-0.021769483,-0.0058238935,0.0014985652,0.0,0.0,0.0,0.0,0.0,0.0
565483850,565383843,-0.012256779,0.041665822,-0.084625676,0.041768312,-0.016847968,-0.039922953,-0.026100542,0.01948079,-0.06257284,-0.02162385,0.017244577,-2.45226,0.0,1.0025778,0.0,0.0,nan,0.0,0.0,0.0,0.0,-0.023894161,0.0072610453,0.0072552823,-0.018022418,0.14593531,0.040034365,-0.011380122,0.0,0.0,0.0,0.0,0.0,0.0
565493433,565393725,-0.012256779,0.041665822,-0.084625676,0.041768312,-0.016847968,-0.039922953,-0.026836898,0.016845275,-0.05998191,-0.023379087,0.014863968,-2.4474616,0.0,1.0025778,0.0,0.0,nan,0.0,0.0,0.0,0.0,-0.023894161,0.0072610453,0.0072552823,-0.018022418,-0.13509558,-0.03126304,0.008559804,0.0,0.0,0.0,0.0,0.0,0.0
565503406,565403609,-0.012256779,0.041665822,-0.084625676,0.041768312,-0.016847968,-0.039922953,-0.026836898,0.016845275,-0.05998191,-0.023379087,0.014863968,-2.4474616,0.0,1.0025778,0.0,0.0,nan,0.0,0.0,0.0,0.0,-0.023894161,0.0072610453,0.0072552823,-0.018022418,0.036405936,0.024629986,-0.002381665,0.0,0.0,0.0,0.0,0.0,0.0
565513494,565413496,-0.012256779,0.041665822,-0.084625676,0.041768312,-0.016847968,-0.039922953,-0.026836898,0.016845275,-0.05998191,-0.023379087,0.014863968,-2.4474616,0.0,1.0500107,0.0,0.0,nan,0.0,0.0,0.0,0.0,-0.023894161,0.0072610453,0.0072552823,-0.018022418,0.054017022,0.031005012,-0.0036866858,0.0,0.0,0.0,0.0,0.0,0.0
565523162,565423378,-0.012256779,0.041665822,-0.084625676,0.041768312,-0.016847968,-0.039922953,-0.026836898,0.016845275,-0.05998191,-0.023379087,0.014863968,-2.4474616,0.0,1.0500107,0.0,0.0,nan,0.0,0.0,0.0,0.0,-0.023894161,0.0072610453,0.0072552823,-0.018022418,-0.009862828,-0.03361688,7.107771e-05,0.0,0.0,0.0,0.0,0.0,0.0
565533029,565433264,-0.012256779,0.041665822,-0.084625676,0.041768312,-0.016847968,-0.039922953,-0.027903512,0.017060712,-0.064304836,-0.023519993,0.0147817135,-2.4527829,0.0,1.0500107,0.0,0.0,nan,0.0,0.0,0.0,0.0,-0.023894161,0.0072610453,0.0072552823,-0.018022418,0.019739917,-0.00166268,-0.0015268258,0.0,0.0,0.0,0.0,0.0,0.0
565542718,565443148,-0.012256779,0.041665822,-0.084625676,0.041768312,-0.016847968,-0.039922953,-0.027903512,0.017060712,-0.064304836,-0.023519993,0.0147817135,-2.4527829,0.0,1.0500107,0.0,0.0,nan,0.0,0.0,0.0,0.0,-0.0010636747,0.0074249282,0.0033668801,-0.01478833,0.05519362,0.060430057,-0.0033923835,0.0,0.0,0.0,0.0,0.0,0.0
565552459,565453033,-0.012256779,0.041665822,-0.084625676,0.041768312,-0.016847968,-0.039922953,-0.027903512,0.017060712,-0.064304836,-0.023519993,0.0147817135,-2.4527829,0.0,1.0500107,0.0,0.0,nan,0.0,0.0,0.0,0.0,-0.0010636747,0.0074249282,0.0033668801,-0.01478833,-0.109616555,-0.0272034,0.007057297,0.0,0.0,0.0,0.0,0.0,0.0
565562392,565462918,-0.012256779,0.041665822,-0.084625676,0.041768312,-0.016847968,-0.039922953,-0.027746603,0.016947038,-0.065068275,-0.023361683,0.014573455,-2.4548426,0.0,1.0500107,0.0,0.0,nan,0.0,0.0,0.0,0.0,-0.0010636747,0.0074249282,0.0033668801,-0.01478833,-0.0071947547,-0.004970906,0.0004443752,0.0,0.0,0.0,0.0,0.0,0.0
565572316,565472811,-0.012256779,0.041665822,-0.084625676,0.041768312,-0.016847968,-0.039922953,-0.027746603,0.016947038,-0.065068275,-0.023361683,0.014573455,-2.4548426,0.0,1.0500107,0.0,0.0,nan,0.0,0.0,0.0,0.0,-0.0010636747,0.0074249282,0.0033668801,-0.01478833,0.08747761,0.053285353,-0.0061332206,0.0,0.0,0.0,0.0,0.0,0.0
565582376,565482689,-0.012256779,0.041665822,-0.084625676,0.041768312,-0.016847968,-0.039922953,-0.027746603,0.016947038,-0.065068275,-0.023361683,0.014573455,-2.4548426,0.0,1.0158417,0.0,0.0,nan,0.0,0.0,0.0,0.0,-0.0010636747,0.0074249282,0.0033668801,-0.01478833,0.01176554,-0.046582934,-0.0018383422,0.0,0.0,0.0,0.0,0.0,0.0
565592273,565492572,-0.012256779,0.041665822,-0.084625676,0.041768312,-0.016847968,-0.039922953,-0.027316099,0.017466415,-0.06832658,-0.02316904,0.014352918,-2.4598253,0.0,1.0158417,0.0,0.0,nan,0.0,0.0,0.0,0.0,-0.0010636747,0.0074249282,0.0033668801,-0.01478833,-0.12823156,-0.04306328,0.007884595,0.0,0.0,0.0,0.0,0.0,0.0
565602515,565502457,-0.03880377,-0.0037091216,-0.0872447,0.03650427,-0.022742033,-0.027899742,-0.027316099,0.017466415,-0.06832658,-0.02316904,0.014352918,-2.4598253,0.0,1.0158417,0.0,0.0,nan,0.0,0.0,0.0,0.0,-0.0010636747,0.0074249282,0.0033668801,-0.01478833,0.1480512,0.028233081,-0.011756312,0.0,0.0,0.0,0.0,0.0,0.0
565612320,565512342,-0.03880377,-0.0037091216,-0.0872447,0.03650427,-0.022742033,-0.027899742,-0.027316099,0.017466415,-0.06832658,-0.02316904,0.014352918,-2.4598253,0.0,1.0158417,0.0,0.0,nan,0.0,0.0,0.0,0.0,0.02311863,0.008919224,-0.00054164976,-0.006799042,-0.05902146,0.06459068,0.005181255,0.0,0.0,0.0,0.0,0.0,0.0
565621903,565522228,-0.03880377,-0.0037091216,-0.0872447,0.03650427,-0.022742033,-0.027899742,-0.027316099,0.017466415,-0.06832658,-0.02316904,0.014352918,-2.4598253,0.0,1.0158417,0.0,0.0,nan,0.0,0.0,0.0,0.0,0.02311863,0.008919224,-0.00054164976,-0.006799042,-0.0031834466,-0.00018982307,0.00023472653,0.0,0.0,0.0,0.0,0.0,0.0
565632017,565532111,-0.03880377,-0.0037091216,-0.0872447,0.03650427,-0.022742033,-0.027899742,-0.026054585,0.01807974,-0.068258435,-0.02275467,0.016116023,-2.4565694,0.0,1.0158417,0.0,0.0,nan,0.0,0.0,0.0,0.0,0.02311863,0.008919224,-0.00054164976,-0.006799042,0.016531518,-0.039258167,-0.002034672,0.0,0.0,0.0,0.0,0.0,0.0
565641534,565541997,-0.03880377,-0.0037091216,-0.0872447,0.03650427,-0.022742033,-0.027899742,-0.026054585,0.01807974,-0.068258435,-0.02275467,0.016116023,-2.4565694,0.0,0.9089875,0.0,0.0,nan,0.0,0.0,0.0,0.0,0.02311863,0.008919224,-0.00054164976,-0.006799042,-0.093001336,-0.0367001,0.0057943435,0.0,0.0,0.0,0.0,0.0,0.0
565651349,565551881,-0.03880377,-0.0037091216,-0.0872447,0.03650427,-0.022742033,-0.027899742,-0.026054585,0.01807974,-0.068258435,-0.02275467,0.016116023,-2.4565694,0.0,0.9089875,0.0,0.0,nan,0.0,0.0,0.0,0.0,0.02311863,0.008919224,-0.00054164976,-0.006799042,0.22372308,0.017251728,-0.019033393,0.0,0.0,0.0,0.0,0.0,0.0
565661452,565561766,-0.03880377,-0.0037091216,-0.0872447,0.03650427,-0.022742033,-0.027899742,-0.025548575,0.017080162,-0.07253084,-0.022628307,0.015783906,-2.4612124,0.0,0.9089875,0.0,0.0,nan,0.0,0.0,0.0,0.0,0.02311863,0.008919224,-0.00054164976,-0.006799042,-0.18741217,0.033004533,0.012758634,0.0,0.0,0.0,0.0,0.0,0.0
565671483,565571651,-0.03880377,-0.0037091216,-0.0872447,0.03650427,-0.022742033,-0.027899742,-0.025548575,0.017080162,-0.07253084,-0.022628307,0.015783906,-2.4612124,0.0,0.9089875,0.0,0.0,nan,0.0,0.0,0.0,0.0,0.02311863,0.008919224,-0.00054164976,-0.006799042,0.06466009,-0.017928613,-0.0053955037,0.0,0.0,0.0,0.0,0.0,0.0
565681370,565581535,-0.03880377,-0.0037091216,-0.0872447,0.03650427,-0.022742033,-0.027899742,-0.025548575,0.017080162,-0.07253084,-0.022628307,0.015783906,-2.4612124,0.0,0.9089875,0.0,0.0,nan,0.0,0.0,0.0,0.0,0.008284658,0.007782191,0.0015050769,-0.0054304004,0.07973061,0.054189242,-0.0054802247,0.0,0.0,0.0,0.0,0.0,0.0
565691419,565591420,-0.03880377,-0.0037091216,-0.0872447,0.03650427,-0.022742033,-0.027899742,-0.024542028,0.017418796,-0.07558844,-0.022343636,0.015578866,-2.4636114,0.0,0.9089875,0.0,0.0,nan,0.0,0.0,0.0,0.0,0.008284658,0.007782191,0.0015050769,-0.0054304004,-0.19111992,-0.024542443,0.011975883,0.0,0.0,0.0,0.0,0.0,0.0
565701001,565601305,-0.03880377,-0.0037091216,-0.0872447,0.03650427,-0.022742033,-0.027899742,-0.024542028,0.017418796,-0.07558844,-0.022343636,0.015578866,-2.4636114,0.0,0.9089875,0.0,0.0,nan,0.0,0.0,0.0,0.0,0.008284658,0.007782191,0.0015050769,-0.0054304004,0.13120024,0.025540309,-0.010293053,0.0,0.0,0.0,0.0,0.0,0.0
565711322,565611190,-0.03880377,-0.0037091216,-0.0872447,0.03650427,-0.022742033,-0.027899742,-0.024542028,0.017418796,-0.07558844,-0.022343636,0.015578866,-2.4636114,0.0,1.0648515,0.0,0.0,nan,0.0,0.0,0.0,0.0,0.008284658,0.007782191,0.0015050769,-0.0054304004,0.014893653,-0.059869044,-0.0023859947,0.0,0.0,0.0,0.0,0.0,0.0
565720930,565621075,-0.03880377,-0.0037091216,-0.0872447,0.03650427,-0.022742033,-0.027899742,-0.024542028,0.017418796,-0.07558844,-0.022343636,0.015578866,-2.4636114,0.0,1.0648515,0.0,0.0,nan,0.0,0.0,0.0,0.0,0.008284658,0.007782191,0.0015050769,-0.0054304004,-0.040118143,0.02655692,0.0033597911,0.0,0.0,0.0,0.0,0.0,0.0
565731356,565630960,-0.01405631,0.0012868298,-0.11177009,0.03345561,-0.018960953,-0.035411596,-0.025807932,0.018448109,-0.07510365,-0.023590326,0.016669512,-2.4620507,0.0,1.0648515,0.0,0.0,nan,0.0,0.0,0.0,0.0,0.008284658,0.007782191,0.0015050769,-0.0054304004,0.028846847,0.03921683,-0.0015812081,0.0,0.0,0.0,0.0,0.0,0.0
565740383,565640845,-0.01405631,0.0012868298,-0.11177009,0.03345561,-0.018960953,-0.035411596,-0.025807932,0.018448109,-0.07510365,-0.023590326,0.016669512,-2.4620507,0.0,1.0648515,0.0,0.0,nan,0.0,0.0,0.0,0.0,0.008284658,0.007782191,0.0015050769,-0.0054304004,-0.049966224,-0.059236154,0.002371485,0.0,0.0,0.0,0.0,0.0,0.0
565751753,565650731,-0.01405631,0.0012868298,-0.11177009,0.03345561,-0.018960953,-0.035411596,-0.025807932,0.018448109,-0.07510365,-0.023590326,0.016669512,-2.4620507,0.0,1.0648515,0.0,0.0,nan,0.0,0.0,0.0,0.0,0.029105514,0.006908223,-0.0021222904,-0.010986686,-0.011435574,0.011727999,0.0010529531,0.0,0.0,0.0,0.0,0.0,0.0
565760503,565660614,-0.01405631,0.0012868298,-0.11177009,0.03345561,-0.018960953,-0.035411596,-0.027487222,0.018561866,-0.07761725,-0.0234375,0.016371131,-2.4645238,0.0,1.0648515,0.0,0.0,nan,0.0,0.0,0.0,0.0,0.029105514,0.006908223,-0.0021222904,-0.010986686,0.0943894,-0.024699144,-0.008006485,0.0,0.0,0.0,0.0,0.0,0.0
565770389,565670501,-0.01405631,0.0012868298,-0.11177009,0.03345561,-0.018960953,-0.035411596,-0.027487222,0.018561866,-0.07761725,-0.0234375,0.016371131,-2.4645238,0.0,1.0648515,0.0,0.0,nan,0.0,0.0,0.0,0.0,0.029105514,0.006908223,-0.0021222904,-0.010986686,0.03884269,-0.047056988,-0.003947349,0.0,0.0,0.0,0.0,0.0,0.0
565781314,565680384,-0.01405631,0.0012868298,-0.11177009,0.03345561,-0.018960953,-0.035411596,-0.027487222,0.018561866,-0.07761725,-0.0234375,0.016371131,-2.4645238,0.0,1.0322671,0.0,0.0,nan,0.0,0.0,0.0,0.0,0.029105514,0.006908223,-0.0021222904,-0.010986686,-0.068323195,0.08337473,0.006012942,0.0,0.0,0.0,0.0,0.0,0.0
565790435,565690268,-0.01405631,0.0012868298,-0.11177009,0.03345561,-0.018960953,-0.035411596,-0.027583042,0.01913741,-0.08109054,-0.023243189,0.016145349,-2.469925,0.0,1.0322671,0.0,0.0,nan,0.0,0.0,0.0,0.0,0.029105514,0.006908223,-0.0021222904,-0.010986686,0.06749054,-0.013955407,-0.00554707,0.0,0.0,0.0,0.0,0.0,0.0
565800116,565700153,-0.01405631,0.0012868298,-0.11177009,0.03345561,-0.018960953,-0.035411596,-0.027583042,0.01913741,-0.08109054,-0.023243189,0.016145349,-2.469925,0.0,1.0322671,0.0,0.0,nan,0.0,0.0,0.0,0.0,0.029105514,0.006908223,-0.0021222904,-0.010986686,-0.055964984,-0.05313425,0.0029373162,0.0,0.0,0.0,0.0,0.0,0.0
565810050,565710038,-0.01405631,0.0012868298,-0.11177009,0.03345561,-0.018960953,-0.035411596,-0.027583042,0.01913741,-0.08109054,-0.023243189,0.016145349,-2.469925,0.0,1.0322671,0.0,0.0,nan,0.0,0.0,0.0,0.0,0.029105514,0.006908223,-0.0021222904,-0.010986686,-0.08205891,0.058653086,0.0066799605,0.0,0.0,0.0,0.0,0.0,0.0
565820406,565719923,-0.01405631,0.0012868298,-0.11177009,0.03345561,-0.018960953,-0.035411596,-0.027583042,0.01913741,-0.08109054,-0.023243189,0.016145349,-2.469925,0.0,1.0322671,0.0,0.0,nan,0.0,0.0,0.0,0.0,0.0020102859,0.006252691,0.0020057857,-0.004676461,0.17050771,-0.039474864,-0.01507128,0.0,0.0,0.0,0.0,0.0,0.0
565829316,565729814,-0.01405631,0.0012868298,-0.11177009,0.03345561,-0.018960953,-0.035411596,-0.025108026,0.01863727,-0.084265485,-0.023298264,0.01605177,-2.4734788,0.0,1.0322671,0.0,0.0,nan,0.0,0.0,0.0,0.0,0.0020102859,0.006252691,0.0020057857,-0.004676461,-0.15026745,0.031556543,0.0106275175,0.0,0.0,0.0,0.0,0.0,0.0
565839254,565739693,-0.01405631,0.0012868298,-0.11177009,0.03345561,-0.018960953,-0.035411596,-0.025108026,0.01863727,-0.084265485,-0.023298264,0.01605177,-2.4734788,0.0,0.9873078,0.0,0.0,nan,0.0,0.0,0.0,0.0,0.0020102859,0.006252691,0.0020057857,-0.004676461,0.07713262,0.06480035,-0.005139601,0.0,0.0,0.0,0.0,0.0,0.0
565850771,565749577,-0.028797839,0.0245005,-0.0838699,0.028976679,-0.015877724,-0.039764404,-0.025108026,0.01863727,-0.084265485,-0.023298264,0.01605177,-2.4734788,0.0,0.9873078,0.0,0.0,nan,0.0,0.0,0.0,0.0,0.0020102859,0.006252691,0.0020057857,-0.004676461,0.15501386,-0.06448621,-0.014224781,0.0,0.0,0.0,0.0,0.0,0.0
565859180,565759463,-0.028797839,0.0245005,-0.0838699,0.028976679,-0.015877724,-0.039764404,-0.02447835,0.016450267,-0.085830286,-0.022788286,0.014995813,-2.4723625,0.0,0.9873078,0.0,0.0,nan,0.0,0.0,0.0,0.0,0.0020102859,0.006252691,0.0020057857,-0.004676461,-0.22443399,0.0691063,0.01521919,0.0,0.0,0.0,0.0,0.0,0.0
565869027,565769347,-0.028797839,0.0245005,-0.0838699,0.028976679,-0.015877724,-0.039764404,-0.02447835,0.016450267,-0.085830286,-0.022788286,0.014995813,-2.4723625,0.0,0.9873078,0.0,0.0,nan,0.0,0.0,0.0,0.0,0.0020102859,0.006252691,0.0020057857,-0.004676461,0.13575487,-0.01857107,-0.011475999,0.0,0.0,0.0,0.0,0.0,0.0
565879185,565779231,-0.028797839,0.0245005,-0.0838699,0.028976679,-0.015877724,-0.039764404,-0.02447835,0.016450267,-0.085830286,-0.022788286,0.014995813,-2.4723625,0.0,0.9873078,0.0,0.0,nan,0.0,0.0,0.0,0.0,0.0020102859,0.006252691,0.0020057857,-0.004676461,-0.055348556,-0.111726746,0.0013377133,0.0,0.0,0.0,0.0,0.0,0.0
565888955,565789131,-0.028797839,0.0245005,-0.0838699,0.028976679,-0.015877724,-0.039764404,-0.025500596,0.01713385,-0.08896805,-0.022548676,0.01473403,-2.4751692,0.0,0.9873078,0.0,0.0,nan,0.0,0.0,0.0,0.0,0.002829671,0.004430242,0.0013336763,-0.006907165,0.02265845,0.06722476,-0.00074244523,0.0,0.0,0.0,0.0,0.0,0.0
565898704,565799003,-0.028797839,0.0245005,-0.0838699,0.028976679,-0.015877724,-0.039764404,-0.025500596,0.01713385,-0.08896805,-0.022548676,0.01473403,-2.4751692,0.0,0.9873078,0.0,0.0,nan,0.0,0.0,0.0,0.0,0.002829671,0.004430242,0.0013336763,-0.006907165,-0.07111033,0.027525922,0.0055273133,0.0,0.0,0.0,0.0,0.0,0.0
565908419,565808886,-0.028797839,0.0245005,-0.0838699,0.028976679,-0.015877724,-0.039764404,-0.025500596,0.01713385,-0.08896805,-0.022548676,0.01473403,-2.4751692,0.0,1.0375552,0.0,0.0,nan,0.0,0.0,0.0,0.0,0.002829671,0.004430242,0.0013336763,-0.006907165,0.116030455,-0.06279965,-0.010723526,0.0,0.0,0.0,0.0,0.0,0.0
565918233,565818776,-0.028797839,0.0245005,-0.0838699,0.028976679,-0.015877724,-0.039764404,-0.025500596,0.01713385,-0.08896805,-0.022548676,0.01473403,-2.4751692,0.0,1.0375552,0.0,0.0,nan,0.0,0.0,0.0,0.0,0.002829671,0.004430242,0.0013336763,-0.006907165,-0.1212515,0.049616326,0.009094453,0.0,0.0,0.0,0.0,0.0,0.0
565928175,565828656,-0.028797839,0.0245005,-0.0838699,0.028976679,-0.015877724,-0.039764404,-0.025455458,0.01666561,-0.094434485,-0.022592306,0.014668584,-2.4817379,0.0,1.0375552,0.0,0.0,nan,0.0,0.0,0.0,0.0,0.002829671,0.004430242,0.0013336763,-0.006907165,0.06791183,0.05421852,-0.0045062634,0.0,0.0,0.0,0.0,0.0,0.0
565938090,565838540,-0.028797839,0.0245005,-0.0838699,0.028976679,-0.015877724,-0.039764404,-0.025455458,0.01666561,-0.094434485,-0.022592306,0.014668584,-2.4817379,0.0,1.0375552,0.0,0.0,nan,0.0,0.0,0.0,0.0,0.002829671,0.004430242,0.0013336763,-0.006907165,0.003139244,-0.060514957,-0.0015133002,0.0,0.0,0.0,0.0,0.0,0.0
565947980,565848426,-0.028797839,0.0245005,-0.0838699,0.028976679,-0.015877724,-0.039764404,-0.025455458,0.01666561,-0.094434485,-0.022592306,0.014668584,-2.4817379,0.0,1.0375552,0.0,0.0,nan,0.0,0.0,0.0,0.0,0.002829671,0.004430242,0.0013336763,-0.006907165,-0.099471614,0.011083388,0.0071443417,0.0,0.0,0.0,0.0,0.0,0.0
565958073,565858310,-0.028797839,0.0245005,-0.0838699,0.028976679,-0.015877724,-0.039764404,-0.026379047,0.017258247,-0.09760922,-0.022372007,0.014462233,-2.4846363,0.0,1.0375552,0.0,0.0,nan,0.0,0.0,0.0,0.0,0.005805418,0.0077898055,0.0018993504,-0.0047668815,0.20624276,-0.009306302,-0.017828204,0.0,0.0,0.0,0.0,0.0,0.0
565967945,565868195,-0.028797839,0.0245005,-0.0838699,0.028976679,-0.015877724,-0.039764404,-0.026379047,0.017258247,-0.09760922,-0.022372007,0.014462233,-2.4846363,0.0,1.039403,0.0,0.0,nan,0.0,0.0,0.0,0.0,0.005805418,0.0077898055,0.0018993504,-0.0047668815,-0.12671334,-0.03784277,0.007921183,0.0,0.0,0.0,0.0,0.0,0.0
565978252,565878080,-0.011287827,-0.011704156,-0.15152024,0.02572608,-0.01476109,-0.058511257,-0.026379047,0.017258247,-0.09760922,-0.022372007,0.014462233,-2.4846363,0.0,1.039403,0.0,0.0,nan,0.0,0.0,0.0,0.0,0.005805418,0.0077898055,0.0018993504,-0.0047668815,-0.0026017646,0.10050644,0.0014735863,0.0,0.0,0.0,0.0,0.0,0.0
565987674,565887964,-0.011287827,-0.011704156,-0.15152024,0.02572608,-0.01476109,-0.058511257,-0.026347002,0.01774003,-0.09493307,-0.02302432,0.016114712,-2.4793894,0.0,1.039403,0.0,0.0,nan,0.0,0.0,0.0,0.0,0.005805418,0.0077898055,0.0018993504,-0.0047668815,0.086119354,-0.019085674,-0.0071948725,0.0,0.0,0.0,0.0,0.0,0.0
565997315,565897849,-0.011287827,-0.011704156,-0.15152024,0.02572608,-0.01476109,-0.058511257,-0.026347002,0.01774003,-0.09493307,-0.02302432,0.016114712,-2.4793894,0.0,1.039403,0.0,0.0,nan,0.0,0.0,0.0,0.0,0.005805418,0.0077898055,0.0018993504,-0.0047668815,-0.15997218,-0.0977472,0.00842435,0.0,0.0,0.0,0.0,0.0,0.0
566007241,565907734,-0.011287827,-0.011704156,-0.15152024,0.02572608,-0.01476109,-0.058511257,-0.026347002,0.01774003,-0.09493307,-0.02302432,0.016114712,-2.4793894,0.0,1.039403,0.0,0.0,nan,0.0,0.0,0.0,0.0,0.005805418,0.0077898055,0.0018993504,-0.0047668815,0.06524618,0.04935152,-0.004344253,0.0,0.0,0.0,0.0,0.0,0.0
566017265,565917619,-0.011287827,-0.011704156,-0.15152024,0.02572608,-0.01476109,-0.058511257,-0.026347002,0.01774003,-0.09493307,-0.02302432,0.016114712,-2.4793894,0.0,1.039403,0.0,0.0,nan,0.0,0.0,0.0,0.0,0.005805418,0.0077898055,0.0018993504,-0.0047668815,0.015258763,-0.05679065,-0.0023440057,0.0,0.0,0.0,0.0,0.0,0.0
566027170,565927508,-0.011287827,-0.011704156,-0.15152024,0.02572608,-0.01476109,-0.058511257,-0.025173837,0.019343417,-0.098915465,-0.023122072,0.016042948,-2.4833097,0.0,1.039403,0.0,0.0,nan,0.0,0.0,0.0,0.0,0.0017954856,0.011972338,0.0038818456,-0.0016039014,0.0036725635,0.03423354,0.00027820634,0.0,0.0,0.0,0.0,0.0,0.0
566037021,565937388,-0.011287827,-0.011704156,-0.15152024,0.02572608,-0.01476109,-0.058511257,-0.025173837,0.019343417,-0.098915465,-0.023122072,0.016042948,-2.4833097,0.0,0.9348147,0.0,0.0,nan,0.0,0.0,0.0,0.0,0.0017954856,0.011972338,0.0038818456,-0.0016039014,0.00050138915,0.0581567,0.0008290362,0.0,0.0,0.0,0.0,0.0,0.0
566046845,565947280,-0.011287827,-0.011704156,-0.15152024,0.02572608,-0.01476109,-0.058511257,-0.025173837,0.019343417,-0.098915465,-0.023122072,0.016042948,-2.4833097,0.0,0.9348147,0.0,0.0,nan,0.0,0.0,0.0,0.0,0.0017954856,0.011972338,0.0038818456,-0.0016039014,-0.04027742,-0.031993844,0.0023118535,0.0,0.0,0.0,0.0,0.0,0.0
566056938,565957158,-0.011287827,-0.011704156,-0.15152024,0.02572608,-0.01476109,-0.058511257,-0.025928833,0.017573696,-0.104366176,-0.022889614,0.01576674,-2.48909,0.0,0.9348147,0.0,0.0,nan,0.0,0.0,0.0,0.0,0.0017954856,0.011972338,0.0038818456,-0.0016039014,0.09667407,0.070571244,-0.006717333,0.0,0.0,0.0,0.0,0.0,0.0
566066858,565967043,-0.011287827,-0.011704156,-0.15152024,0.02572608,-0.01476109,-0.058511257,-0.025928833,0.017573696,-0.104366176,-0.022889614,0.01576674,-2.48909,0.0,0.9348147,0.0,0.0,nan,0.0,0.0,0.0,0.0,0.0017954856,0.011972338,0.0038818456,-0.0016039014,-0.025648998,-0.047286276,0.0009224391,0.0,0.0,0.0,0.0,0.0,0.0
566076723,565976929,-0.011287827,-0.011704156,-0.15152024,0.02572608,-0.01476109,-0.058511257,-0.025928833,0.017573696,-0.104366176,-0.022889614,0.01576674,-2.48909,0.0,0.9348147,0.0,0.0,nan,0.0,0.0,0.0,0.0,0.0017954856,0.011972338,0.0038818456,-0.0016039014,-0.14953211,-0.07230657,0.008491237,0.0,0.0,0.0,0.0,0.0,0.0
566086945,565986812,-0.011287827,-0.011704156,-0.15152024,0.02572608,-0.01476109,-0.058511257,-0.025793921,0.01830341,-0.10680503,-0.022639751,0.015594959,-2.4923794,0.0,0.9348147,0.0,0.0,nan,0.0,0.0,0.0,0.0,0.0017954856,0.011972338,0.0038818456,-0.0016039014,0.16895619,0.117370926,-0.012731189,0.0,0.0,0.0,0.0,0.0,0.0
566097198,565996697,-0.011287827,-0.011704156,-0.15152024,0.02572608,-0.01476109,-0.058511257,-0.025793921,0.01830341,-0.10680503,-0.022639751,0.015594959,-2.4923794,0.0,1.0525482,0.0,0.0,nan,0.0,0.0,0.0,0.0,0.01052466,0.008865781,0.001504384,-0.005279064,-0.096207164,0.018414984,0.0070460783,0.0,0.0,0.0,0.0,0.0,0.0
566107103,566006582,-0.011287827,-0.011704156,-0.15152024,0.02572608,-0.01476109,-0.058511257,-0.025793921,0.01830341,-0.10680503,-0.022639751,0.015594959,-2.4923794,0.0,1.0525482,0.0,0.0,nan,0.0,0.0,0.0,0.0,0.01052466,0.008865781,0.001504384,-0.005279064,-0.09619532,-0.0019636794,0.0067056785,0.0,0.0,0.0,0.0,0.0,0.0
566118759,566016467,-0.059671924,0.043199476,-0.11715753,0.021124601,-0.010707498,-0.05517769,-0.025793921,0.01830341,-0.10680503,-0.022639751,0.015594959,-2.4923794,0.0,1.0525482,0.0,0.0,nan,0.0,0.0,0.0,0.0,0.01052466,0.008865781,0.001504384,-0.005279064,0.1643217,0.03376654,-0.013182401,0.0,0.0,0.0,0.0,0.0,0.0
566126850,566026351,-0.059671924,0.043199476,-0.11715753,0.021124601,-0.010707498,-0.05517769,-0.025793921,0.01830341,-0.10680503,-0.022639751,0.015594959,-2.4923794,0.0,1.0525482,0.0,0.0,nan,0.0,0.0,0.0,0.0,0.01052466,0.008865781,0.001504384,-0.005279064,-0.037711613,-0.075046316,0.0011167123,0.0,0.0,0.0,0.0,0.0,0.0
566137063,566036237,-0.059671924,0.043199476,-0.11715753,0.021124601,-0.010707498,-0.05517769,-0.021861766,0.014263693,-0.1069511,-0.019868374,0.012929082,-2.4917228,0.0,1.0525482,0.0,0.0,nan,0.0,0.0,0.0,0.0,0.01052466,0.008865781,0.001504384,-0.005279064,-0.115163796,0.04674431,0.008706403,0.0,0.0,0.0,0.0,0.0,0.0
566146802,566046125,-0.059671924,0.043199476,-0.11715753,0.021124601,-0.010707498,-0.05517769,-0.021861766,0.014263693,-0.1069511,-0.019868374,0.012929082,-2.4917228,0.0,1.0525482,0.0,0.0,nan,0.0,0.0,0.0,0.0,0.01052466,0.008865781,0.001504384,-0.005279064,0.13362165,-0.009671628,-0.011134275,0.0,0.0,0.0,0.0,0.0,0.0
566156848,566056006,-0.059671924,0.043199476,-0.11715753,0.021124601,-0.010707498,-0.05517769,-0.021861766,0.014263693,-0.1069511,-0.019868374,0.012929082,-2.4917228,0.0,1.0525482,0.0,0.0,nan,0.0,0.0,0.0,0.0,0.01052466,0.008865781,0.001504384,-0.005279064,0.0029935339,0.039237652,0.00039974987,0.0,0.0,0.0,0.0,0.0,0.0
566166959,566065891,-0.059671924,0.043199476,-0.11715753,0.021124601,-0.010707498,-0.05517769,-0.021430375,0.014269473,-0.11065749,-0.019603968,0.012712598,-2.497842,0.0,0.99808455,0.0,0.0,nan,0.0,0.0,0.0,0.0,0.011066273,0.0071313456,0.0007459298,-0.004122436,-0.17170116,-0.047110893,0.01043317,0.0,0.0,0.0,0.0,0.0,0.0
566177238,566075779,-0.059671924,0.043199476,-0.11715753,0.021124601,-0.010707498,-0.05517769,-0.021430375,0.014269473,-0.11065749,-0.019603968,0.012712598,-2.497842,0.0,0.99808455,0.0,0.0,nan,0.0,0.0,0.0,0.0,0.011066273,0.0071313456,0.0007459298,-0.004122436,0.26645756,0.0964154,-0.022413164,0.0,0.0,0.0,0.0,0.0,0.0
566185163,566085660,-0.059671924,0.043199476,-0.11715753,0.021124601,-0.010707498,-0.05517769,-0.021430375,0.014269473,-0.11065749,-0.019603968,0.012712598,-2.497842,0.0,0.99808455,0.0,0.0,nan,0.0,0.0,0.0,0.0,0.011066273,0.0071313456,0.0007459298,-0.004122436,-0.12076839,-0.058103383,0.0070958077,0.0,0.0,0.0,0.0,0.0,0.0
566195018,566095545,-0.059671924,0.043199476,-0.11715753,0.021124601,-0.010707498,-0.05517769,-0.021410502,0.014101358,-0.114331245,-0.019428015,0.012487531,-2.5014942,0.0,0.99808455,0.0,0.0,nan,0.0,0.0,0.0,0.0,0.011066273,0.0071313456,0.0007459298,-0.004122436,-0.16061956,-0.030619048,0.010132679,0.0,0.0,0.0,0.0,0.0,0.0
566204886,566105430,-0.059671924,0.043199476,-0.11715753,0.021124601,-0.010707498,-0.05517769,-0.021410502,0.014101358,-0.114331245,-0.019428015,0.012487531,-2.5014942,0.0,0.99808455,0.0,0.0,nan,0.0,0.0,0.0,0.0,0.011066273,0.0071313456,0.0007459298,-0.004122436,0.34779337,0.10089036,-0.031039897,0.0,0.0,0.0,0.0,0.0,0.0
566215030,566115315,-0.059671924,0.043199476,-0.11715753,0.021124601,-0.010707498,-0.05517769,-0.021410502,0.014101358,-0.114331245,-0.019428015,0.012487531,-2.5014942,0.0,0.99808455,0.0,0.0,nan,0.0,0.0,0.0,0.0,0.011066273,0.0071313456,0.0007459298,-0.004122436,-0.21727376,-0.12374699,0.010867224,0.0,0.0,0.0,0.0,0.0,0.0
566225029,566125200,-0.059671924,0.043199476,-0.11715753,0.021124601,-0.010707498,-0.05517769,-0.021410502,0.014101358,-0.114331245,-0.019428015,0.012487531,-2.5014942,0.0,1.0358462,0.0,0.0,nan,0.0,0.0,0.0,0.0,0.011066273,0.0071313456,0.0007459298,-0.004122436,-0.1046918,0.04933301,0.008053035,0.0,0.0,0.0,0.0,0.0,0.0
566234866,566135084,-0.059671924,0.043199476,-0.11715753,0.021124601,-0.010707498,-0.05517769,-0.021155534,0.016505225,-0.11705757,-0.019439936,0.012621403,-2.5091374,0.0,1.0358462,0.0,0.0,nan,0.0,0.0,0.0,0.0,0.020778209,0.0055124685,-0.0013981462,-0.0065852404,0.25630957,0.031041952,-0.022129582,0.0,0.0,0.0,0.0,0.0,0.0
566244854,566144975,-0.059671924,0.043199476,-0.11715753,0.021124601,-0.010707498,-0.05517769,-0.021155534,0.016505225,-0.11705757,-0.019439936,0.012621403,-2.5091374,0.0,1.0358462,0.0,0.0,nan,0.0,0.0,0.0,0.0,0.020778209,0.0055124685,-0.0013981462,-0.0065852404,-0.1583024,-0.11503542,0.007847472,0.0,0.0,0.0,0.0,0.0,0.0
566254561,566154854,-0.059671924,0.043199476,-0.11715753,0.021124601,-0.010707498,-0.05517769,-0.021155534,0.016505225,-0.11705757,-0.019439936,0.012621403,-2.5091374,0.0,1.0358462,0.0,0.0,nan,0.0,0.0,0.0,0.0,0.020778209,0.0055124685,-0.0013981462,-0.0065852404,-0.031798974,0.0724373,0.0033728152,0.0,0.0,0.0,0.0,0.0,0.0
566264526,566164738,-0.059671924,0.043199476,-0.11715753,0.021124601,-0.010707498,-0.05517769,-0.021274438,0.015865609,-0.12083169,-0.019242048,0.012445092,-2.5128632,0.0,1.0358462,0.0,0.0,nan,0.0,0.0,0.0,0.0,0.020778209,0.0055124685,-0.0013981462,-0.0065852404,0.18703555,-0.018452305,-0.016195532,0.0,0.0,0.0,0.0,0.0,0.0
566274826,566174623,-0.0043305755,0.006154432,-0.12659499,0.031652927,-0.011322141,-0.06456208,-0.021274438,0.015865609,-0.12083169,-0.019242048,0.012445092,-2.5128632,0.0,1.0358462,0.0,0.0,nan,0.0,0.0,0.0,0.0,0.020778209,0.0055124685,-0.0013981462,-0.0065852404,-0.041929018,-0.041710496,0.0022184162,0.0,0.0,0.0,0.0,0.0,0.0
566284085,566184508,-0.0043305755,0.006154432,-0.12659499,0.031652927,-0.011322141,-0.06456208,-0.021274438,0.015865609,-0.12083169,-0.019242048,0.012445092,-2.5128632,0.0,1.0358462,0.0,0.0,nan,0.0,0.0,0.0,0.0,0.020778209,0.0055124685,-0.0013981462,-0.0065852404,-0.17580324,0.06353664,0.012535453,0.0,0.0,0.0,0.0,0.0,0.0
566293950,566194393,-0.0043305755,0.006154432,-0.12659499,0.031652927,-0.011322141,-0.06456208,-0.021821538,0.014575279,-0.1192034,-0.020901203,0.012509108,-2.5083244,0.0,0.82338643,0.0,0.0,nan,0.0,0.0,0.0,0.0,0.020778209,0.0055124685,-0.0013981462,-0.0065852404,0.13756679,0.06465481,-0.010357077,0.0,0.0,0.0,0.0,0.0,0.0
566303711,566204278,-0.0043305755,0.006154432,-0.12659499,0.031652927,-0.011322141,-0.06456208,-0.021821538,0.014575279,-0.1192034,-0.020901203,0.012509108,-2.5083244,0.0,0.82338643,0.0,0.0,nan,0.0,0.0,0.0,0.0,0.020778209,0.0055124685,-0.0013981462,-0.0065852404,0.03695346,-0.016179297,-0.0031512363,0.0,0.0,0.0,0.0,0.0,0.0
566314110,566214162,-0.0043305755,0.006154432,-0.12659499,0.031652927,-0.011322141,-0.06456208,-0.021821538,0.014575279,-0.1192034,-0.020901203,0.012509108,-2.5083244,0.0,0.82338643,0.0,0.0,nan,0.0,0.0,0.0,0.0,0.008908033,0.007966898,0.0015234798,-0.0066776276,-0.12615877,-0.011786593,0.008434171,0.0,0.0,0.0,0.0,0.0,0.0
566323642,566224047,-0.0043305755,0.006154432,-0.12659499,0.031652927,-0.011322141,-0.06456208,-0.021821538,0.014575279,-0.1192034,-0.020901203,0.012509108,-2.5083244,0.0,0.82338643,0.0,0.0,nan,0.0,0.0,0.0,0.0,0.008908033,0.007966898,0.0015234798,-0.0066776276,0.09060749,0.001013012,-0.007204296,0.0,0.0,0.0,0.0,0.0,0.0
566333866,566233932,-0.0043305755,0.006154432,-0.12659499,0.031652927,-0.011322141,-0.06456208,-0.022137629,0.014538588,-0.12102703,-0.02082777,0.012385726,-2.5131714,0.0,0.82338643,0.0,0.0,nan,0.0,0.0,0.0,0.0,0.008908033,0.007966898,0.0015234798,-0.0066776276,0.047409557,-0.016338322,-0.003979498,0.0,0.0,0.0,0.0,0.0,0.0
566343704,566243830,-0.0043305755,0.006154432,-0.12659499,0.031652927,-0.011322141,-0.06456208,-0.022137629,0.014538588,-0.12102703,-0.02082777,0.012385726,-2.5131714,0.0,0.82338643,0.0,0.0,nan,0.0,0.0,0.0,0.0,0.008908033,0.007966898,0.0015234798,-0.0066776276,-0.13154954,0.048397403,0.009731991,0.0,0.0,0.0,0.0,0.0,0.0
566354207,566253702,-0.007472791,0.029008128,-0.16377315,0.027906895,-0.010082006,-0.056792498,-0.022137629,0.014538588,-0.12102703,-0.02082777,0.012385726,-2.5131714,0.0,0.82338643,0.0,0.0,nan,0.0,0.0,0.0,0.0,0.008908033,0.007966898,0.0015234798,-0.0066776276,0.04950334,-0.018154455,-0.0041892924,0.0,0.0,0.0,0.0,0.0,0.0
566363355,566263586,-0.007472791,0.029008128,-0.16377315,0.027906895,-0.010082006,-0.056792498,-0.023742747,0.011997618,-0.1183132,-0.02204895,0.010625601,-2.507217,0.0,0.80294394,0.0,0.0,nan,0.0,0.0,0.0,0.0,0.008908033,0.007966898,0.0015234798,-0.0066776276,0.041615687,0.0059149754,-0.0031119382,0.0,0.0,0.0,0.0,0.0,0.0
566372993,566273471,-0.007472791,0.029008128,-0.16377315,0.027906895,-0.010082006,-0.056792498,-0.023742747,0.011997618,-0.1183132,-0.02204895,0.010625601,-2.507217,0.0,0.80294394,0.0,0.0,nan,0.0,0.0,0.0,0.0,0.008908033,0.007966898,0.0015234798,-0.0066776276,0.019225668,0.025290988,-0.0010411422,0.0,0.0,0.0,0.0,0.0,0.0
566382892,566283356,-0.007472791,0.029008128,-0.16377315,0.027906895,-0.010082006,-0.056792498,-0.023742747,0.011997618,-0.1183132,-0.02204895,0.010625601,-2.507217,0.0,0.80294394,0.0,0.0,nan,0.0,0.0,0.0,0.0,-0.0005198419,0.00538636,0.0022051968,-0.0060967207,0.006107813,0.00018076075,-0.00045821915,0.0,0.0,0.0,0.0,0.0,0.0
566392734,566293241,-0.007472791,0.029008128,-0.16377315,0.027906895,-0.010082006,-0.056792498,-0.022822559,0.012578227,-0.12090119,-0.021670341,0.010471463,-2.510989,0.0,0.80294394,0.0,0.0,nan,0.0,0.0,0.0,0.0,-0.0005198419,0.00538636,0.0022051968,-0.0060967207,0.053780258,-0.06434308,-0.005559819,0.0,0.0,0.0,0.0,0.0,0.0
566402715,566303129,-0.007472791,0.029008128,-0.16377315,0.027906895,-0.010082006,-0.056792498,-0.022822559,0.012578227,-0.12090119,-0.021670341,0.010471463,-2.510989,0.0,0.80294394,0.0,0.0,nan,0.0,0.0,0.0,0.0,-0.0005198419,0.00538636,0.0022051968,-0.0060967207,-0.075406246,0.069320396,0.006367551,0.0,0.0,0.0,0.0,0.0,0.0
566412871,566313013,-0.007472791,0.029008128,-0.16377315,0.027906895,-0.010082006,-0.056792498,-0.022822559,0.012578227,-0.12090119,-0.021670341,0.010471463,-2.510989,0.0,0.80294394,0.0,0.0,nan,0.0,0.0,0.0,0.0,-0.0005198419,0.00538636,0.0022051968,-0.0060967207,-0.09995722,-0.03947021,0.0062028267,0.0,0.0,0.0,0.0,0.0,0.0
566422599,566322895,-0.007472791,0.029008128,-0.16377315,0.027906895,-0.010082006,-0.056792498,-0.022822559,0.012578227,-0.12090119,-0.021670341,0.010471463,-2.510989,0.0,1.0363877,0.0,0.0,nan,0.0,0.0,0.0,0.0,-0.0005198419,0.00538636,0.0022051968,-0.0060967207,0.13645111,0.0898438,-0.009998062,0.0,0.0,0.0,0.0,0.0,0.0
566432447,566332780,-0.007472791,0.029008128,-0.16377315,0.027906895,-0.010082006,-0.056792498,-0.021536533,0.012529375,-0.12356667,-0.021564245,0.01043582,-2.5189428,0.0,1.0363877,0.0,0.0,nan,0.0,0.0,0.0,0.0,-0.0005198419,0.00538636,0.0022051968,-0.0060967207,-0.09725413,-0.023599032,0.006363818,0.0,0.0,0.0,0.0,0.0,0.0
566442545,566342665,-0.007472791,0.029008128,-0.16377315,0.027906895,-0.010082006,-0.056792498,-0.021536533,0.012529375,-0.12356667,-0.021564245,0.01043582,-2.5189428,0.0,1.0363877,0.0,0.0,nan,0.0,0.0,0.0,0.0,-0.0005198419,0.00538636,0.0022051968,-0.0060967207,0.03491903,-0.06442459,-0.0040666535,0.0,0.0,0.0,0.0,0.0,0.0
566452383,566352550,-0.007472791,0.029008128,-0.16377315,0.027906895,-0.010082006,-0.056792498,-0.021536533,0.012529375,-0.12356667,-0.021564245,0.01043582,-2.5189428,0.0,1.0363877,0.0,0.0,nan,0.0,0.0,0.0,0.0,-0.0062967986,0.006558098,0.0036444254,-0.007466197,0.10702483,0.03757192,-0.0080277175,0.0,0.0,0.0,0.0,0.0,0.0
566461982,566362434,-0.007472791,0.029008128,-0.16377315,0.027906895,-0.010082006,-0.056792498,-0.022986468,0.012266527,-0.12661457,-0.021463633,0.01020813,-2.5227666,0.0,1.0363877,0.0,0.0,nan,0.0,0.0,0.0,0.0,-0.0062967986,0.006558098,0.0036444254,-0.007466197,-0.11467576,0.028508084,0.008407883,0.0,0.0,0.0,0.0,0.0,0.0
566471859,566372319,-0.007472791,0.029008128,-0.16377315,0.027906895,-0.010082006,-0.056792498,-0.022986468,0.012266527,-0.12661457,-0.021463633,0.01020813,-2.5227666,0.0,1.0363877,0.0,0.0,nan,0.0,0.0,0.0,0.0,-0.0062967986,0.006558098,0.0036444254,-0.007466197,0.030451134,-0.043457568,-0.0032151642,0.0,0.0,0.0,0.0,0.0,0.0
566482682,566382204,-0.059598055,-0.01648856,-0.10468317,0.023398638,-0.010302186,-0.06647134,-0.022986468,0.012266527,-0.12661457,-0.021463633,0.01020813,-2.5227666,0.0,1.0363877,0.0,0.0,nan,0.0,0.0,0.0,0.0,-0.0062967986,0.006558098,0.0036444254,-0.007466197,0.043794353,-0.01618433,-0.003697702,0.0,0.0,0.0,0.0,0.0,0.0
566491984,566392089,-0.059598055,-0.01648856,-0.10468317,0.023398638,-0.010302186,-0.06647134,-0.020400967,0.012780899,-0.12459067,-0.018266916,0.011892796,-2.5204997,0.0,1.0917041,0.0,0.0,nan,0.0,0.0,0.0,0.0,-0.0062967986,0.006558098,0.0036444254,-0.007466197,-0.03499806,0.07067142,0.003583235,0.0,0.0,0.0,0.0,0.0,0.0
566501796,566401973,-0.059598055,-0.01648856,-0.10468317,0.023398638,-0.010302186,-0.06647134,-0.020400967,0.012780899,-0.12459067,-0.018266916,0.011892796,-2.5204997,0.0,1.0917041,0.0,0.0,nan,0.0,0.0,0.0,0.0,-0.0062967986,0.006558098,0.0036444254,-0.007466197,0.028062653,0.016116414,-0.0018733812,0.0,0.0,0.0,0.0,0.0,0.0
566512536,566411860,-0.059598055,-0.01648856,-0.10468317,0.023398638,-0.010302186,-0.06647134,-0.020400967,0.012780899,-0.12459067,-0.018266916,0.011892796,-2.5204997,0.0,1.0917041,0.0,0.0,nan,0.0,0.0,0.0,0.0,-0.0062967986,0.006558098,0.0036444254,-0.007466197,3.3119915e-05,-0.021668866,-0.0004180347,0.0,0.0,0.0,0.0,0.0,0.0
566521864,566421747,-0.059598055,-0.01648856,-0.10468317,0.023398638,-0.010302186,-0.06647134,-0.020400967,0.012780899,-0.12459067,-0.018266916,0.011892796,-2.5204997,0.0,1.0917041,0.0,0.0,nan,0.0,0.0,0.0,0.0,-0.0032334179,0.006133251,0.0029675402,-0.007142842,-0.047168866,0.004666883,0.0035138577,0.0,0.0,0.0,0.0,0.0,0.0
566531690,566431627,-0.059598055,-0.01648856,-0.10468317,0.023398638,-0.010302186,-0.06647134,-0.01852401,0.0128541365,-0.1269547,-0.018296719,0.011821508,-2.5256271,0.0,1.0917041,0.0,0.0,nan,0.0,0.0,0.0,0.0,-0.0032334179,0.006133251,0.0029675402,-0.007142842,-0.13303684,-0.03793667,0.008340998,0.0,0.0,0.0,0.0,0.0,0.0
566541537,566441512,-0.059598055,-0.01648856,-0.10468317,0.023398638,-0.010302186,-0.06647134,-0.01852401,0.0128541365,-0.1269547,-0.018296719,0.011821508,-2.5256271,0.0,1.0917041,0.0,0.0,nan,0.0,0.0,0.0,0.0,-0.0032334179,0.006133251,0.0029675402,-0.007142842,0.18276586,0.0037627488,-0.015397502,0.0,0.0,0.0,0.0,0.0,0.0
566551545,566451398,-0.059598055,-0.01648856,-0.10468317,0.023398638,-0.010302186,-0.06647134,-0.01852401,0.0128541365,-0.1269547,-0.018296719,0.011821508,-2.5256271,0.0,0.84842205,0.0,0.0,nan,0.0,0.0,0.0,0.0,-0.0032334179,0.006133251,0.0029675402,-0.007142842,-0.069452606,0.06710106,0.0059504844,0.0,0.0,0.0,0.0,0.0,0.0
566560843,566461284,-0.059598055,-0.01648856,-0.10468317,0.023398638,-0.010302186,-0.06647134,-0.020044817,0.012221591,-0.1305357,-0.01820612,0.011568427,-2.5320518,0.0,0.84842205,0.0,0.0,nan,0.0,0.0,0.0,0.0,-0.0032334179,0.006133251,0.0029675402,-0.007142842,-0.10064754,-0.0037143538,0.006986656,0.0,0.0,0.0,0.0,0.0,0.0
566570599,566471167,-0.059598055,-0.01648856,-0.10468317,0.023398638,-0.010302186,-0.06647134,-0.020044817,0.012221591,-0.1305357,-0.01820612,0.011568427,-2.5320518,0.0,0.84842205,0.0,0.0,nan,0.0,0.0,0.0,0.0,-0.0032334179,0.006133251,0.0029675402,-0.007142842,0.35401228,-0.017829161,-0.033430044,0.0,0.0,0.0,0.0,0.0,0.0
566580529,566481052,-0.059598055,-0.01648856,-0.10468317,0.023398638,-0.010302186,-0.06647134,-0.020044817,0.012221591,-0.1305357,-0.01820612,0.011568427,-2.5320518,0.0,0.84842205,0.0,0.0,nan,0.0,0.0,0.0,0.0,-0.0032334179,0.006133251,0.0029675402,-0.007142842,-0.20866995,-0.033956002,0.012776347,0.0,0.0,0.0,0.0,0.0,0.0
566590643,566490937,-0.059598055,-0.01648856,-0.10468317,0.023398638,-0.010302186,-0.06647134,-0.020044817,0.012221591,-0.1305357,-0.01820612,0.011568427,-2.5320518,0.0,0.84842205,0.0,0.0,nan,0.0,0.0,0.0,0.0,0.005435899,0.011319622,0.0033760704,-0.0087967515,-0.01563204,0.012577205,0.0013791121,0.0,0.0,0.0,0.0,0.0,0.0
566600498,566500824,-0.059598055,-0.01648856,-0.10468317,0.023398638,-0.010302186,-0.06647134,-0.019024925,0.013150721,-0.1329954,-0.018085718,0.011573315,-2.537595,0.0,0.84842205,0.0,0.0,nan,0.0,0.0,0.0,0.0,0.005435899,0.011319622,0.0033760704,-0.0087967515,0.19043271,0.037815396,-0.015565211,0.0,0.0,0.0,0.0,0.0,0.0
566612004,566510706,0.0170256,0.01567234,-0.14830734,0.023519754,-0.0069594383,-0.060695887,-0.019024925,0.013150721,-0.1329954,-0.018085718,0.011573315,-2.537595,0.0,0.84842205,0.0,0.0,nan,0.0,0.0,0.0,0.0,0.005435899,0.011319622,0.0033760704,-0.0087967515,-0.17968917,-0.07692758,0.010141631,0.0,0.0,0.0,0.0,0.0,0.0
566620351,566520591,0.0170256,0.01567234,-0.14830734,0.023519754,-0.0069594383,-0.060695887,-0.019024925,0.013150721,-0.1329954,-0.018085718,0.011573315,-2.537595,0.0,0.9217603,0.0,0.0,nan,0.0,0.0,0.0,0.0,0.005435899,0.011319622,0.0033760704,-0.0087967515,0.0045092558,-0.023200598,-0.0007851941,0.0,0.0,0.0,0.0,0.0,0.0
566630534,566530476,0.0170256,0.01567234,-0.14830734,0.023519754,-0.0069594383,-0.060695887,-0.021089146,0.012397455,-0.12877399,-0.020915985,0.010667324,-2.5328295,0.0,0.9217603,0.0,0.0,nan,0.0,0.0,0.0,0.0,0.005435899,0.011319622,0.0033760704,-0.0087967515,0.08709075,0.084646225,-0.005776241,0.0,0.0,0.0,0.0,0.0,0.0
566640120,566540361,0.0170256,0.01567234,-0.14830734,0.023519754,-0.0069594383,-0.060695887,-0.021089146,0.012397455,-0.12877399,-0.020915985,0.010667324,-2.5328295,0.0,0.9217603,0.0,0.0,nan,0.0,0.0,0.0,0.0,0.005435899,0.011319622,0.0033760704,-0.0087967515,-0.07514022,-0.034519337,0.004669214,0.0,0.0,0.0,0.0,0.0,0.0
566649804,566550245,0.0170256,0.01567234,-0.14830734,0.023519754,-0.0069594383,-0.060695887,-0.021089146,0.012397455,-0.12877399,-0.020915985,0.010667324,-2.5328295,0.0,0.9217603,0.0,0.0,nan,0.0,0.0,0.0,0.0,0.005435899,0.011319622,0.0033760704,-0.0087967515,0.0009947611,0.009355711,8.7694665e-05,0.0,0.0,0.0,0.0,0.0,0.0
566659733,566560130,0.0170256,0.01567234,-0.14830734,0.023519754,-0.0069594383,-0.060695887,-0.0217433,0.0133195445,-0.13010578,-0.020741701,0.010551572,-2.5367699,0.0,0.9217603,0.0,0.0,nan,0.0,0.0,0.0,0.0,0.0021875352,0.0075903013,0.002792243,-0.012660146,0.07128067,-0.011164942,-0.005829513,0.0,0.0,0.0,0.0,0.0,0.0
566669596,566570015,0.0170256,0.01567234,-0.14830734,0.023519754,-0.0069594383,-0.060695887,-0.0217433,0.0133195445,-0.13010578,-0.020741701,0.010551572,-2.5367699,0.0,0.9217603,0.0,0.0,nan,0.0,0.0,0.0,0.0,0.0021875352,0.0075903013,0.002792243,-0.012660146,-0.055075098,-0.063498415,0.0026312142,0.0,0.0,0.0,0.0,0.0,0.0
566679461,566579900,0.0170256,0.01567234,-0.14830734,0.023519754,-0.0069594383,-0.060695887,-0.0217433,0.0133195445,-0.13010578,-0.020741701,0.010551572,-2.5367699,0.0,0.9217603,0.0,0.0,nan,0.0,0.0,0.0,0.0,0.0021875352,0.0075903013,0.002792243,-0.012660146,0.09337571,0.011799759,-0.0072565945,0.0,0.0,0.0,0.0,0.0,0.0
566689389,566589785,0.0170256,0.01567234,-0.14830734,0.023519754,-0.0069594383,-0.060695887,-0.0217433,0.0133195445,-0.13010578,-0.020741701,0.010551572,-2.5367699,0.0,1.1740768,0.0,0.0,nan,0.0,0.0,0.0,0.0,0.0021875352,0.0075903013,0.002792243,-0.012660146,-0.047041047,0.07265142,0.0044562137,0.0,0.0,0.0,0.0,0.0,0.0
566699348,566599669,0.0170256,0.01567234,-0.14830734,0.023519754,-0.0069594383,-0.060695887,-0.023462879,0.013269233,-0.13259885,-0.020824432,0.0105021,-2.5453165,0.0,1.1740768,0.0,0.0,nan,0.0,0.0,0.0,0.0,0.0021875352,0.0075903013,0.002792243,-0.012660146,0.010243902,0.035299845,-0.00020507596,0.0,0.0,0.0,0.0,0.0,0.0
566709247,566609554,0.0170256,0.01567234,-0.14830734,0.023519754,-0.0069594383,-0.060695887,-0.023462879,0.013269233,-0.13259885,-0.020824432,0.0105021,-2.5453165,0.0,1.1740768,0.0,0.0,nan,0.0,0.0,0.0,0.0,0.0021875352,0.0075903013,0.002792243,-0.012660146,0.009548015,-0.011116367,-0.0009286825,0.0,0.0,0.0,0.0,0.0,0.0
566719215,566619439,0.0170256,0.01567234,-0.14830734,0.023519754,-0.0069594383,-0.060695887,-0.023462879,0.013269233,-0.13259885,-0.020824432,0.0105021,-2.5453165,0.0,1.1740768,0.0,0.0,nan,0.0,0.0,0.0,0.0,0.0021875352,0.0075903013,0.002792243,-0.012660146,-0.06387935,-0.041737866,0.0037441351,0.0,0.0,0.0,0.0,0.0,0.0
566729174,566629324,0.0170256,0.01567234,-0.14830734,0.023519754,-0.0069594383,-0.060695887,-0.023434391,0.011799443,-0.13302171,-0.02063346,0.010235429,-2.5493965,0.0,1.1740768,0.0,0.0,nan,0.0,0.0,0.0,0.0,0.0063669533,0.0034675822,0.00042358786,-0.0077163577,0.026184287,-0.0038178726,-0.0020735739,0.0,0.0,0.0,0.0,0.0,0.0
566739377,566639223,-0.05455481,0.05641307,-0.07768191,0.017544508,-0.0006811619,-0.059206486,-0.023434391,0.011799443,-0.13302171,-0.02063346,0.010235429,-2.5493965,0.0,1.1740768,0.0,0.0,nan,0.0,0.0,0.0,0.0,0.0063669533,0.0034675822,0.00042358786,-0.0077163577,0.019183189,0.01944153,-0.0011287448,0.0,0.0,0.0,0.0,0.0,0.0
566748637,566649103,-0.05455481,0.05641307,-0.07768191,0.017544508,-0.0006811619,-0.059206486,-0.023434391,0.011799443,-0.13302171,-0.02063346,0.010235429,-2.5493965,0.0,0.88449955,0.0,0.0,nan,0.0,0.0,0.0,0.0,0.0063669533,0.0034675822,0.00042358786,-0.0077163577,-0.004674832,0.045673653,0.0010698577,0.0,0.0,0.0,0.0,0.0,0.0
566758515,566658979,-0.05455481,0.05641307,-0.07768191,0.017544508,-0.0006811619,-0.059206486,-0.020178838,0.008221398,-0.13237396,-0.017354727,0.005735278,-2.548576,0.0,0.88449955,0.0,0.0,nan,0.0,0.0,0.0,0.0,0.0063669533,0.0034675822,0.00042358786,-0.0077163577,0.021502577,-0.023141816,-0.0020870399,0.0,0.0,0.0,0.0,0.0,0.0
