timestamp,timestamp_sample,gyro_device_id,gyro_bias[0],gyro_bias[1],gyro_bias[2],gyro_bias_limit,gyro_bias_variance[0],gyro_bias_variance[1],gyro_bias_variance[2],accel_device_id,accel_bias[0],accel_bias[1],accel_bias[2],accel_bias_limit,accel_bias_variance[0],accel_bias_variance[1],accel_bias_variance[2],mag_device_id,mag_bias[0],mag_bias[1],mag_bias[2],mag_bias_limit,mag_bias_variance[0],mag_bias_variance[1],mag_bias_variance[2],gyro_bias_valid,gyro_bias_stable,accel_bias_valid,accel_bias_stable,mag_bias_valid,mag_bias_stable
564172439,564070957,3670026,-0.004122576,-0.0009615645,-7.136363e-05,0.15,1.9252751e-07,1.9132e-07,4.293662e-07,3670026,-0.024512237,0.044128157,-0.031254865,0.4,0.001125618,0.0011289791,0.0004980823,527625,0.0,0.0,0.0,0.5,0.0025000002,0.0025000002,0.0025000002,1,1,1,0,1,0
565174325,565072883,3670026,-0.004158201,-0.0009553781,-6.960885e-05,0.15,1.9248643e-07,1.9127904e-07,4.292037e-07,3670026,-0.024508808,0.0441316,-0.031160276,0.4,0.0011257094,0.0011290705,0.0004980855,527625,0.0,0.0,0.0,0.5,0.0025000002,0.0025000002,0.0025000002,1,1,1,0,1,0
565726051,565623947,3670026,-0.004181877,-0.0009551891,-6.6081535e-05,0.15,1.9172593e-07,1.9051828e-07,4.2891074e-07,3670026,-0.024503602,0.04414199,-0.032478493,0.4,0.0011257477,0.0011291088,0.0004980767,527625,0.0,0.0,0.0,0.5,0.0025000002,0.0025000002,0.0025000002,1,1,1,0,1,0
565976561,565874423,3670026,-0.0041930755,-0.0009558664,-6.23568e-05,0.15,1.9174784e-07,1.9054438e-07,4.285285e-07,3670026,-0.024500957,0.04415183,-0.03368752,0.4,0.0011257784,0.0011291396,0.0004980813,527625,0.0,0.0,0.0,0.5,0.0025000002,0.0025000002,0.0025000002,1,1,1,0,1,0
566277166,566174998,3670026,-0.0042016194,-0.00095346716,-5.851107e-05,0.15,1.921258e-07,1.909264e-07,4.2864934e-07,3670026,-0.024494406,0.044160184,-0.035161242,0.4,0.0011258054,0.0011291667,0.00049808284,527625,0.0,0.0,0.0,0.5,0.0025000002,0.0025000002,0.0025000002,1,1,1,0,1,0
566357365,566255152,3670026,-0.004204733,-0.0009546462,-5.7665937e-05,0.15,1.9168203e-07,1.9048133e-07,4.2872773e-07,3670026,-0.024493836,0.044163074,-0.036174785,0.4,0.0011258101,0.0011291713,0.0004980825,527625,0.0,0.0,0.0,0.5,0.0025000002,0.0025000002,0.0025000002,1,1,1,0,1,0
566607789,566505634,3670026,-0.0042176503,-0.0009548821,-5.7900357e-05,0.15,1.9167865e-07,1.9048294e-07,4.2835075e-07,3670026,-0.024490021,0.044176623,-0.037814196,0.4,0.0011258253,0.0011291867,0.00049808074,527625,0.0,0.0,0.0,0.5,0.0025000002,0.0025000002,0.0025000002,1,1,1,0,1,0
566858408,566756114,3670026,-0.0042257914,-0.0009520464,-5.674421e-05,0.15,1.9167601e-07,1.9048187e-07,4.2869667e-07,3670026,-0.02448319,0.044184443,-0.039375823,0.4,0.0011258462,0.0011292077,0.0004980813,527625,0.0,0.0,0.0,0.5,0.0025000002,0.0025000002,0.0025000002,1,1,1,0,1,0
567108969,567006593,3670026,-0.0042369375,-0.00095317,-5.502124e-05,0.15,1.9167788e-07,1.904896e-07,4.2832798e-07,3670026,-0.024479574,0.044197436,-0.04143263,0.4,0.0011258676,0.0011292292,0.00049808266,527625,0.0,0.0,0.0,0.5,0.0025000002,0.0025000002,0.0025000002,1,1,1,0,1,0
567269094,567166901,3670026,-0.0042452565,-0.0009553958,-5.248904e-05,0.15,1.9195339e-07,1.9076728e-07,4.2849436e-07,3670026,-0.024478938,0.044209532,-0.042737857,0.4,0.001125878,0.0011292394,0.0004980822,527625,0.0,0.0,0.0,0.5,0.0025000002,0.0025000002,0.0025000002,1,0,1,0,1,0
567359289,567257073,3670026,-0.004249165,-0.0009550395,-5.998484e-05,0.15,1.9159927e-07,1.904151e-07,4.2795972e-07,3670026,-0.02447343,0.04421462,-0.044218227,0.4,0.0011258835,0.0011292453,0.0004980831,527625,0.0,0.0,0.0,0.5,0.0025000002,0.0025000002,0.0025000002,1,0,1,0,1,0
567480146,567377303,3670026,-0.0042598313,-0.00095494295,-6.71742e-05,0.15,1.9151933e-07,1.9033746e-07,4.2844567e-07,3670026,-0.024446817,0.044251427,-0.0462554,0.4,0.0011258697,0.0011292327,0.0004980833,527625,0.0,0.0,0.0,0.5,0.0025000002,0.0025000002,0.0025000002,1,0,1,0,1,0
567609725,567507549,3670026,-0.0042697135,-0.00096469925,-0.000101887454,0.15,1.9146428e-07,1.9028819e-07,4.283186e-07,3670026,-0.024463048,0.044295743,-0.04904267,0.4,0.0011257855,0.0011291543,0.0004980869,527625,0.0,0.0,0.0,0.5,0.0025000002,0.0025000002,0.0025000002,1,0,1,0,1,0
567739953,567637796,3670026,-0.004268495,-0.00096116133,-0.00012357163,0.15,1.913764e-07,1.902056e-07,4.281914e-07,3670026,-0.024335,0.04423527,-0.051371135,0.4,0.0011256415,0.0011290219,0.0004980893,527625,0.0,0.0,0.0,0.5,0.0025000002,0.0025000002,0.0025000002,1,0,1,0,1,0
567860470,567758023,3670026,-0.004284818,-0.000977932,-0.0001331965,0.15,1.9122292e-07,1.9005742e-07,4.2796495e-07,3670026,-0.024379797,0.04435979,-0.05436562,0.4,0.001125522,0.0011289169,0.000498092,527625,0.0,0.0,0.0,0.5,0.0025000002,0.0025000002,0.0025000002,1,0,1,0,1,0
567980698,567878250,3670026,-0.004280235,-0.00095306226,-0.00013833752,0.15,1.9110047e-07,1.8993812e-07,4.284547e-07,3670026,-0.024066696,0.04427452,-0.055940118,0.4,0.0011254181,0.0011288325,0.00049809425,527625,0.0,0.0,0.0,0.5,0.0025000002,0.0025000002,0.0025000002,1,0,1,0,1,0
568110780,568008503,3670026,-0.004281288,-0.0009698286,-0.00014415632,0.15,1.9107308e-07,1.8991989e-07,4.2832488e-07,3670026,-0.024053758,0.044234592,-0.05845456,0.4,0.0011253072,0.0011287468,0.0004980897,527625,0.0,0.0,0.0,0.5,0.0025000002,0.0025000002,0.0025000002,1,0,1,0,1,0
568280879,568178825,3670026,-0.004290366,-0.0009785617,-0.00014364411,0.15,1.9137185e-07,1.9023334e-07,4.278889e-07,3670026,-0.024003977,0.04426049,-0.06019767,0.4,0.0011252172,0.0011286924,0.00049809227,527625,0.0,0.0,0.0,0.5,0.0025000002,0.0025000002,0.0025000002,1,0,1,0,1,0
568361542,568258971,3670026,-0.0042762645,-0.0009811077,-0.00015162352,0.15,1.9088117e-07,1.8974795e-07,4.279821e-07,3670026,-0.023723014,0.044051535,-0.06398226,0.4,0.0011251223,0.0011286364,0.000498099,527625,0.0,0.0,0.0,0.5,0.0025000002,0.0025000002,0.0025000002,1,0,1,0,1,0
568481404,568379199,3670026,-0.0042866655,-0.00096234045,-0.00015687481,0.15,1.9075605e-07,1.8963011e-07,4.2775693e-07,3670026,-0.02331895,0.044093072,-0.06639499,0.4,0.0011249343,0.0011284968,0.00049809983,527625,0.0,0.0,0.0,0.5,0.0025000002,0.0025000002,0.0025000002,1,0,1,0,1,0
568612844,568509446,3670026,-0.004278518,-0.00096891285,-0.00016075707,0.15,1.9071943e-07,1.8959719e-07,4.2834597e-07,3670026,-0.023067145,0.043888137,-0.06981446,0.4,0.0011247162,0.001128338,0.0004981,527625,0.0,0.0,0.0,0.5,0.0025000002,0.0025000002,0.0025000002,1,0,1,0,1,0
568741778,568639692,3670026,-0.0042870515,-0.00096359523,-0.00017332185,0.15,1.9069844e-07,1.895833e-07,4.2822353e-07,3670026,-0.022781212,0.043883216,-0.07232876,0.4,0.0011245348,0.0011282255,0.00049810135,527625,0.0,0.0,0.0,0.5,0.0025000002,0.0025000002,0.0025000002,1,0,1,0,1,0
568862105,568759920,3670026,-0.004280338,-0.0009673451,-0.0001765187,0.15,1.9064868e-07,1.895369e-07,4.287138e-07,3670026,-0.022388471,0.043705642,-0.076195344,0.4,0.001124418,0.0011281845,0.0004981018,527625,0.0,0.0,0.0,0.5,0.0025000002,0.0025000002,0.0025000002,1,0,1,0,1,0
568973359,568870128,3670026,-0.0042837546,-0.00097347493,-0.00017651175,0.15,1.9067375e-07,1.8956202e-07,4.2981816e-07,3670026,-0.02205681,0.043573596,-0.07903653,0.4,0.0011242875,0.0011281302,0.0004981032,527625,0.0,0.0,0.0,0.5,0.0025000002,0.0025000002,0.0025000002,1,0,1,0,1,0
569112941,569010409,3670026,-0.0042899046,-0.0009755114,-0.0001763765,0.15,1.9111599e-07,1.9000427e-07,4.3120983e-07,3670026,-0.021716282,0.04330944,-0.082048126,0.4,0.0011236499,0.0011275682,0.0004980885,527625,0.0,0.0,0.0,0.5,0.0025000002,0.0025000002,0.0025000002,1,0,1,0,1,0
569273052,569170697,3670026,-0.004297601,-0.00097347016,-0.0001760252,0.15,1.9186265e-07,1.9075064e-07,4.328286e-07,3670026,-0.021516081,0.04286698,-0.085217535,0.4,0.0011220145,0.001126005,0.00049810467,527625,0.0,0.0,0.0,0.5,0.0025000002,0.0025000002,0.0025000002,1,0,1,0,1,0
569363059,569260868,3670026,-0.004307119,-0.0009833862,-0.0001758063,0.15,1.9201397e-07,1.9090166e-07,4.337312e-07,3670026,-0.020743504,0.042168945,-0.087702796,0.4,0.0011196486,0.0011237048,0.0004981048,527625,0.0,0.0,0.0,0.5,0.0025000002,0.0025000002,0.0025000002,1,0,1,0,1,0
569483223,569381095,3670026,-0.004307187,-0.0009823417,-0.00017573472,0.15,1.9254767e-07,1.9143499e-07,4.349359e-07,3670026,-0.020456452,0.042056963,-0.091111735,0.4,0.0011161477,0.0011202627,0.0004981059,527625,0.0,0.0,0.0,0.5,0.0025000002,0.0025000002,0.0025000002,1,0,1,0,1,0
569603644,569501337,3670026,-0.0043091564,-0.0009838103,-0.00017561398,0.15,1.9314578e-07,1.9203263e-07,4.3612678e-07,3670026,-0.02002912,0.04175395,-0.093991965,0.4,0.0011113666,0.0011155326,0.000498092,527625,0.0,0.0,0.0,0.5,0.0025000002,0.0025000002,0.0025000002,1,0,1,0,1,0
569733985,569631569,3670026,-0.004314558,-0.0009852187,-0.00017535154,0.15,1.9391447e-07,1.9280061e-07,4.374432e-07,3670026,-0.019604353,0.04099317,-0.09693482,0.4,0.0011051862,0.0011093968,0.00049810717,527625,0.0,0.0,0.0,0.5,0.0025000002,0.0025000002,0.0025000002,1,0,1,0,1,0
569863916,569761816,3670026,-0.0043174056,-0.0009847368,-0.00017525621,0.15,1.9473056e-07,1.9361596e-07,4.3874692e-07,3670026,-0.019425904,0.04049328,-0.09973553,0.4,0.0010975166,0.0011017653,0.00049810717,527625,0.0,0.0,0.0,0.5,0.0025000002,0.0025000002,0.0025000002,1,0,1,0,1,0
569974465,569872025,3670026,-0.0043153227,-0.0009768431,-0.00017484762,0.15,1.9540153e-07,1.9428603e-07,4.3984858e-07,3670026,-0.020451501,0.040834244,-0.10206592,0.4,0.0010888699,0.0010931515,0.00049810717,527625,0.0,0.0,0.0,0.5,0.0025000002,0.0025000002,0.0025000002,1,0,1,0,1,0
570115588,570012290,3670026,-0.0043149423,-0.0009772318,-0.00017459516,0.15,1.9641352e-07,1.9529713e-07,4.412529e-07,3670026,-0.020002676,0.04078526,-0.10525407,0.4,0.0010787533,0.0010830628,0.0004981079,527625,0.0,0.0,0.0,0.5,0.0025000002,0.0025000002,0.0025000002,1,0,1,0,1,0
570284704,570182611,3670026,-0.0043138117,-0.0009744825,-0.0001742146,0.15,1.9775455e-07,1.9663722e-07,4.4295712e-07,3670026,-0.02025329,0.040944435,-0.108298086,0.4,0.0010667308,0.0010710617,0.00049810985,527625,0.0,0.0,0.0,0.5,0.0025000002,0.0025000002,0.0025000002,1,0,1,0,1,0
570355238,570252744,3670026,-0.0043126154,-0.00097455777,-0.0001741759,0.15,1.9814776e-07,1.9702968e-07,4.4365686e-07,3670026,-0.019868555,0.041104615,-0.11141674,0.4,0.0010552948,0.0010596444,0.0004981093,527625,0.0,0.0,0.0,0.5,0.0025000002,0.0025000002,0.0025000002,1,0,1,0,1,0
570485175,570382994,3670026,-0.0043121693,-0.0009728534,-0.00017419021,0.15,1.991723e-07,1.9805354e-07,4.4495806e-07,3670026,-0.01984957,0.04107175,-0.114935294,0.4,0.0010431885,0.001047553,0.0004981056,527625,0.0,0.0,0.0,0.5,0.0025000002,0.0025000002,0.0025000002,1,0,1,0,1,0
570616037,570513235,3670026,-0.0043149525,-0.00096801086,-0.0001745268,0.15,2.0022748e-07,1.9910809e-07,4.4626384e-07,3670026,-0.020864319,0.040232413,-0.117945716,0.4,0.001030682,0.001035059,0.0004981108,527625,0.0,0.0,0.0,0.5,0.0025000002,0.0025000002,0.0025000002,1,0,1,0,1,0
570725724,570623443,3670026,-0.0043164366,-0.00096360064,-0.00017459998,0.15,2.0110863e-07,1.9998868e-07,4.4736387e-07,3670026,-0.021862568,0.03973254,-0.120654285,0.4,0.0010183558,0.0010227461,0.0004981108,527625,0.0,0.0,0.0,0.5,0.0025000002,0.0025000002,0.0025000002,1,0,1,0,1,0
570865851,570763708,3670026,-0.004318237,-0.00096078403,-0.00017412043,0.15,2.023097e-07,2.011892e-07,4.4876086e-07,3670026,-0.022284271,0.039027736,-0.123947665,0.4,0.0010057536,0.0010101603,0.000498111,527625,0.0,0.0,0.0,0.5,0.0025000002,0.0025000002,0.0025000002,1,0,1,0,1,0
570986100,570883934,3670026,-0.0043221726,-0.0009562558,-0.00017415948,0.15,2.0333042e-07,2.0220936e-07,4.4995693e-07,3670026,-0.023372725,0.037629176,-0.1269133,0.4,0.0009935016,0.0009979293,0.000498112,527625,0.0,0.0,0.0,0.5,0.0025000002,0.0025000002,0.0025000002,1,0,1,0,1,0
571106450,571004161,3670026,-0.004324969,-0.0009522874,-0.00017442922,0.15,2.0436747e-07,2.0324593e-07,4.5115573e-07,3670026,-0.024271524,0.036548052,-0.12994638,0.4,0.0009817118,0.0009861668,0.0004981121,527625,0.0,0.0,0.0,0.5,0.0025000002,0.0025000002,0.0025000002,1,0,1,0,1,0
571266895,571164462,3670026,-0.0043288046,-0.0009505226,-0.00017419268,0.15,2.0581459e-07,2.0469268e-07,4.5274638e-07,3670026,-0.024412533,0.03506664,-0.13308203,0.4,0.00096976105,0.0009742485,0.0004981137,527625,0.0,0.0,0.0,0.5,0.0025000002,0.0025000002,0.0025000002,1,0,1,0,1,0
571357151,571254632,3670026,-0.00433289,-0.0009471231,-0.000174788,0.15,2.065814e-07,2.0545907e-07,4.5364268e-07,3670026,-0.025493134,0.033551812,-0.13459137,0.4,0.000958767,0.00096329075,0.0004981138,527625,0.0,0.0,0.0,0.5,0.0025000002,0.0025000002,0.0025000002,1,0,1,0,1,0
571478042,571374858,3670026,-0.004335714,-0.0009448305,-0.00017532922,0.15,2.076656e-07,2.065428e-07,4.5484632e-07,3670026,-0.026256377,0.032496598,-0.13584235,0.4,0.0009479993,0.0009525615,0.0004981148,527625,0.0,0.0,0.0,0.5,0.0025000002,0.0025000002,0.0025000002,1,0,1,0,1,0
571607161,571505103,3670026,-0.0043410985,-0.0009410997,-0.00017641007,0.15,2.0885768e-07,2.0773446e-07,4.5614345e-07,3670026,-0.027258985,0.030276883,-0.13888066,0.4,0.0009375716,0.0009421749,0.0004981157,527625,0.0,0.0,0.0,0.5,0.0025000002,0.0025000002,0.0025000002,1,0,1,0,1,0
571737620,571635348,3670026,-0.0043466017,-0.0009380848,-0.00017785735,0.15,2.1005165e-07,2.0892817e-07,4.5743946e-07,3670026,-0.028048804,0.028171763,-0.14108002,0.4,0.0009277683,0.00093241344,0.00049811654,527625,0.0,0.0,0.0,0.5,0.0025000002,0.0025000002,0.0025000002,1,0,1,0,1,0
571857782,571755575,3670026,-0.004351813,-0.00093766203,-0.00017867514,0.15,2.1114813e-07,2.1002447e-07,4.5864064e-07,3670026,-0.027741553,0.02620776,-0.144029,0.4,0.0009186828,0.00092337216,0.00049811625,527625,0.0,0.0,0.0,0.5,0.0025000002,0.0025000002,0.0025000002,1,0,1,0,1,0
571988010,571885821,3670026,-0.0043597734,-0.00093837327,-0.00017940791,0.15,2.1234405e-07,2.1122055e-07,4.5992337e-07,3670026,-0.027055101,0.023503726,-0.14664263,0.4,0.00091022794,0.00091494527,0.00049811625,527625,0.0,0.0,0.0,0.5,0.0025000002,0.0025000002,0.0025000002,1,0,1,0,1,0
572108191,572006047,3670026,-0.0043661613,-0.00093992136,-0.00018023909,0.15,2.1344033e-07,2.1231716e-07,4.6111464e-07,3670026,-0.025999114,0.021398084,-0.15010355,0.4,0.0009024585,0.0009071989,0.00049811683,527625,0.0,0.0,0.0,0.5,0.0025000002,0.0025000002,0.0025000002,1,0,1,0,1,0
572268496,572166350,3670026,-0.0043738713,-0.00094105344,-0.00018279914,0.15,2.1491755e-07,2.1379518e-07,4.6269471e-07,3670026,-0.025054332,0.019190688,-0.15413061,0.4,0.0008953786,0.0009001418,0.0004981162,527625,0.0,0.0,0.0,0.5,0.0025000002,0.0025000002,0.0025000002,1,0,1,0,1,0
572358793,572256520,3670026,-0.004382196,-0.00094398024,-0.00018459928,0.15,2.1569868e-07,2.1457726e-07,4.6357178e-07,3670026,-0.02389375,0.017043222,-0.15694055,0.4,0.0008892132,0.0008939925,0.00049811637,527625,0.0,0.0,0.0,0.5,0.0025000002,0.0025000002,0.0025000002,1,0,1,0,1,0
572479132,572376747,3670026,-0.0043900986,-0.0009454252,-0.00018543653,0.15,2.1677876e-07,2.1565836e-07,4.6475964e-07,3670026,-0.023188079,0.015134453,-0.15936494,0.4,0.00088355114,0.00088834955,0.00049811625,527625,0.0,0.0,0.0,0.5,0.0025000002,0.0025000002,0.0025000002,1,0,1,0,1,0
572609353,572506992,3670026,-0.0043997187,-0.0009421335,-0.00018679962,0.15,2.1795151e-07,2.1683242e-07,4.660366e-07,3670026,-0.023560142,0.013028361,-0.16122106,0.4,0.0008783272,0.0008831454,0.00049811683,527625,0.0,0.0,0.0,0.5,0.0025000002,0.0025000002,0.0025000002,1,0,1,0,1,0
572739617,572637238,3670026,-0.004407859,-0.0009539213,-0.00018561995,0.15,2.1912498e-07,2.180074e-07,4.6731088e-07,3670026,-0.020837724,0.011330396,-0.16345038,0.4,0.00087325205,0.0008780787,0.0004981165,527625,0.0,0.0,0.0,0.5,0.0025000002,0.0025000002,0.0025000002,1,0,1,0,1,0
572859720,572757466,3670026,-0.004417227,-0.00095425226,-0.00018662865,0.15,2.2020588e-07,2.1908986e-07,4.6849556e-07,3670026,-0.020743232,0.009419944,-0.16340776,0.4,0.00086823397,0.0008730585,0.00049811543,527625,0.0,0.0,0.0,0.5,0.0025000002,0.0025000002,0.0025000002,1,0,1,0,1,0
572989926,572887712,3670026,-0.0044252793,-0.00095955,-0.00018733426,0.15,2.213762e-07,2.2026235e-07,4.6979372e-07,3670026,-0.019470101,0.007826571,-0.16515127,0.4,0.0008635681,0.0008683757,0.0004981154,527625,0.0,0.0,0.0,0.5,0.0025000002,0.0025000002,0.0025000002,1,0,1,0,1,0
573120411,573017958,3670026,-0.0044328435,-0.00096727855,-0.0001891975,0.15,2.2252483e-07,2.214145e-07,4.7107508e-07,3670026,-0.017896563,0.0064818705,-0.16721697,0.4,0.0008594054,0.00086417294,0.00049811514,527625,0.0,0.0,0.0,0.5,0.0025000002,0.0025000002,0.0025000002,1,0,1,0,1,0
573280710,573178264,3670026,-0.004443194,-0.0009811942,-0.00018927327,0.15,2.2394197e-07,2.2283713e-07,4.7265036e-07,3670026,-0.015605062,0.0049211094,-0.16929711,0.4,0.0008555073,0.0008602067,0.00049811194,527625,0.0,0.0,0.0,0.5,0.0025000002,0.0025000002,0.0025000002,1,0,1,0,1,0
573350533,573248393,3670026,-0.0044524497,-0.0009980447,-0.00018860133,0.15,2.2446666e-07,2.2336744e-07,4.7332875e-07,3670026,-0.01304045,0.0036026528,-0.17149185,0.4,0.00085218716,0.0008568216,0.00049811526,527625,0.0,0.0,0.0,0.5,0.0025000002,0.0025000002,0.0025000002,1,0,1,0,1,0
573490891,573388658,3670026,-0.0044594305,-0.0010145496,-0.00018776675,0.15,2.256629e-07,2.2457058e-07,4.7468714e-07,3670026,-0.010802125,0.0026770406,-0.1736674,0.4,0.0008491336,0.0008537044,0.00049811497,527625,0.0,0.0,0.0,0.5,0.0025000002,0.0025000002,0.0025000002,1,0,1,0,1,0
573621054,573518905,3670026,-0.004467735,-0.0010356738,-0.00018685425,0.15,2.267316e-07,2.2564775e-07,4.7596018e-07,3670026,-0.00839231,0.0017553759,-0.17510131,0.4,0.000846385,0.00085088605,0.0004981138,527625,0.0,0.0,0.0,0.5,0.0025000002,0.0025000002,0.0025000002,1,0,1,0,1,0
573741531,573639132,3670026,-0.0044718706,-0.0010596577,-0.00018434231,0.15,2.2767823e-07,2.2660359e-07,4.771141e-07,3670026,-0.0058811503,0.0012690794,-0.17727928,0.4,0.000843919,0.00084836036,0.00049811375,527625,0.0,0.0,0.0,0.5,0.0025000002,0.0025000002,0.0025000002,1,0,1,0,1,0
573861919,573759359,3670026,-0.0044775,-0.0010849596,-0.00017993124,0.15,2.2859993e-07,2.2753518e-07,4.7826586e-07,3670026,-0.0035508627,0.0007285107,-0.17918575,0.4,0.0008417201,0.00084611104,0.0004981137,527625,0.0,0.0,0.0,0.5,0.0025000002,0.0025000002,0.0025000002,1,0,1,0,1,0
573991950,573889606,3670026,-0.004476888,-0.0011156313,-0.00017546331,0.15,2.2958913e-07,2.2853527e-07,4.795353e-07,3670026,-0.0010821526,0.0007040441,-0.18099977,0.4,0.00083974603,0.00084408635,0.00049811247,527625,0.0,0.0,0.0,0.5,0.0025000002,0.0025000002,0.0025000002,1,0,1,0,1,0
574112682,574009832,3670026,-0.004490304,-0.0011570097,-0.00017435967,0.15,2.3044737e-07,2.294085e-07,4.807045e-07,3670026,0.0018934736,-0.0002286591,-0.18314174,0.4,0.0008380423,0.00084232,0.00049811346,527625,0.0,0.0,0.0,0.5,0.0025000002,0.0025000002,0.0025000002,1,0,1,0,1,0
574272289,574170134,3670026,-0.0045274883,-0.0012133158,-0.00016680812,0.15,2.3163958e-07,2.3064138e-07,4.822806e-07,3670026,0.0052521965,-0.0022592298,-0.18528359,0.4,0.00083662156,0.0008407585,0.0004981141,527625,0.0,0.0,0.0,0.5,0.0025000002,0.0025000002,0.0025000002,1,0,1,0,1,0
574352534,574250286,3670026,-0.004574968,-0.0012853674,-0.00015182627,0.15,2.3203354e-07,2.3109823e-07,4.8304236e-07,3670026,0.009053488,-0.0045126304,-0.18707551,0.4,0.0008354815,0.0008394443,0.00049811346,527625,0.0,0.0,0.0,0.5,0.0025000002,0.0025000002,0.0025000002,1,0,1,0,1,0
574372515,574270323,3670026,-0.0045749713,-0.0012853683,-0.00015182639,0.15,2.3223468e-07,2.3129938e-07,4.832439e-07,3670026,0.009053496,-0.004512634,-0.18707566,0.4,0.00083548465,0.0008394474,0.0004981161,527625,-0.06206182,-0.101454765,-0.045625973,0.5,0.0016346335,0.0013654513,0.0015899641,1,0,1,0,1,0
574462737,574360494,3670026,-0.004574968,-0.0012853675,-0.00015182627,0.15,2.3313773e-07,2.3220242e-07,4.841466e-07,3670026,0.009053489,-0.004512631,-0.18707553,0.4,0.0008354903,0.00083945395,0.000498118,527625,-0.08108569,-0.13372639,-0.060934145,0.5,0.0014485468,0.00101716,0.0013735365,1,0,1,0,1,0
574533089,574430626,3670026,-0.0045768144,-0.0012904233,-0.00015132478,0.15,2.338021e-07,2.3286977e-07,4.8484816e-07,3670026,0.009676525,-0.0047396156,-0.18757825,0.4,0.0008350317,0.00083898497,0.0004981174,527625,-0.09186789,-0.1490698,-0.06830043,0.5,0.001366384,0.0008461222,0.0012750524,1,0,1,0,1,0
574603045,574500758,3670026,-0.0045768158,-0.0012904237,-0.00015132484,0.15,2.3450494e-07,2.3357259e-07,4.855512e-07,3670026,0.009676529,-0.004739617,-0.1875783,0.4,0.0008350375,0.0008389918,0.00049811974,527625,-0.09884717,-0.15705153,-0.07263911,0.5,0.0013201338,0.0007451568,0.0012172484,1,0,1,0,1,0
574613366,574510777,3670026,-0.0045808596,-0.0012995288,-0.000149914,0.15,2.3455121e-07,2.3362536e-07,4.8564834e-07,3670026,0.01060743,-0.0051368247,-0.1880954,0.4,0.000834576,0.0008385028,0.0004981141,527625,-0.09884717,-0.15705153,-0.07263911,0.5,0.0013201338,0.0007451568,0.0012172484,1,0,1,0,1,0
574683267,574580909,3670026,-0.0045808614,-0.0012995292,-0.00014991406,0.15,2.3525403e-07,2.3432818e-07,4.863514e-07,3670026,0.0106074335,-0.0051368265,-0.18809547,0.4,0.0008345816,0.0008385095,0.00049811543,527625,-0.10200879,-0.16089423,-0.07455863,0.5,0.0012901197,0.0006770059,0.0011798007,1,0,1,0,1,0
574733062,574631003,3670026,-0.0045882342,-0.001314438,-0.00014675297,0.15,2.3568278e-07,2.3476876e-07,4.8684774e-07,3670026,0.011908162,-0.005745223,-0.18871601,0.4,0.00083414046,0.0008380184,0.0004981151,527625,-0.10200879,-0.16089423,-0.07455863,0.5,0.0012901197,0.0006770059,0.0011798007,1,0,1,0,1,0
575354859,575252170,3670026,-0.0046933736,-0.0016425272,-0.00010843903,0.15,2.3962758e-07,2.3909504e-07,4.929488e-07,3670026,0.01594686,-0.0059827915,-0.18907195,0.4,0.0008334249,0.0008373709,0.00049811834,527625,-0.10200879,-0.16089423,-0.07455863,0.5,0.0012899492,0.0006768895,0.0011797736,1,0,1,0,1,0
575484584,575382414,3670026,-0.0046595493,-0.0017495941,-0.00010174332,0.15,2.3938208e-07,2.3895768e-07,4.941856e-07,3670026,0.018346677,-0.0047260453,-0.1898293,0.4,0.0008321687,0.00083622226,0.00049811904,527625,-0.10200879,-0.16089423,-0.07455863,0.5,0.0012899158,0.0006768667,0.0011797682,1,0,1,0,1,0
575615860,575512660,3670026,-0.004581224,-0.0017851522,-8.362868e-05,0.15,2.3918233e-07,2.3874819e-07,4.953917e-07,3670026,0.018755661,-0.00181328,-0.19109567,0.4,0.0008303286,0.00083453377,0.00049811794,527625,-0.10200879,-0.16089423,-0.07455863,0.5,0.0012898496,0.00067682157,0.0011797578,1,0,1,0,1,0
575745500,575642904,3670026,-0.0044501773,-0.0017562804,-4.4764383e-05,0.15,2.3902564e-07,2.3848727e-07,4.96556e-07,3670026,0.016756948,0.003514968,-0.19307052,0.4,0.00082793366,0.0008322958,0.00049811887,527625,-0.10200879,-0.16089423,-0.07455863,0.5,0.0012897844,0.0006767771,0.0011797474,1,0,1,0,1,0
576116192,576013600,3670026,-0.0044740136,-0.001811508,-4.4804554e-05,0.15,2.4209723e-07,2.416226e-07,5.002521e-07,3670026,0.017821025,0.003089567,-0.19320604,0.4,0.00082768407,0.0008320622,0.00049811933,527625,-0.10200879,-0.16089423,-0.07455863,0.5,0.0012896255,0.0006766686,0.0011797221,1,0,1,0,1,0
576396393,576294124,3670026,-0.004434276,-0.001812494,-3.8980153e-05,0.15,2.441672e-07,2.4366145e-07,5.030296e-07,3670026,0.017821083,0.003089577,-0.19320668,0.4,0.00082769844,0.000832075,0.0004981287,527625,-0.098916285,-0.14516304,-0.07953433,0.5,0.0012622593,0.0006037361,0.0011587907,1,0,1,0,1,0
576496996,576394311,3670026,-0.0043958267,-0.0017976075,-3.033294e-05,0.15,2.4470756e-07,2.441629e-07,5.040032e-07,3670026,0.01782008,0.0030924364,-0.19320652,0.4,0.000827705,0.0008320816,0.0004981344,527625,-0.10050035,-0.14264347,-0.08017295,0.5,0.0012447061,0.0005632393,0.0011442003,1,0,1,0,1,0
576596688,576494498,3670026,-0.0043958323,-0.0017976097,-3.0332978e-05,0.15,2.457118e-07,2.451672e-07,5.050082e-07,3670026,0.017820103,0.00309244,-0.19320676,0.4,0.00082771596,0.00083209254,0.00049814465,527625,-0.1024925,-0.14268488,-0.08068558,0.5,0.0012313953,0.0005335682,0.0011321524,1,0,1,0,1,0
576696908,576594684,3670026,-0.004346665,-0.0017751617,-1.8473884e-05,0.15,2.4618444e-07,2.4559253e-07,5.0597646e-07,3670026,0.017800774,0.0031383515,-0.19319989,0.4,0.00082772784,0.00083210453,0.0004981555,527625,-0.10380434,-0.14090395,-0.080628745,0.5,0.0012209268,0.00050728244,0.0011237926,1,0,1,0,1,0
577358258,577255915,3670026,-0.004222434,-0.0017173861,1.0254883e-05,0.15,2.5153307e-07,2.5085407e-07,5.125293e-07,3670026,0.017124332,0.0044668396,-0.19332428,0.4,0.0008265627,0.0008309179,0.00049813313,527625,-0.10380434,-0.14090395,-0.080628745,0.5,0.0012209268,0.00050728244,0.0011237926,1,0,1,0,1,0
577618620,577516397,3670026,-0.0042217327,-0.0017154545,1.0302949e-05,0.15,2.541376e-07,2.5346017e-07,5.151427e-07,3670026,0.016164295,0.0054643005,-0.19355033,0.4,0.00082464336,0.0008290891,0.0004981372,527625,-0.10380434,-0.14090395,-0.080628745,0.5,0.0012209268,0.00050728244,0.0011237926,1,0,1,0,1,0
577738948,577636621,3670026,-0.004221287,-0.0017135447,1.056861e-05,0.15,2.5533643e-07,2.546592e-07,5.163468e-07,3670026,0.015249786,0.0058994615,-0.19373114,0.4,0.00082317484,0.00082778756,0.0004981371,527625,-0.10380434,-0.14090395,-0.080628745,0.5,0.0012209268,0.00050728244,0.0011237926,1,0,1,0,1,0
577999357,577897103,3670026,-0.004220671,-0.0017103766,1.0951755e-05,0.15,2.579271e-07,2.5724867e-07,5.1895887e-07,3670026,0.014029312,0.0065133437,-0.1937766,0.4,0.00081892405,0.00082412566,0.0004981397,527625,-0.10380434,-0.14090395,-0.080628745,0.5,0.0012209268,0.00050728244,0.0011237926,1,0,1,0,1,0
578269836,578167602,3670026,-0.0042195856,-0.0017074194,1.1539746e-05,0.15,2.6059993e-07,2.5991847e-07,5.216719e-07,3670026,0.013059605,0.007231794,-0.19344659,0.4,0.000812818,0.00081876514,0.0004981441,527625,-0.10380434,-0.14090395,-0.080628745,0.5,0.0012209268,0.00050728244,0.0011237926,1,0,1,0,1,0
578370367,578267787,3670026,-0.0042205825,-0.0017043987,1.1453088e-05,0.15,2.6157613e-07,2.6089262e-07,5.226754e-07,3670026,0.012050978,0.006977232,-0.19347957,0.4,0.00080918946,0.0008155255,0.0004981452,527625,-0.10380434,-0.14090395,-0.080628745,0.5,0.0012209268,0.00050728244,0.0011237926,1,0,1,0,1,0
578630726,578528267,3670026,-0.0042179665,-0.0016988666,1.2042337e-05,0.15,2.64097e-07,2.6340777e-07,5.252843e-07,3670026,0.010506405,0.007918958,-0.19368821,0.4,0.00080062833,0.00080780784,0.0004981482,527625,-0.10380434,-0.14090395,-0.080628745,0.5,0.0012209268,0.00050728244,0.0011237926,1,0,1,0,1,0
578740756,578638470,3670026,-0.0042168666,-0.0016939116,1.20834075e-05,0.15,2.6513888e-07,2.6444596e-07,5.263869e-07,3670026,0.009219876,0.00823543,-0.19400291,0.4,0.00079586555,0.00080349814,0.00049814925,527625,-0.10380434,-0.14090395,-0.080628745,0.5,0.0012209268,0.00050728244,0.0011237926,1,0,1,0,1,0
578871028,578768709,3670026,-0.004216134,-0.0016883437,1.1932306e-05,0.15,2.66364e-07,2.6566667e-07,5.2769076e-07,3670026,0.00788986,0.008397801,-0.19453841,0.4,0.0007907331,0.0007988333,0.00049815135,527625,-0.10380434,-0.14090395,-0.080628745,0.5,0.0012209268,0.00050728244,0.0011237926,1,0,1,0,1,0
578991608,578888929,3670026,-0.0042125136,-0.0016833326,1.2314106e-05,0.15,2.6747048e-07,2.667684e-07,5.288936e-07,3670026,0.006787486,0.009181368,-0.19507526,0.4,0.00078539224,0.00079394906,0.0004981536,527625,-0.10380434,-0.14090395,-0.080628745,0.5,0.0012209268,0.00050728244,0.0011237926,1,0,1,0,1,0
579131441,579029186,3670026,-0.0042119687,-0.0016736807,1.166608e-05,0.15,2.6874838e-07,2.680402e-07,5.3029595e-07,3670026,0.004841169,0.009221875,-0.19591579,0.4,0.0007797065,0.00078876776,0.0004981554,527625,-0.10380434,-0.14090395,-0.080628745,0.5,0.0012209268,0.00050728244,0.0011237926,1,0,1,0,1,0
579281635,579179461,3670026,-0.004209358,-0.0016663778,1.1432251e-05,0.15,2.7009247e-07,2.6937707e-07,5.317979e-07,3670026,0.00349671,0.009618109,-0.19681841,0.4,0.00077364984,0.0007832389,0.0004981577,527625,-0.10380434,-0.14090395,-0.080628745,0.5,0.0012209268,0.00050728244,0.0011237926,1,0,1,0,1,0
579371788,579269625,3670026,-0.0042085857,-0.0016572169,1.0697902e-05,0.15,2.7082885e-07,2.7010572e-07,5.326977e-07,3670026,0.0018796236,0.009686833,-0.19760306,0.4,0.0007679231,0.00077802886,0.00049815985,527625,-0.10380434,-0.14090395,-0.080628745,0.5,0.0012209268,0.00050728244,0.0011237926,1,0,1,0,1,0
579492212,579389845,3670026,-0.0042052423,-0.001646372,1.0142674e-05,0.15,2.718403e-07,2.7110764e-07,5.3389743e-07,3670026,0.00010840802,0.01012415,-0.19868426,0.4,0.0007622494,0.0007729155,0.0004981612,527625,-0.10380434,-0.14090395,-0.080628745,0.5,0.0012209268,0.00050728244,0.0011237926,1,0,1,0,1,0
579612394,579510064,3670026,-0.0042023547,-0.0016355995,9.511499e-06,0.15,2.728278e-07,2.7208344e-07,5.350979e-07,3670026,-0.001536325,0.01047268,-0.19966657,0.4,0.00075666443,0.0007679403,0.0004981632,527625,-0.10380434,-0.14090395,-0.080628745,0.5,0.0012209268,0.00050728244,0.0011237926,1,0,1,0,1,0
579742567,579640302,3670026,-0.0042001563,-0.0016231171,8.625369e-06,0.15,2.7388307e-07,2.7312706e-07,5.363966e-07,3670026,-0.0033096771,0.010671623,-0.20087092,0.4,0.000751105,0.0007629371,0.0004981643,527625,-0.10380434,-0.14090395,-0.080628745,0.5,0.0012209268,0.00050728244,0.0011237926,1,0,1,0,1,0
579872816,579770539,3670026,-0.004195253,-0.0016119786,8.208525e-06,0.15,2.7490415e-07,2.7413535e-07,5.3769537e-07,3670026,-0.004775888,0.011183307,-0.2023059,0.4,0.0007456453,0.00075802876,0.0004981662,527625,-0.10380434,-0.14090395,-0.080628745,0.5,0.0012209268,0.00050728244,0.0011237926,1,0,1,0,1,0
579993004,579890758,3670026,-0.004193189,-0.0015988932,7.128106e-06,0.15,2.7579665e-07,2.7501514e-07,5.3889227e-07,3670026,-0.0063896086,0.011296058,-0.20377931,0.4,0.00074039435,0.00075328496,0.0004981677,527625,-0.10380434,-0.14090395,-0.080628745,0.5,0.0012209268,0.00050728244,0.0011237926,1,0,1,0,1,0
580123278,580020994,3670026,-0.0041897586,-0.0015849667,6.1167743e-06,0.15,2.7675452e-07,2.759621e-07,5.4018926e-07,3670026,-0.007993374,0.011531782,-0.2054088,0.4,0.0007352898,0.0007485985,0.0004981704,527625,-0.10380434,-0.14090395,-0.080628745,0.5,0.0012209268,0.00050728244,0.0011237926,1,0,1,0,1,0
580273417,580171267,3670026,-0.004183977,-0.0015735124,5.662769e-06,0.15,2.7785578e-07,2.7705414e-07,5.4168436e-07,3670026,-0.009198038,0.011960141,-0.20732602,0.4,0.000730252,0.0007439061,0.0004981725,527625,-0.10380434,-0.14090395,-0.080628745,0.5,0.0012209268,0.00050728244,0.0011237926,1,0,1,0,1,0
580363669,580261431,3670026,-0.0041816006,-0.001562011,4.6840023e-06,0.15,2.7834992e-07,2.775423e-07,5.425749e-07,3670026,-0.010337215,0.012017581,-0.20919651,0.4,0.00072572194,0.00073962065,0.00049817323,527625,-0.10380434,-0.14090395,-0.080628745,0.5,0.0012209268,0.00050728244,0.0011237926,1,0,1,0,1,0
580493897,580391667,3670026,-0.0041735303,-0.0015488359,4.311596e-06,0.15,2.7919862e-07,2.783896e-07,5.4386555e-07,3670026,-0.011537351,0.012564655,-0.21135755,0.4,0.0007214182,0.0007354528,0.000498175,527625,-0.10380434,-0.14090395,-0.080628745,0.5,0.0012209268,0.00050728244,0.0011237926,1,0,1,0,1,0
580614719,580511885,3670026,-0.00417079,-0.0015306801,2.529582e-06,0.15,2.7991408e-07,2.7910926e-07,5.450535e-07,3670026,-0.013084871,0.012593838,-0.21377227,0.4,0.0007173886,0.00073144725,0.00049817655,527625,-0.10380434,-0.14090395,-0.080628745,0.5,0.0012209268,0.00050728244,0.0011237926,1,0,1,0,1,0
580734382,580632102,3670026,-0.004162392,-0.0015141335,1.7948861e-06,0.15,2.8060074e-07,2.7980124e-07,5.462426e-07,3670026,-0.014355615,0.013127614,-0.21618485,0.4,0.0007136619,0.00072773674,0.000498179,527625,-0.10380434,-0.14090395,-0.080628745,0.5,0.0012209268,0.00050728244,0.0011237926,1,0,1,0,1,0
580864604,580762337,3670026,-0.004160365,-0.0014964283,-1.710546e-08,0.15,2.8134505e-07,2.805497e-07,5.4753184e-07,3670026,-0.015618039,0.013173574,-0.21894525,0.4,0.0007102271,0.00072436495,0.00049818103,527625,-0.10380434,-0.14090395,-0.080628745,0.5,0.0012209268,0.00050728244,0.0011237926,1,0,1,0,1,0
580994733,580892571,3670026,-0.0041534742,-0.0014806018,-9.3240715e-07,0.15,2.8205443e-07,2.8125763e-07,5.4882406e-07,3670026,-0.016566213,0.013612303,-0.22166568,0.4,0.0007070733,0.00072136155,0.0004981836,527625,-0.10380434,-0.14090395,-0.080628745,0.5,0.0012209268,0.00050728244,0.0011237926,1,0,1,0,1,0
581115578,581012788,3670026,-0.0041487617,-0.0014695859,-1.564349e-06,0.15,2.8263742e-07,2.8183516e-07,5.5001567e-07,3670026,-0.01714594,0.013864037,-0.22429764,0.4,0.00070418447,0.00071865873,0.0004981848,527625,-0.10380434,-0.14090395,-0.080628745,0.5,0.0012209268,0.00050728244,0.0011237926,1,0,1,0,1,0
581265432,581163058,3670026,-0.0041452674,-0.0014569147,-2.3920766e-06,0.15,2.834548e-07,2.8264492e-07,5.5150997e-07,3670026,-0.017774716,0.014066381,-0.2273239,0.4,0.00070140726,0.00071604643,0.0004981877,527625,-0.10380434,-0.14090395,-0.080628745,0.5,0.0012209268,0.00050728244,0.0011237926,1,0,1,0,1,0
581365437,581263237,3670026,-0.004140715,-0.0014492702,-2.6070452e-06,0.15,2.8376886e-07,2.8295284e-07,5.52502e-07,3670026,-0.018058524,0.014189941,-0.2307094,0.4,0.0006989033,0.00071364985,0.00049819023,527625,-0.10380434,-0.14090395,-0.080628745,0.5,0.0012209268,0.00050728244,0.0011237926,1,0,1,0,1,0
581495912,581393471,3670026,-0.0041427095,-0.0014387904,-3.8312082e-06,0.15,2.8433638e-07,2.8352062e-07,5.537913e-07,3670026,-0.01859407,0.014043667,-0.23385675,0.4,0.00069655315,0.0007113176,0.0004981916,527625,-0.10380434,-0.14090395,-0.080628745,0.5,0.0012209268,0.00050728244,0.0011237926,1,0,1,0,1,0
581616420,581513686,3670026,-0.00413664,-0.0014357234,-3.3912474e-06,0.15,2.8476842e-07,2.839575e-07,5.5497986e-07,3670026,-0.018584058,0.01405916,-0.23792852,0.4,0.00069443224,0.00070915016,0.000498194,527625,-0.10380434,-0.14090395,-0.080628745,0.5,0.0012209268,0.00050728244,0.0011237926,1,0,1,0,1,0
581736013,581633902,3670026,-0.004131902,-0.0014273379,-3.5518035e-06,0.15,2.8516328e-07,2.8436202e-07,5.561651e-07,3670026,-0.018847777,0.014122531,-0.24124041,0.4,0.00069255085,0.0007071772,0.0004981952,527625,-0.10380434,-0.14090395,-0.080628745,0.5,0.0012209268,0.00050728244,0.0011237926,1,0,1,0,1,0
581866401,581764135,3670026,-0.0041357083,-0.0014090375,-5.885047e-06,0.15,2.856053e-07,2.848196e-07,5.5744863e-07,3670026,-0.019555513,0.013812036,-0.2450756,0.4,0.000690905,0.0007054079,0.00049819745,527625,-0.10380434,-0.14090395,-0.080628745,0.5,0.0012209268,0.00050728244,0.0011237926,1,0,1,0,1,0
581986558,581884351,3670026,-0.004132362,-0.0014001395,-6.4547557e-06,0.15,2.859081e-07,2.851434e-07,5.586271e-07,3670026,-0.01982156,0.013692714,-0.2485404,0.4,0.00068949495,0.00070385303,0.0004981987,527625,-0.10380434,-0.14090395,-0.080628745,0.5,0.0012209268,0.00050728244,0.0011237926,1,0,1,0,1,0
582117394,582014584,3670026,-0.004128026,-0.0013917681,-6.953594e-06,0.15,2.8630004e-07,2.8555695e-07,5.599046e-07,3670026,-0.020090654,0.013600479,-0.25130668,0.4,0.0006881928,0.000702401,0.0004981999,527625,-0.10380434,-0.14090395,-0.080628745,0.5,0.0012209268,0.00050728244,0.0011237926,1,0,1,0,1,0
582267068,582164854,3670026,-0.004121155,-0.0013691986,-9.112256e-06,0.15,2.867782e-07,2.8606226e-07,5.613763e-07,3670026,-0.02074007,0.013214178,-0.25573862,0.4,0.0006870112,0.00070103264,0.00049820065,527625,-0.10380434,-0.14090395,-0.080628745,0.5,0.0012209268,0.00050728244,0.0011237926,1,0,1,0,1,0
582367196,582265035,3670026,-0.0041142525,-0.0013548178,-1.0370204e-05,0.15,2.867364e-07,2.8605024e-07,5.623405e-07,3670026,-0.021121908,0.012864965,-0.25988838,0.4,0.000685946,0.00069975277,0.00049819984,527625,-0.10380434,-0.14090395,-0.080628745,0.5,0.0012209268,0.00050728244,0.0011237926,1,0,1,0,1,0
582497445,582395267,3670026,-0.004106187,-0.0013504201,-9.998701e-06,0.15,2.8692327e-07,2.8626886e-07,5.636066e-07,3670026,-0.021307494,0.012724874,-0.2634057,0.4,0.0006848949,0.0006984793,0.0004982019,527625,-0.10380434,-0.14090395,-0.080628745,0.5,0.0012209268,0.00050728244,0.0011237926,1,0,1,0,1,0
582618035,582515482,3670026,-0.004090664,-0.0013393406,-9.593553e-06,0.15,2.869752e-07,2.8635554e-07,5.64769e-07,3670026,-0.021758568,0.012474719,-0.26775163,0.4,0.0006837961,0.00069714006,0.00049820304,527625,-0.10380434,-0.14090395,-0.080628745,0.5,0.0012209268,0.00050728244,0.0011237926,1,0,1,0,1,0
582738133,582635698,3670026,-0.004085409,-0.0013166033,-1.2158957e-05,0.15,2.8700407e-07,2.8641742e-07,5.659309e-07,3670026,-0.022150075,0.011699631,-0.2714753,0.4,0.00068261364,0.0006957304,0.00049820304,527625,-0.10380434,-0.14090395,-0.080628745,0.5,0.0012209268,0.00050728244,0.0011237926,1,0,1,0,1,0
582868333,582765932,3670026,-0.0040760282,-0.0013136548,-1.1381287e-05,0.15,2.8709306e-07,2.865404e-07,5.6719097e-07,3670026,-0.022388104,0.011545891,-0.27507463,0.4,0.0006812896,0.00069416664,0.00049820315,527625,-0.10380434,-0.14090395,-0.080628745,0.5,0.0012209268,0.00050728244,0.0011237926,1,0,1,0,1,0
582998552,582896165,3670026,-0.004067822,-0.0012992049,-1.2402065e-05,0.15,2.8712253e-07,2.8660338e-07,5.684509e-07,3670026,-0.022713393,0.010976883,-0.27849305,0.4,0.00067983207,0.0006924774,0.00049820414,527625,-0.10380434,-0.14090395,-0.080628745,0.5,0.0012209268,0.00050728244,0.0011237926,1,0,1,0,1,0
583119019,583016380,3670026,-0.0040589874,-0.001285441,-1.3205429e-05,0.15,2.8706071e-07,2.865737e-07,5.6961113e-07,3670026,-0.023071835,0.010445769,-0.28126445,0.4,0.0006782417,0.00069065747,0.0004982052,527625,-0.10380434,-0.14090395,-0.080628745,0.5,0.0012209268,0.00050728244,0.0011237926,1,0,1,0,1,0
583288968,583186685,3670026,-0.0040556737,-0.0012702504,-1.4713795e-05,0.15,2.8737938e-07,2.8692418e-07,5.7126925e-07,3670026,-0.02322645,0.009762824,-0.2845401,0.4,0.0006763869,0.0006886032,0.0004982061,527625,-0.10380434,-0.14090395,-0.080628745,0.5,0.0012209268,0.00050728244,0.0011237926,1,0,1,0,1,0
583369064,583266838,3670026,-0.0040409025,-0.0012613136,-1.367099e-05,0.15,2.8689254e-07,2.864627e-07,5.720152e-07,3670026,-0.023758594,0.009450353,-0.28733432,0.4,0.0006745706,0.000686621,0.00049819704,527625,-0.10380434,-0.14090395,-0.080628745,0.5,0.0012209268,0.00050728244,0.0011237926,1,0,1,0,1,0
583489166,583387045,3670026,-0.004019474,-0.001253792,-1.14558825e-05,0.15,2.8681023e-07,2.8639906e-07,5.731855e-07,3670026,-0.024513388,0.009224142,-0.29063106,0.4,0.0006727354,0.00068465626,0.00049820583,527625,-0.10380434,-0.14090395,-0.080628745,0.5,0.0012209268,0.00050728244,0.0011237926,1,0,1,0,1,0
583619424,583517276,3670026,-0.004007324,-0.0012463019,-1.06345e-05,0.15,2.8675416e-07,2.8635716e-07,5.7444805e-07,3670026,-0.02488586,0.008909707,-0.29408988,0.4,0.0006708983,0.0006826985,0.0004982084,527625,-0.10380434,-0.14090395,-0.080628745,0.5,0.0012209268,0.00050728244,0.0011237926,1,0,1,0,1,0
583739884,583637490,3670026,-0.0039981604,-0.0012293198,-1.14116565e-05,0.15,2.865631e-07,2.8617617e-07,5.756071e-07,3670026,-0.025163142,0.008230609,-0.2978004,0.4,0.000669162,0.0006808294,0.00049820985,527625,-0.10380434,-0.14090395,-0.080628745,0.5,0.0012209268,0.00050728244,0.0011237926,1,0,1,0,1,0
583869802,583767723,3670026,-0.003991257,-0.001215922,-1.1925584e-05,0.15,2.8642233e-07,2.8603577e-07,5.768669e-07,3670026,-0.025346614,0.0077174525,-0.30120373,0.4,0.0006675827,0.0006791716,0.0004982099,527625,-0.10380434,-0.14090395,-0.080628745,0.5,0.0012209268,0.00050728244,0.0011237926,1,0,1,0,1,0
583990058,583887937,3670026,-0.0039782184,-0.0012086366,-1.0860359e-05,0.15,2.8617754e-07,2.8578424e-07,5.7802947e-07,3670026,-0.025680078,0.0074815475,-0.30440328,0.4,0.00066618936,0.000677719,0.00049821107,527625,-0.10380434,-0.14090395,-0.080628745,0.5,0.0012209268,0.00050728244,0.0011237926,1,0,1,0,1,0
584110391,584008151,3670026,-0.00397174,-0.0011989236,-1.0843174e-05,0.15,2.8591364e-07,2.855051e-07,5.7919385e-07,3670026,-0.025818912,0.0071641803,-0.3072973,0.4,0.00066498766,0.00067649176,0.0004982122,527625,-0.10380434,-0.14090395,-0.080628745,0.5,0.0012209268,0.00050728244,0.0011237926,1,0,1,0,1,0
584270699,584168437,3670026,-0.003968721,-0.0011923636,-1.0996173e-05,0.15,2.8606053e-07,2.8563053e-07,5.8076006e-07,3670026,-0.025926441,0.006981177,-0.30840567,0.4,0.00066389615,0.00067534874,0.0004982127,527625,-0.10380434,-0.14090395,-0.080628745,0.5,0.0012209268,0.00050728244,0.0011237926,1,0,1,0,1,0
584370760,584268626,3670026,-0.0039526243,-0.0011812084,-9.703868e-06,0.15,2.856227e-07,2.8516868e-07,5.817162e-07,3670026,-0.02629235,0.0067989156,-0.31132048,0.4,0.00066295645,0.00067437335,0.000498203,527625,-0.10380434,-0.14090395,-0.080628745,0.5,0.0012209268,0.00050728244,0.0011237926,1,0,1,0,1,0
584491079,584388832,3670026,-0.003944115,-0.0011808823,-8.677837e-06,0.15,2.8532347e-07,2.848455e-07,5.82896e-07,3670026,-0.026388846,0.0067735827,-0.31393278,0.4,0.0006621979,0.00067358697,0.000498212,527625,-0.10380434,-0.14090395,-0.080628745,0.5,0.0012209268,0.00050728244,0.0011237926,1,0,1,0,1,0
584611802,584509045,3670026,-0.003937592,-0.001171276,-8.701224e-06,0.15,2.8496237e-07,2.8446087e-07,5.8407e-07,3670026,-0.026486268,0.0065697297,-0.3163984,0.4,0.0006615605,0.00067293824,0.000498214,527625,-0.10380434,-0.14090395,-0.080628745,0.5,0.0012209268,0.00050728244,0.0011237926,1,0,1,0,1,0
584741714,584639276,3670026,-0.0039223176,-0.0011554932,-7.642089e-06,0.15,2.8464814e-07,2.8410622e-07,5.853259e-07,3670026,-0.026747566,0.0063926717,-0.3185087,0.4,0.0006610633,0.00067237596,0.0004982156,527625,-0.10380434,-0.14090395,-0.080628745,0.5,0.0012209268,0.00050728244,0.0011237926,1,0,1,0,1,0
584861797,584759490,3670026,-0.00391711,-0.001152488,-6.5606546e-06,0.15,2.8424424e-07,2.836048e-07,5.864051e-07,3670026,-0.026762716,0.006355305,-0.32067955,0.4,0.00066072255,0.00067179726,0.0004982164,527625,-0.10380434,-0.14090395,-0.080628745,0.5,0.0012209268,0.00050728244,0.0011237926,1,0,1,0,1,0
584991994,584889722,3670026,-0.0039127404,-0.0011522517,-4.6808264e-06,0.15,2.840231e-07,2.8313332e-07,5.8738175e-07,3670026,-0.02674236,0.0063739014,-0.32277244,0.4,0.0006605303,0.0006710096,0.00049821706,527625,-0.10380434,-0.14090395,-0.080628745,0.5,0.0012209268,0.00050728244,0.0011237926,1,0,1,0,1,0
585113124,585009935,3670026,-0.003898171,-0.0011700176,6.0134566e-06,0.15,2.8395314e-07,2.825813e-07,5.8800754e-07,3670026,-0.026632655,0.0067816176,-0.32464784,0.4,0.0006604016,0.00066986715,0.0004982184,527625,-0.10380434,-0.14090395,-0.080628745,0.5,0.0012209268,0.00050728244,0.0011237926,1,0,1,0,1,0
585272489,585170220,3670026,-0.0038911025,-0.0012084397,1.2175808e-05,0.15,2.8456887e-07,2.823671e-07,5.8869625e-07,3670026,-0.026370766,0.0068189646,-0.326472,0.4,0.00066024554,0.0006682367,0.0004982187,527625,-0.10380434,-0.14090395,-0.080628745,0.5,0.0012209268,0.00050728244,0.0011237926,1,0,1,0,1,0
585362509,585260380,3670026,-0.003881745,-0.0012100403,2.2708906e-05,0.15,2.8478703e-07,2.816271e-07,5.8873246e-07,3670026,-0.026245913,0.007137731,-0.3281152,0.4,0.00066005386,0.0006667742,0.0004982194,527625,-0.10380434,-0.14090395,-0.080628745,0.5,0.0012209268,0.00050728244,0.0011237926,1,0,1,0,1,0
585492848,585390612,3670026,-0.0038766772,-0.0012200095,2.7552878e-05,0.15,2.8560768e-07,2.8138052e-07,5.8918005e-07,3670026,-0.026125047,0.0071230154,-0.3299701,0.4,0.0006598002,0.000665386,0.0004982192,527625,-0.10380434,-0.14090395,-0.080628745,0.5,0.0012209268,0.00050728244,0.0011237926,1,0,1,0,1,0
585613474,585510825,3670026,-0.0038711708,-0.0012194333,3.610937e-05,0.15,2.864497e-07,2.8117722e-07,5.896583e-07,3670026,-0.025989868,0.0073203696,-0.33115152,0.4,0.0006595169,0.00066422025,0.00049822003,527625,-0.10380434,-0.14090395,-0.080628745,0.5,0.0012209268,0.00050728244,0.0011237926,1,0,1,0,1,0
585873523,585771287,3670026,-0.0038681757,-0.0012238196,3.6481648e-05,0.15,2.884779e-07,2.813112e-07,5.9120117e-07,3670026,-0.025952505,0.00702379,-0.33428565,0.4,0.0006589133,0.0006624842,0.0004982214,527625,-0.10380434,-0.14090395,-0.080628745,0.5,0.0012209268,0.00050728244,0.0011237926,1,0,1,0,1,0
585993650,585891500,3670026,-0.0038650583,-0.0012188508,4.384186e-05,0.15,2.8941218e-07,2.8135574e-07,5.9201153e-07,3670026,-0.025757337,0.0071995365,-0.33625335,0.4,0.0006586207,0.00066195306,0.0004982223,527625,-0.10380434,-0.14090395,-0.080628745,0.5,0.0012209268,0.00050728244,0.0011237926,1,0,1,0,1,0
586115013,586011713,3670026,-0.0038643843,-0.0012150283,4.5093566e-05,0.15,2.903731e-07,2.8149765e-07,5.929133e-07,3670026,-0.025733005,0.0071496917,-0.33776298,0.4,0.00065835495,0.00066151796,0.00049822323,527625,-0.10380434,-0.14090395,-0.080628745,0.5,0.0012209268,0.00050728244,0.0011237926,1,0,1,0,1,0
586284678,586182015,3670026,-0.0038628755,-0.00122392,4.5109904e-05,0.15,2.918359e-07,2.8213285e-07,5.9438173e-07,3670026,-0.025730923,0.006972793,-0.33978695,0.4,0.00065809983,0.00066113303,0.00049822417,527625,-0.10380434,-0.14090395,-0.080628745,0.5,0.0012209268,0.00050728244,0.0011237926,1,0,1,0,1,0
586865249,586763042,3670026,-0.0038713005,-0.0010931194,2.5106296e-05,0.15,2.9401775e-07,2.8122201e-07,5.9973127e-07,3670026,-0.02669918,0.0072222655,-0.3405834,0.4,0.0006575283,0.0006604219,0.00049822807,527625,-0.10380434,-0.14090395,-0.080628745,0.5,0.0012209268,0.00050728244,0.0011237926,1,0,1,0,1,0
587105723,587003465,3670026,-0.0038091484,-0.001015177,3.379361e-06,0.15,2.9009118e-07,2.7812862e-07,6.0166616e-07,3670026,-0.027763667,0.008226696,-0.3409001,0.4,0.00065616483,0.0006588727,0.0004982307,527625,-0.10380434,-0.14090395,-0.080628745,0.5,0.0012209268,0.00050728244,0.0011237926,1,0,1,0,1,0
587276199,587173767,3670026,-0.003785406,-0.0009291058,-7.201841e-06,0.15,2.8685093e-07,2.761623e-07,6.029036e-07,3670026,-0.029375589,0.008608309,-0.3414001,0.4,0.00065483816,0.00065740803,0.00049823005,527625,-0.10380434,-0.14090395,-0.080628745,0.5,0.0012209268,0.00050728244,0.0011237926,1,0,1,0,1,0
587366009,587263923,3670026,-0.0037244128,-0.00090516714,-2.7056232e-05,0.15,2.8276418e-07,2.734291e-07,6.0330626e-07,3670026,-0.029681742,0.009681955,-0.3416148,0.4,0.00065336947,0.00065585563,0.0004982335,527625,-0.10380434,-0.14090395,-0.080628745,0.5,0.0012209268,0.00050728244,0.0011237926,1,0,1,0,1,0
587606669,587504342,3670026,-0.003670745,-0.0008464176,-4.4737593e-05,0.15,2.7520292e-07,2.6845655e-07,6.046851e-07,3670026,-0.030904425,0.010679081,-0.3418682,0.4,0.0006497286,0.0006523388,0.0004982384,527625,-0.10380434,-0.14090395,-0.080628745,0.5,0.0012209268,0.00050728244,0.0011237926,1,0,1,0,1,0
587857239,587754779,3670026,-0.0036009913,-0.0008497368,-6.519089e-05,0.15,2.6926168e-07,2.6419562e-07,6.064311e-07,3670026,-0.030728921,0.012204271,-0.34168985,0.4,0.0006452653,0.00064848666,0.0004982423,527625,-0.10380434,-0.14090395,-0.080628745,0.5,0.0012209268,0.00050728244,0.0011237926,1,0,1,0,1,0
588107535,588005215,3670026,-0.0035699836,-0.00086657825,-7.171217e-05,0.15,2.6504287e-07,2.6080016e-07,6.0850937e-07,3670026,-0.030331561,0.013050793,-0.34094566,0.4,0.00064015837,0.0006443514,0.0004982463,527625,-0.10380434,-0.14090395,-0.080628745,0.5,0.0012209268,0.00050728244,0.0011237926,1,0,1,0,1,0
588357904,588255650,3670026,-0.003528259,-0.0009047102,-7.921132e-05,0.15,2.6207098e-07,2.5812693e-07,6.108342e-07,3670026,-0.029057853,0.014278861,-0.34060812,0.4,0.00063455227,0.00063986814,0.00049825007,527625,-0.10380434,-0.14090395,-0.080628745,0.5,0.0012209268,0.00050728244,0.0011237926,1,0,1,0,1,0
588598529,588496067,3670026,-0.0034838417,-0.00093819306,-8.402046e-05,0.15,2.6000043e-07,2.5608975e-07,6.1318406e-07,3670026,-0.027812209,0.01571134,-0.3406809,0.4,0.000628884,0.00063525443,0.0004982537,527625,-0.10380434,-0.14090395,-0.080628745,0.5,0.0012209268,0.00050728244,0.0011237926,1,0,1,0,1,0
588858645,588756518,3670026,-0.0034617304,-0.0009752765,-8.227974e-05,0.15,2.5855442e-07,2.545891e-07,6.157521e-07,3670026,-0.02640227,0.01651961,-0.34124964,0.4,0.00062307424,0.0006302763,0.0004982571,527625,-0.10380434,-0.14090395,-0.080628745,0.5,0.0012209268,0.00050728244,0.0011237926,1,0,1,0,1,0
589099255,588996934,3670026,-0.0034959917,-0.0009843992,-8.3064944e-05,0.15,2.5725012e-07,2.5329314e-07,6.1790945e-07,3670026,-0.025901603,0.015122304,-0.34159034,0.4,0.0006174516,0.0006251082,0.0004982603,527625,-0.10380434,-0.14090395,-0.080628745,0.5,0.0012209268,0.00050728244,0.0011237926,1,0,1,0,1,0
589269374,589167228,3670026,-0.0035174093,-0.000999062,-7.881469e-05,0.15,2.5712032e-07,2.5324013e-07,6.1930353e-07,3670026,-0.025140204,0.014450763,-0.34169635,0.4,0.00061461347,0.00062224537,0.0004982626,527625,-0.10380434,-0.14090395,-0.080628745,0.5,0.0012209268,0.00050728244,0.0011237926,1,0,1,0,1,0
589610651,589507815,3670026,-0.0035052586,-0.0010260305,-6.860937e-05,0.15,2.5586544e-07,2.5244887e-07,6.214722e-07,3670026,-0.023982624,0.015068136,-0.34205487,0.4,0.0006075644,0.0006144788,0.0004982671,527625,-0.10380434,-0.14090395,-0.080628745,0.5,0.0012209268,0.00050728244,0.0011237926,1,0,1,0,1,0
589860449,589758246,3670026,-0.003476269,-0.0010375124,-6.383176e-05,0.15,2.5562989e-07,2.5266183e-07,6.2312864e-07,3670026,-0.023675581,0.01610913,-0.34279943,0.4,0.0006036978,0.00060992275,0.00049827044,527625,-0.10380434,-0.14090395,-0.080628745,0.5,0.0012209268,0.00050728244,0.0011237926,1,0,1,0,1,0
590110979,590008676,3670026,-0.003450447,-0.0010435905,-6.1732375e-05,0.15,2.5565848e-07,2.5315657e-07,6.2495394e-07,3670026,-0.023532042,0.016931664,-0.34391248,0.4,0.0006002706,0.00060592394,0.000498273,527625,-0.10380434,-0.14090395,-0.080628745,0.5,0.0012209268,0.00050728244,0.0011237926,1,0,1,0,1,0
590281244,590178966,3670026,-0.0034590128,-0.0010437157,-6.422663e-05,0.15,2.561024e-07,2.5385106e-07,6.263591e-07,3670026,-0.023298575,0.016563071,-0.3457181,0.4,0.00059862033,0.00060402125,0.00049827684,527625,-0.10380434,-0.14090395,-0.080628745,0.5,0.0012209268,0.00050728244,0.0011237926,1,0,1,0,1,0
590361428,590259102,3670026,-0.0034413154,-0.0010531184,-5.819364e-05,0.15,2.5578208e-07,2.5376266e-07,6.2689986e-07,3670026,-0.02303666,0.017288914,-0.34652278,0.4,0.00059717393,0.0006023479,0.0004982791,527625,-0.10380434,-0.14090395,-0.080628745,0.5,0.0012209268,0.00050728244,0.0011237926,1,0,1,0,1,0
590481674,590379306,3670026,-0.0034206144,-0.0010570143,-5.4025328e-05,0.15,2.559024e-07,2.5410833e-07,6.278597e-07,3670026,-0.022976788,0.018002877,-0.3479348,0.4,0.0005957955,0.00060077,0.00049828197,527625,-0.10380434,-0.14090395,-0.080628745,0.5,0.0012209268,0.00050728244,0.0011237926,1,0,1,0,1,0
590611651,590509527,3670026,-0.0034077133,-0.0010690724,-4.7415517e-05,0.15,2.5612755e-07,2.5455847e-07,6.2893383e-07,3670026,-0.022525646,0.018621238,-0.3494494,0.4,0.000594494,0.00059928664,0.0004982846,527625,-0.10380434,-0.14090395,-0.080628745,0.5,0.0012209268,0.00050728244,0.0011237926,1,0,1,0,1,0
590731976,590629732,3670026,-0.0034051493,-0.001062983,-5.1255796e-05,0.15,2.5625906e-07,2.54903e-07,6.2993115e-07,3670026,-0.022571726,0.01857901,-0.3515547,0.4,0.00059326127,0.00059791957,0.00049828575,527625,-0.10380434,-0.14090395,-0.080628745,0.5,0.0012209268,0.00050728244,0.0011237926,1,0,1,0,1,0
590862159,590759951,3670026,-0.0033640936,-0.001086922,-3.237289e-05,0.15,2.5648373e-07,2.553337e-07,6.310463e-07,3670026,-0.022015857,0.020273998,-0.35384074,0.4,0.0005920906,0.0005966405,0.0004982898,527625,-0.10380434,-0.14090395,-0.080628745,0.5,0.0012209268,0.00050728244,0.0011237926,1,0,1,0,1,0
590982445,590880157,3670026,-0.003365146,-0.0010865234,-3.470174e-05,0.15,2.5662246e-07,2.5565976e-07,6.320786e-07,3670026,-0.021810187,0.020274853,-0.35625365,0.4,0.00059096253,0.000595454,0.000498289,527625,-0.10380434,-0.14090395,-0.080628745,0.5,0.0012209268,0.00050728244,0.0011237926,1,0,1,0,1,0
591113199,591010373,3670026,-0.003346738,-0.001083323,-3.0685667e-05,0.15,2.5685188e-07,2.560624e-07,6.332447e-07,3670026,-0.02186008,0.020857673,-0.35947806,0.4,0.00058989605,0.00059436983,0.00049829535,527625,-0.10380434,-0.14090395,-0.080628745,0.5,0.0012209268,0.00050728244,0.0011237926,1,0,1,0,1,0
591272928,591170642,3670026,-0.0033370215,-0.001089117,-2.6543536e-05,0.15,2.572779e-07,2.566531e-07,6.3473317e-07,3670026,-0.02160537,0.021271663,-0.36223993,0.4,0.0005888798,0.0005933831,0.00049829966,527625,-0.10380434,-0.14090395,-0.080628745,0.5,0.0012209268,0.00050728244,0.0011237926,1,0,1,0,1,0
591362979,591260794,3670026,-0.0033101614,-0.0010867228,-1.9185863e-05,0.15,2.5707044e-07,2.5658534e-07,6.3552994e-07,3670026,-0.021720622,0.02208422,-0.36512762,0.4,0.00058793725,0.0005924976,0.00049830077,527625,-0.10380434,-0.14090395,-0.080628745,0.5,0.0012209268,0.00050728244,0.0011237926,1,0,1,0,1,0
591483291,591381000,3670026,-0.0033013008,-0.0010926509,-1.6970736e-05,0.15,2.5713067e-07,2.5677244e-07,6.3663435e-07,3670026,-0.021439109,0.022556754,-0.36837146,0.4,0.000587057,0.0005916995,0.00049829885,527625,-0.10380434,-0.14090395,-0.080628745,0.5,0.0012209268,0.00050728244,0.0011237926,1,0,1,0,1,0
591614648,591511212,3670026,-0.0032906486,-0.0010866341,-1.3351916e-05,0.15,2.572414e-07,2.569884e-07,6.378416e-07,3670026,-0.021519935,0.022959743,-0.3712962,0.4,0.00058619614,0.00059096573,0.0004983077,527625,-0.10380434,-0.14090395,-0.080628745,0.5,0.0012209268,0.00050728244,0.0011237926,1,0,1,0,1,0
591733940,591631415,3670026,-0.0032742226,-0.0010853023,-7.955222e-06,0.15,2.5720004e-07,2.570244e-07,6.389097e-07,3670026,-0.021486143,0.023584152,-0.37483755,0.4,0.000585337,0.00059027784,0.0004983082,527625,-0.10380434,-0.14090395,-0.080628745,0.5,0.0012209268,0.00050728244,0.0011237926,1,0,1,0,1,0
592264514,592162298,3670026,-0.0031416027,-0.0010741085,4.7050715e-05,0.15,2.5525875e-07,2.545545e-07,6.407324e-07,3670026,-0.021539913,0.024564836,-0.37547255,0.4,0.000584583,0.00058957323,0.00049832294,527625,-0.10380434,-0.14090395,-0.080628745,0.5,0.0012209268,0.00050728244,0.0011237926,1,0,1,0,1,0
592484756,592382666,3670026,-0.0030751375,-0.0010748415,7.224567e-05,0.15,2.5267983e-07,2.5142285e-07,6.3827014e-07,3670026,-0.021486674,0.025353167,-0.37627062,0.4,0.00058305194,0.0005880573,0.0004983222,527625,-0.10380434,-0.14090395,-0.080628745,0.5,0.0012209268,0.00050728244,0.0011237926,1,0,1,0,1,0
592735347,592633083,3670026,-0.0030241837,-0.0010781037,8.8953464e-05,0.15,2.4986792e-07,2.484256e-07,6.346617e-07,3670026,-0.021360591,0.026144309,-0.37750474,0.4,0.0005807984,0.00058561197,0.00049832545,527625,-0.10380434,-0.14090395,-0.080628745,0.5,0.0012209268,0.00050728244,0.0011237926,1,0,1,0,1,0
592975892,592873485,3670026,-0.0029973947,-0.0010812043,9.6527154e-05,0.15,2.4705776e-07,2.4597296e-07,6.309809e-07,3670026,-0.021197427,0.026560092,-0.37897584,0.4,0.00057824235,0.0005825349,0.0004983264,527625,-0.10380434,-0.14090395,-0.080628745,0.5,0.0012209268,0.00050728244,0.0011237926,1,0,1,0,1,0
593115915,593013719,3670026,-0.0029736112,-0.0010720163,0.00011495725,0.15,2.458968e-07,2.4517664e-07,6.2948345e-07,3670026,-0.0213598,0.027099293,-0.3799727,0.4,0.0005768963,0.00058079226,0.0004983271,527625,-0.10380434,-0.14090395,-0.080628745,0.5,0.0012209268,0.00050728244,0.0011237926,1,0,1,0,1,0
593276067,593173987,3670026,-0.0029377881,-0.0010698669,0.00012884554,0.15,2.4491285e-07,2.4467388e-07,6.2828e-07,3670026,-0.021311076,0.028007695,-0.3812093,0.4,0.0005754911,0.00057889073,0.0004983268,527625,-0.10380434,-0.14090395,-0.080628745,0.5,0.0012209268,0.00050728244,0.0011237926,1,0,1,0,1,0
593366212,593264138,3670026,-0.0029202208,-0.0010703701,0.00013428612,0.15,2.4353952e-07,2.4381072e-07,6.2682716e-07,3670026,-0.021220466,0.028464677,-0.38219747,0.4,0.0005742349,0.0005771159,0.00049832655,527625,-0.10380434,-0.14090395,-0.080628745,0.5,0.0012209268,0.00050728244,0.0011237926,1,0,1,0,1,0
593607089,593504539,3670026,-0.0029095134,-0.0010725935,0.00013603794,0.15,2.4188446e-07,2.4323046e-07,6.253806e-07,3670026,-0.021062976,0.028818853,-0.38338012,0.4,0.0005719028,0.0005736762,0.0004983274,527625,-0.10380434,-0.14090395,-0.080628745,0.5,0.0012209268,0.00050728244,0.0011237926,1,0,1,0,1,0
593737168,593634756,3670026,-0.0029060105,-0.0010610522,0.00014996158,0.15,2.4132862e-07,2.4322244e-07,6.250927e-07,3670026,-0.02135511,0.028890539,-0.38435498,0.4,0.000570784,0.00057198043,0.0004983283,527625,-0.10380434,-0.14090395,-0.080628745,0.5,0.0012209268,0.00050728244,0.0011237926,1,0,1,0,1,0
593857121,593754956,3670026,-0.002888795,-0.0010674596,0.00014875733,0.15,2.4080651e-07,2.4323649e-07,6.2491915e-07,3670026,-0.021051276,0.029397547,-0.38541883,0.4,0.0005697263,0.0005703475,0.00049832906,527625,-0.10380434,-0.14090395,-0.080628745,0.5,0.0012209268,0.00050728244,0.0011237926,1,0,1,0,1,0
594107705,594005372,3670026,-0.0028808746,-0.0010660841,0.00015355395,0.15,2.4017564e-07,2.4362018e-07,6.2522344e-07,3670026,-0.020936731,0.02957962,-0.3875455,0.4,0.00056776823,0.0005672798,0.00049833156,527625,-0.10380434,-0.14090395,-0.080628745,0.5,0.0012209268,0.00050728244,0.0011237926,1,0,1,0,1,0
594267979,594165640,3670026,-0.0028493046,-0.0010565198,0.00017084814,0.15,2.4027332e-07,2.4421234e-07,6.259203e-07,3670026,-0.021081742,0.030492261,-0.38886505,0.4,0.0005667992,0.0005657547,0.00049833104,527625,-0.10380434,-0.14090395,-0.080628745,0.5,0.0012209268,0.00050728244,0.0011237926,1,0,1,0,1,0
594358317,594255784,3670026,-0.0028426454,-0.0010574657,0.00017232329,0.15,2.398431e-07,2.442262e-07,6.2609274e-07,3670026,-0.020946085,0.03061365,-0.3903086,0.4,0.0005659377,0.00056438195,0.0004983369,527625,-0.10380434,-0.14090395,-0.080628745,0.5,0.0012209268,0.00050728244,0.0011237926,1,0,1,0,1,0
594478514,594375987,3670026,-0.0028369387,-0.0010545106,0.00017647393,0.15,2.397879e-07,2.4458834e-07,6.26669e-07,3670026,-0.020954095,0.030744981,-0.39139405,0.4,0.00056511,0.0005630622,0.0004983338,527625,-0.10380434,-0.14090395,-0.080628745,0.5,0.0012209268,0.00050728244,0.0011237926,1,0,1,0,1,0
594608302,594506195,3670026,-0.002821379,-0.0010590923,0.00017808103,0.15,2.3986064e-07,2.450566e-07,6.274713e-07,3670026,-0.020645367,0.031030936,-0.3934958,0.4,0.000564328,0.00056180306,0.00049834215,527625,-0.10380434,-0.14090395,-0.080628745,0.5,0.0012209268,0.00050728244,0.0011237926,1,0,1,0,1,0
594738621,594636407,3670026,-0.002818899,-0.0010516722,0.00018367772,0.15,2.3996196e-07,2.4553083e-07,6.283617e-07,3670026,-0.020802299,0.030990371,-0.39463654,0.4,0.0005635647,0.0005605755,0.00049834594,527625,-0.10380434,-0.14090395,-0.080628745,0.5,0.0012209268,0.00050728244,0.0011237926,1,0,1,0,1,0
594858865,594756606,3670026,-0.002800197,-0.0010554595,0.00018710217,0.15,2.400032e-07,2.4591608e-07,6.2923266e-07,3670026,-0.02050441,0.031265505,-0.39709517,0.4,0.00056283065,0.000559395,0.00049834576,527625,-0.10380434,-0.14090395,-0.080628745,0.5,0.0012209268,0.00050728244,0.0011237926,1,0,1,0,1,0
594979892,594876798,3670026,-0.0027867449,-0.0010503975,0.00019321115,0.15,2.401045e-07,2.4632718e-07,6.3019195e-07,3670026,-0.020507928,0.0313956,-0.39929885,0.4,0.00056208594,0.000558217,0.00049835234,527625,-0.10380434,-0.14090395,-0.080628745,0.5,0.0012209268,0.00050728244,0.0011237926,1,0,1,0,1,0
595109317,595007009,3670026,-0.002774682,-0.0010468237,0.00019771751,0.15,2.4031718e-07,2.4683314e-07,6.3129625e-07,3670026,-0.020486774,0.03150393,-0.4011744,0.4,0.0005613614,0.00055705965,0.0004983556,527625,-0.10380434,-0.14090395,-0.080628745,0.5,0.0012209268,0.00050728244,0.0011237926,1,0,1,0,1,0
595119143,595017026,3670026,-0.0027746803,-0.0010468231,0.0001977174,0.15,2.4041722e-07,2.4693318e-07,6.313958e-07,3670026,-0.020486763,0.031503916,-0.39999977,0.4,0.0005613616,0.0005570599,0.0004983559,527625,-0.10380434,-0.14090395,-0.080628745,0.5,0.0012209268,0.00050728244,0.0011237926,1,0,1,0,1,0
595269502,595167267,3670026,-0.0027372,-0.0010507308,0.0002062738,0.15,2.407818e-07,2.475801e-07,6.327442e-07,3670026,-0.020114733,0.03209072,-0.4030662,0.4,0.00056062546,0.00055587635,0.00049836095,527625,-0.10380434,-0.14090395,-0.080628745,0.5,0.0012209268,0.00050728244,0.0011237926,1,0,1,0,1,0
595279178,595177283,3670026,-0.0027372013,-0.0010507313,0.0002062739,0.15,2.4088234e-07,2.4768062e-07,6.328451e-07,3670026,-0.020114742,0.032090735,-0.4000002,0.4,0.00056062685,0.00055587775,0.0004983623,527625,-0.10380434,-0.14090395,-0.080628745,0.5,0.0012209268,0.00050728244,0.0011237926,1,0,1,0,1,0
