timestamp,timestamp_sample,ref_timestamp,ref_lat,ref_lon,x,y,z,delta_xy[0],delta_xy[1],delta_z,vx,vy,vz,z_deriv,delta_vxy[0],delta_vxy[1],delta_vz,ax,ay,az,heading,delta_heading,ref_alt,dist_bottom,eph,epv,evh,evv,vxy_max,vz_max,hagl_min,hagl_max,xy_valid,z_valid,v_xy_valid,v_z_valid,xy_reset_counter,z_reset_counter,vxy_reset_counter,vz_reset_counter,heading_reset_counter,heading_good_for_control,xy_global,z_global,dist_bottom_valid,dist_bottom_sensor_bitfield,dead_reckoning
564943945,564942637,68339896,59.396201899999994,24.6605965,2.338156,-1.3193864,-2.3802004,-0.022485403,-0.0058500394,-0.06750712,-0.023101142,-0.027668508,-0.037425105,-0.049404763,0.037437953,0.037413422,0.009335578,0.0023901633,-0.031359266,0.0002521391,-0.15271796,-0.01406361,28.05643,0.1,0.18731308,0.18485852,0.111520916,0.0823908,inf,inf,inf,inf,1,1,1,1,2,2,2,2,2,0,1,1,0,0,0
564953624,564952652,68339896,59.396201899999994,24.6605965,2.3379128,-1.3192545,-2.380831,-0.022485403,-0.0058500394,-0.06750712,-0.023125734,-0.027687574,-0.038036197,-0.050149135,0.037437953,0.037413422,0.009335578,-0.012595702,-0.03379936,-0.066510364,-0.15271764,-0.01406361,28.05643,0.1,0.18806289,0.18543836,0.111962765,0.0825993,inf,inf,inf,inf,1,1,1,1,2,2,2,2,2,0,1,1,0,0,0
564963711,564962672,68339896,59.396201899999994,24.6605965,2.337673,-1.3191398,-2.38146,-0.022485403,-0.0058500394,-0.06750712,-0.022463927,-0.027701313,-0.03899823,-0.051233582,0.037437953,0.037413422,0.009335578,0.08039604,-0.029219035,-0.11347526,-0.15278576,-0.01406361,28.05643,0.1,0.1888179,0.18602079,0.11240446,0.08280784,inf,inf,inf,inf,1,1,1,1,2,2,2,2,2,0,1,1,0,0,0
564974464,564972691,68339896,59.396201899999994,24.6605965,2.3374312,-1.3187946,-2.3819227,-0.022485403,-0.0058500394,-0.06750712,-0.02327364,-0.028065983,-0.039672513,-0.05184657,0.037437953,0.037413422,0.009335578,-0.03544278,-0.040648304,-0.058913518,-0.15279488,-0.01406361,28.05643,0.1,0.18052605,0.17999588,0.10748528,0.080551416,inf,inf,inf,inf,1,1,1,1,2,2,2,2,2,0,1,1,0,0,0
564984133,564982710,68339896,59.396201899999994,24.6605965,2.3371906,-1.318471,-2.3823826,-0.022485403,-0.0058500394,-0.06750712,-0.0229906,-0.027692443,-0.039341424,-0.05145175,0.037437953,0.037413422,0.009335578,-0.024316173,-0.045183245,0.031277917,-0.1525359,-0.01406361,28.05643,0.1,0.1812281,0.18055318,0.10792081,0.08075926,inf,inf,inf,inf,1,1,1,1,2,2,2,2,2,0,1,1,0,0,0
564993888,564992730,68339896,59.396201899999994,24.6605965,2.3369558,-1.3181728,-2.3829806,-0.022485403,-0.0058500394,-0.06750712,-0.022609364,-0.026974259,-0.039564397,-0.05175377,0.037437953,0.037413422,0.009335578,-0.0859992,0.41869614,-0.008808733,-0.15224516,-0.01406361,28.05643,0.1,0.18193528,0.18087105,0.10835752,0.08091536,inf,inf,inf,inf,1,1,1,1,2,2,2,2,2,0,1,1,0,0,0
565003947,565002749,68339896,59.396201899999994,24.6605965,2.3367152,-1.3178883,-2.3835852,-0.022485403,-0.0058500394,-0.06750712,-0.023351522,-0.027290653,-0.040626217,-0.052886073,0.037437953,0.037413422,0.009335578,0.10373145,-0.025342047,0.1303513,-0.15250084,-0.01406361,28.05643,0.1,0.18264756,0.18143274,0.108793676,0.08112335,inf,inf,inf,inf,1,1,1,1,2,2,2,2,2,0,1,1,0,0,0
565014172,565012770,68339896,59.396201899999994,24.6605965,2.3364847,-1.3176304,-2.3841918,-0.022485403,-0.0058500394,-0.06750712,-0.021836149,-0.028288208,-0.04274501,-0.055067133,0.037437953,0.037413422,0.009335578,0.19059193,-0.18491556,-0.3014925,-0.15301642,-0.01406361,28.05643,0.1,0.18336497,0.18199699,0.10923019,0.08133141,inf,inf,inf,inf,1,1,1,1,2,2,2,2,2,0,1,1,0,0,0
565023914,565022788,68339896,59.396201899999994,24.6605965,2.3362513,-1.3173909,-2.3847926,-0.022485403,-0.0058500394,-0.06750712,-0.023877416,-0.026810972,-0.04186763,-0.054244146,0.037437953,0.037413422,0.009335578,-0.22621943,0.099691056,0.064197175,-0.15310083,-0.01406361,28.05643,0.1,0.18408753,0.18256381,0.10966843,0.08153955,inf,inf,inf,inf,1,1,1,1,2,2,2,2,2,0,1,1,0,0,0
565033905,565032807,68339896,59.396201899999994,24.6605965,2.3360193,-1.3171744,-2.3853884,-0.022485403,-0.0058500394,-0.06750712,-0.022244906,-0.028611986,-0.04261317,-0.05503652,0.037437953,0.037413422,0.009335578,0.02505953,-0.13162513,0.00986382,-0.152772,-0.01406361,28.05643,0.1,0.18481524,0.1831332,0.11010679,0.08174776,inf,inf,inf,inf,1,1,1,1,2,2,2,2,2,0,1,1,0,0,0
565044165,565042827,68339896,59.396201899999994,24.6605965,2.335785,-1.316979,-2.3859854,-0.022485403,-0.0058500394,-0.06750712,-0.023247566,-0.028160226,-0.043024544,-0.055487465,0.037437953,0.037413422,0.009335578,0.11030825,-0.06583847,-0.10457162,-0.15248747,-0.01406361,28.05643,0.1,0.18554813,0.18370518,0.11054467,0.08195604,inf,inf,inf,inf,1,1,1,1,2,2,2,2,2,0,1,1,0,0,0
565054017,565052847,68339896,59.396201899999994,24.6605965,2.3355558,-1.3168055,-2.3865802,-0.022485403,-0.0058500394,-0.06750712,-0.02303876,-0.028745605,-0.044199757,-0.05669531,0.037437953,0.037413422,0.009335578,-0.096708715,-0.09739745,-0.2411327,-0.15255877,-0.01406361,28.05643,0.1,0.18628615,0.18427974,0.11098404,0.08216438,inf,inf,inf,inf,1,1,1,1,2,2,2,2,2,0,1,1,0,0,0
565064037,565062864,68339896,59.396201899999994,24.6605965,2.3353262,-1.316645,-2.387318,-0.022485403,-0.0058500394,-0.06750712,-0.022888482,-0.0272215,-0.044945832,-0.057603896,0.037437953,0.037413422,0.009335578,0.039524354,0.059469745,0.11265283,-0.15284951,-0.01406361,28.05643,0.1,0.18702938,0.18459956,0.11142538,0.08231645,inf,inf,inf,inf,1,1,1,1,2,2,2,2,2,0,1,1,0,0,0
565073987,565072883,68339896,59.396201899999994,24.6605965,2.3350961,-1.3165083,-2.3880432,-0.022485403,-0.0058500394,-0.06750712,-0.023033148,-0.028800128,-0.045541625,-0.058349837,0.037437953,0.037413422,0.009335578,0.086632974,-0.032578364,-0.23637065,-0.15299827,-0.01406361,28.05643,0.1,0.1877778,0.18517846,0.111866094,0.08252491,inf,inf,inf,inf,1,1,1,1,2,2,2,2,2,0,1,1,0,0,0
565084007,565082905,68339896,59.396201899999994,24.6605965,2.334871,-1.3163872,-2.3887687,-0.022485403,-0.0058500394,-0.06750712,-0.02263473,-0.028186647,-0.04580481,-0.05875129,0.037437953,0.037413422,0.009335578,0.004164015,-0.04536617,0.049565546,-0.1528289,-0.01406361,28.05643,0.1,0.18853143,0.18575992,0.11230475,0.08273352,inf,inf,inf,inf,1,1,1,1,2,2,2,2,2,0,1,1,0,0,0
565094795,565092922,68339896,59.396201899999994,24.6605965,2.3345711,-1.3160157,-2.3893049,-0.022485403,-0.0058500394,-0.06750712,-0.02349478,-0.028820029,-0.04463242,-0.05752813,0.037437953,0.037413422,0.009335578,-0.13005687,0.033029247,-0.038398515,-0.15257221,-0.01406361,28.05643,0.1,0.18027887,0.17976107,0.1074036,0.080486,inf,inf,inf,inf,1,1,1,1,2,2,2,2,2,0,1,1,0,0,0
565104096,565102941,68339896,59.396201899999994,24.6605965,2.334277,-1.3156646,-2.3898494,-0.022485403,-0.0058500394,-0.06750712,-0.022627192,-0.028676236,-0.047373798,-0.06021551,0.037437953,0.037413422,0.009335578,-0.044095233,-0.16221309,-0.2402841,-0.15257539,-0.01406361,28.05643,0.1,0.18097977,0.1803175,0.10783976,0.08069372,inf,inf,inf,inf,1,1,1,1,2,2,2,2,2,0,1,1,0,0,0
565114953,565112967,68339896,59.396201899999994,24.6605965,2.3339913,-1.3153386,-2.390406,-0.022485403,-0.0058500394,-0.06750712,-0.021958327,-0.029214446,-0.04791894,-0.060703587,0.037437953,0.037413422,0.009335578,0.024073377,-0.25767758,-0.025637137,-0.15277985,-0.01406361,28.05643,0.1,0.18168578,0.18087652,0.108281024,0.08090178,inf,inf,inf,inf,1,1,1,1,2,2,2,2,2,0,1,1,0,0,0
565124221,565122980,68339896,59.396201899999994,24.6605965,2.3337061,-1.31504,-2.3910697,-0.022485403,-0.0058500394,-0.06750712,-0.022848317,-0.0285956,-0.04791179,-0.060748532,0.037437953,0.037413422,0.009335578,-0.04549087,0.03715519,0.020165252,-0.15294346,-0.01406361,28.05643,0.1,0.18239695,0.18119481,0.10870971,0.081057414,inf,inf,inf,inf,1,1,1,1,2,2,2,2,2,0,1,1,0,0,0
565134036,565132999,68339896,59.396201899999994,24.6605965,2.333423,-1.3147643,-2.3917303,-0.022485403,-0.0058500394,-0.06750712,-0.02250832,-0.029027218,-0.048722353,-0.06160353,0.037437953,0.037413422,0.009335578,-0.024801528,0.046745304,-0.080221295,-0.1528741,-0.01406361,28.05643,0.1,0.18311317,0.18175822,0.10915077,0.081265755,inf,inf,inf,inf,1,1,1,1,2,2,2,2,2,0,1,1,0,0,0
565144247,565143019,68339896,59.396201899999994,24.6605965,2.3331447,-1.3145088,-2.3923898,-0.022485403,-0.0058500394,-0.06750712,-0.022316946,-0.028357008,-0.04881594,-0.061734203,0.037437953,0.037413422,0.009335578,-0.045178026,0.16462485,0.08893515,-0.15271463,-0.01406361,28.05643,0.1,0.18383458,0.1823242,0.10958773,0.081473775,inf,inf,inf,inf,1,1,1,1,2,2,2,2,2,0,1,1,0,0,0
565154097,565153037,68339896,59.396201899999994,24.6605965,2.3328655,-1.3142729,-2.3930452,-0.022485403,-0.0058500394,-0.06750712,-0.022552107,-0.028714014,-0.049628094,-0.06257639,0.037437953,0.037413422,0.009335578,0.067028895,0.064799845,-0.08739157,-0.15266211,-0.01406361,28.05643,0.1,0.18456115,0.18289275,0.11002657,0.081681944,inf,inf,inf,inf,1,1,1,1,2,2,2,2,2,0,1,1,0,0,0
565164169,565163057,68339896,59.396201899999994,24.6605965,2.332593,-1.3140566,-2.393699,-0.022485403,-0.0058500394,-0.06750712,-0.022471726,-0.029532934,-0.050319575,-0.06329118,0.037437953,0.037413422,0.009335578,-0.08500418,-0.270998,-0.18057534,-0.15278985,-0.01406361,28.05643,0.1,0.18529288,0.18346387,0.110464975,0.081890166,inf,inf,inf,inf,1,1,1,1,2,2,2,2,2,0,1,1,0,0,0
565174130,565173076,68339896,59.396201899999994,24.6605965,2.3323162,-1.313865,-2.394354,-0.022485403,-0.0058500394,-0.06750712,-0.0228846,-0.02998744,-0.050898306,-0.06388676,0.037437953,0.037413422,0.009335578,0.06300052,-0.25968632,-0.09756731,-0.15291351,-0.01406361,28.05643,0.1,0.18602978,0.18403757,0.11090542,0.08209861,inf,inf,inf,inf,1,1,1,1,2,2,2,2,2,0,1,1,0,0,0
565184157,565183095,68339896,59.396201899999994,24.6605965,2.3320465,-1.3136892,-2.3950086,-0.022485403,-0.0058500394,-0.06750712,-0.02252857,-0.02884132,-0.0509562,-0.06395534,0.037437953,0.037413422,0.009335578,-0.11909165,-0.025168939,0.091628164,-0.15287684,-0.01406361,28.05643,0.1,0.18677187,0.18461384,0.11134472,0.0823071,inf,inf,inf,inf,1,1,1,1,2,2,2,2,2,0,1,1,0,0,0
565194400,565193114,68339896,59.396201899999994,24.6605965,2.3317742,-1.3135307,-2.395805,-0.022485403,-0.0058500394,-0.06750712,-0.022960816,-0.029474929,-0.050970998,-0.06412694,0.037437953,0.037413422,0.009335578,0.0071231425,-0.16171195,0.046723135,-0.15279077,-0.01406361,28.05643,0.1,0.18751915,0.18493399,0.11177996,0.08245875,inf,inf,inf,inf,1,1,1,1,2,2,2,2,2,0,1,1,0,0,0
565204183,565203134,68339896,59.396201899999994,24.6605965,2.3315063,-1.3133937,-2.3965993,-0.022485403,-0.0058500394,-0.06750712,-0.022771152,-0.02902238,-0.05285365,-0.066154085,0.037437953,0.037413422,0.009335578,-0.07094858,0.060477518,-0.22260843,-0.15277945,-0.01406361,28.05643,0.1,0.18827163,0.1855146,0.112228215,0.08266731,inf,inf,inf,inf,1,1,1,1,2,2,2,2,2,0,1,1,0,0,0
565214490,565213153,68339896,59.396201899999994,24.6605965,2.3312438,-1.3132783,-2.3973978,-0.022485403,-0.0058500394,-0.06750712,-0.021904727,-0.02970649,-0.05367249,-0.0671056,0.037437953,0.037413422,0.009335578,0.07809436,0.045680128,-0.06746533,-0.15284863,-0.01406361,28.05643,0.1,0.18902934,0.18609779,0.11266973,0.08287599,inf,inf,inf,inf,1,1,1,1,2,2,2,2,2,0,1,1,0,0,0
565224358,565223172,68339896,59.396201899999994,24.6605965,2.3309824,-1.3131796,-2.398192,-0.022485403,-0.0058500394,-0.06750712,-0.023079121,-0.029208204,-0.053799283,-0.06735369,0.037437953,0.037413422,0.009335578,-0.17571473,0.10493346,0.09139984,-0.15290743,-0.01406361,28.05643,0.1,0.18979229,0.18668357,0.11311086,0.083084635,inf,inf,inf,inf,1,1,1,1,2,2,2,2,2,0,1,1,0,0,0
565234172,565233192,68339896,59.396201899999994,24.6605965,2.33072,-1.3130916,-2.3989794,-0.022485403,-0.0058500394,-0.06750712,-0.02199122,-0.02975204,-0.05373383,-0.06739859,0.037437953,0.037413422,0.009335578,0.14148943,-0.1853633,0.18900715,-0.15287143,-0.01406361,28.05643,0.1,0.19056047,0.18727191,0.113554634,0.083293475,inf,inf,inf,inf,1,1,1,1,2,2,2,2,2,0,1,1,0,0,0
565244501,565243211,68339896,59.396201899999994,24.6605965,2.3304613,-1.3130248,-2.3997562,-0.022485403,-0.0058500394,-0.06750712,-0.022370372,-0.029129332,-0.054501668,-0.06826631,0.037437953,0.037413422,0.009335578,0.06342844,0.12733158,-0.10017799,-0.15280347,-0.01406361,28.05643,0.1,0.19133392,0.18786283,0.113996886,0.0835023,inf,inf,inf,inf,1,1,1,1,2,2,2,2,2,0,1,1,0,0,0
565254411,565253230,68339896,59.396201899999994,24.6605965,2.3302023,-1.3129718,-2.4006598,-0.022485403,-0.0058500394,-0.06750712,-0.022961672,-0.029947426,-0.055292003,-0.069282316,0.037437953,0.037413422,0.009335578,-0.060776085,-0.08147082,-0.29870644,-0.15281685,-0.01406361,28.05643,0.1,0.1921126,0.18818372,0.114441626,0.08365022,inf,inf,inf,inf,1,1,1,1,2,2,2,2,2,0,1,1,0,0,0
565265111,565263250,68339896,59.396201899999994,24.6605965,2.3298814,-1.3127509,-2.401342,-0.022485403,-0.0058500394,-0.06750712,-0.022327533,-0.030434556,-0.055897612,-0.069867946,0.037437953,0.037413422,0.009335578,0.1271151,-0.14209913,-0.1616371,-0.15287368,-0.01406361,28.05643,0.1,0.18331514,0.18193366,0.109205484,0.08130304,inf,inf,inf,inf,1,1,1,1,2,2,2,2,2,0,1,1,0,0,0
565274328,565273269,68339896,59.396201899999994,24.6605965,2.3295689,-1.312551,-2.4020224,-0.022485403,-0.0058500394,-0.06750712,-0.0226857,-0.030229408,-0.05636788,-0.07031323,0.037437953,0.037413422,0.009335578,-0.09368948,-0.12728673,-0.15304142,-0.15293515,-0.01406361,28.05643,0.1,0.1840372,0.18250011,0.10964349,0.08151114,inf,inf,inf,inf,1,1,1,1,2,2,2,2,2,0,1,1,0,0,0
565284352,565283288,68339896,59.396201899999994,24.6605965,2.329258,-1.3123717,-2.4027057,-0.022485403,-0.0058500394,-0.06750712,-0.022651602,-0.030148724,-0.057132997,-0.07104859,0.037437953,0.037413422,0.009335578,-0.06819851,-0.013727944,-0.10565662,-0.15288158,-0.01406361,28.05643,0.1,0.1847644,0.18306912,0.11007974,0.08171933,inf,inf,inf,inf,1,1,1,1,2,2,2,2,2,0,1,1,0,0,0
565294413,565293307,68339896,59.396201899999994,24.6605965,2.328948,-1.3122088,-2.4033926,-0.022485403,-0.0058500394,-0.06750712,-0.022786023,-0.030311907,-0.05721699,-0.07109827,0.037437953,0.037413422,0.009335578,-0.027149804,-0.17512801,0.19889516,-0.152806,-0.01406361,28.05643,0.1,0.18549676,0.18364072,0.11051748,0.0819276,inf,inf,inf,inf,1,1,1,1,2,2,2,2,2,0,1,1,0,0,0
565304384,565303326,68339896,59.396201899999994,24.6605965,2.328641,-1.312066,-2.4040773,-0.022485403,-0.0058500394,-0.06750712,-0.023027178,-0.030273475,-0.05789474,-0.07173736,0.037437953,0.037413422,0.009335578,-0.10052084,-0.1129122,0.09847633,-0.1527841,-0.01406361,28.05643,0.1,0.18623428,0.18421489,0.11096023,0.082135886,inf,inf,inf,inf,1,1,1,1,2,2,2,2,2,0,1,1,0,0,0
565314718,565313346,68339896,59.396201899999994,24.6605965,2.328337,-1.3119432,-2.4047658,-0.022485403,-0.0058500394,-0.06750712,-0.022957569,-0.030320022,-0.059300184,-0.07310001,0.037437953,0.037413422,0.009335578,-0.08484368,-0.05411633,-0.06890265,-0.15288663,-0.01406361,28.05643,0.1,0.186977,0.18479164,0.11140129,0.08234437,inf,inf,inf,inf,1,1,1,1,2,2,2,2,2,0,1,1,0,0,0
565324453,565323365,68339896,59.396201899999994,24.6605965,2.3280363,-1.3118422,-2.4055917,-0.022485403,-0.0058500394,-0.06750712,-0.02260215,-0.03070934,-0.060498662,-0.07438305,0.037437953,0.037413422,0.009335578,0.01773009,0.004933509,0.020428244,-0.15297115,-0.01406361,28.05643,0.1,0.18772492,0.18511151,0.11184025,0.08249574,inf,inf,inf,inf,1,1,1,1,2,2,2,2,2,0,1,1,0,0,0
565334464,565333384,68339896,59.396201899999994,24.6605965,2.327742,-1.3117577,-2.4064202,-0.022485403,-0.0058500394,-0.06750712,-0.022452675,-0.030825853,-0.061712805,-0.075672254,0.037437953,0.037413422,0.009335578,-0.022949165,-0.08417422,-0.037277833,-0.15296125,-0.01406361,28.05643,0.1,0.18847804,0.1856926,0.11227891,0.08270438,inf,inf,inf,inf,1,1,1,1,2,2,2,2,2,0,1,1,0,0,0
565344604,565343403,68339896,59.396201899999994,24.6605965,2.3274515,-1.3116926,-2.4072456,-0.022485403,-0.0058500394,-0.06750712,-0.022557069,-0.03095975,-0.062040117,-0.076065525,0.037437953,0.037413422,0.009335578,-0.09217525,0.01838417,-0.06631551,-0.15286537,-0.01406361,28.05643,0.1,0.18923637,0.18627624,0.11272194,0.08291294,inf,inf,inf,inf,1,1,1,1,2,2,2,2,2,0,1,1,0,0,0
565355194,565353423,68339896,59.396201899999994,24.6605965,2.3271022,-1.3113647,-2.4079344,-0.022485403,-0.0058500394,-0.06750712,-0.022942735,-0.031052826,-0.06359989,-0.077540174,0.037437953,0.037413422,0.009335578,-0.01761206,-0.0376678,-0.26775804,-0.15280195,-0.01406361,28.05643,0.1,0.18087956,0.18022503,0.10775798,0.080645606,inf,inf,inf,inf,1,1,1,1,2,2,2,2,2,0,1,1,0,0,0
565364570,565363442,68339896,59.396201899999994,24.6605965,2.3267622,-1.3110578,-2.4086351,-0.022485403,-0.0058500394,-0.06750712,-0.022123083,-0.03015556,-0.065088905,-0.0789419,0.037437953,0.037413422,0.009335578,0.025135003,0.09661611,-0.22270435,-0.15282485,-0.01406361,28.05643,0.1,0.18158442,0.18078342,0.10819347,0.08085356,inf,inf,inf,inf,1,1,1,1,2,2,2,2,2,0,1,1,0,0,0
565374660,565373461,68339896,59.396201899999994,24.6605965,2.3264313,-1.3107729,-2.4093432,-0.022485403,-0.0058500394,-0.06750712,-0.021671658,-0.030605199,-0.065176465,-0.07894015,0.037437953,0.037413422,0.009335578,0.013754548,0.02780425,0.05491892,-0.15290384,-0.01406361,28.05643,0.1,0.18229441,0.18134439,0.10862925,0.08106148,inf,inf,inf,inf,1,1,1,1,2,2,2,2,2,0,1,1,0,0,0
565384598,565383480,68339896,59.396201899999994,24.6605965,2.3261025,-1.3105139,-2.4101741,-0.022485403,-0.0058500394,-0.06750712,-0.023132017,-0.030960886,-0.066074684,-0.079871476,0.037437953,0.037413422,0.009335578,-0.28010443,0.032508858,0.007142725,-0.15297562,-0.01406361,28.05643,0.1,0.18300954,0.18166274,0.109066896,0.081216775,inf,inf,inf,inf,1,1,1,1,2,2,2,2,2,0,1,1,0,0,0
565394604,565393500,68339896,59.396201899999994,24.6605965,2.3257744,-1.310279,-2.411009,-0.022485403,-0.0058500394,-0.06750712,-0.021535551,-0.030538399,-0.06794777,-0.081770435,0.037437953,0.037413422,0.009335578,0.20057838,0.23564585,-0.26169944,-0.15296787,-0.01406361,28.05643,0.1,0.1837298,0.18222809,0.1095025,0.08142487,inf,inf,inf,inf,1,1,1,1,2,2,2,2,2,0,1,1,0,0,0
565404682,565403519,68339896,59.396201899999994,24.6605965,2.3254552,-1.3100617,-2.4118502,-0.022485403,-0.0058500394,-0.06750712,-0.022167405,-0.030768633,-0.068929896,-0.082771525,0.037437953,0.037413422,0.009335578,-0.004985612,0.049491063,-0.19446352,-0.15293285,-0.01406361,28.05643,0.1,0.18445519,0.18279602,0.1099414,0.081633024,inf,inf,inf,inf,1,1,1,1,2,2,2,2,2,0,1,1,0,0,0
565414823,565413538,68339896,59.396201899999994,24.6605965,2.3251371,-1.3098674,-2.4126945,-0.022485403,-0.0058500394,-0.06750712,-0.022659168,-0.03106812,-0.06948004,-0.08333402,0.037437953,0.037413422,0.009335578,-0.1415384,0.0692207,-0.02738924,-0.15289432,-0.01406361,28.05643,0.1,0.18518575,0.1833665,0.110382564,0.081841245,inf,inf,inf,inf,1,1,1,1,2,2,2,2,2,0,1,1,0,0,0
565424582,565423557,68339896,59.396201899999994,24.6605965,2.3248186,-1.3096918,-2.4135423,-0.022485403,-0.0058500394,-0.06750712,-0.022781897,-0.030893883,-0.07099073,-0.084850736,0.037437953,0.037413422,0.009335578,-0.055124857,0.056936044,-0.19320147,-0.15289572,-0.01406361,28.05643,0.1,0.18592148,0.18393959,0.11082428,0.08204962,inf,inf,inf,inf,1,1,1,1,2,2,2,2,2,0,1,1,0,0,0
565434608,565433577,68339896,59.396201899999994,24.6605965,2.324506,-1.3095379,-2.4144027,-0.022485403,-0.0058500394,-0.06750712,-0.02180015,-0.031173117,-0.07327298,-0.08713297,0.037437953,0.037413422,0.009335578,0.12839772,0.0717285,-0.21137977,-0.15291752,-0.01406361,28.05643,0.1,0.18666244,0.18451524,0.11126637,0.08225804,inf,inf,inf,inf,1,1,1,1,2,2,2,2,2,0,1,1,0,0,0
565444689,565443596,68339896,59.396201899999994,24.6605965,2.3242023,-1.3094013,-2.415274,-0.022485403,-0.0058500394,-0.06750712,-0.022473099,-0.03160181,-0.07409325,-0.087947436,0.037437953,0.037413422,0.009335578,-0.17152116,-0.1108158,-0.010338259,-0.15296899,-0.01406361,28.05643,0.1,0.18740858,0.18509346,0.111705914,0.0824665,inf,inf,inf,inf,1,1,1,1,2,2,2,2,2,0,1,1,0,0,0
565454759,565453616,68339896,59.396201899999994,24.6605965,2.3238993,-1.3092877,-2.4162807,-0.022485403,-0.0058500394,-0.06750712,-0.021700911,-0.031309847,-0.075212486,-0.089191385,0.037437953,0.037413422,0.009335578,0.07894773,0.15530019,-0.096699566,-0.15300184,-0.01406361,28.05643,0.1,0.18815991,0.18541354,0.112150535,0.08261762,inf,inf,inf,inf,1,1,1,1,2,2,2,2,2,0,1,1,0,0,0
565464775,565463638,68339896,59.396201899999994,24.6605965,2.323605,-1.3091897,-2.4172845,-0.022485403,-0.0058500394,-0.06750712,-0.021306295,-0.031943556,-0.07652234,-0.090614714,0.037437953,0.037413422,0.009335578,0.058301084,-0.09069638,-0.32206446,-0.15298134,-0.01406361,28.05643,0.1,0.1889165,0.18599609,0.112595506,0.08282623,inf,inf,inf,inf,1,1,1,1,2,2,2,2,2,0,1,1,0,0,0
565474858,565473654,68339896,59.396201899999994,24.6605965,2.323316,-1.3091128,-2.4182985,-0.022485403,-0.0058500394,-0.06750712,-0.021506017,-0.03200047,-0.0778439,-0.09203895,0.037437953,0.037413422,0.009335578,-0.038413383,0.011697913,-0.054639474,-0.15296271,-0.01406361,28.05643,0.1,0.18967831,0.18658122,0.11303659,0.083034925,inf,inf,inf,inf,1,1,1,1,2,2,2,2,2,0,1,1,0,0,0
565485415,565483673,68339896,59.396201899999994,24.6605965,2.3229277,-1.3089051,-2.4190626,-0.022485403,-0.0058500394,-0.06750712,-0.021739429,-0.032336857,-0.07803814,-0.092067614,0.037437953,0.037413422,0.009335578,-0.031934932,-0.12014252,-0.09993409,-0.15292087,-0.01406361,28.05643,0.101490736,0.18125267,0.18049833,0.10802628,0.080754615,inf,inf,inf,inf,1,1,1,1,2,2,2,2,2,0,1,1,0,0,0
565494780,565493692,68339896,59.396201899999994,24.6605965,2.3225446,-1.308716,-2.4198306,-0.022485403,-0.0058500394,-0.06750712,-0.020815508,-0.032145347,-0.07917613,-0.09304129,0.037437953,0.037413422,0.009335578,0.2388812,-0.1571228,-0.24389315,-0.15292032,-0.01406361,28.05643,0.10161996,0.1819605,0.18105806,0.10846743,0.08096267,inf,inf,inf,inf,1,1,1,1,2,2,2,2,2,0,1,1,0,0,0
565504873,565503712,68339896,59.396201899999994,24.6605965,2.322174,-1.3085524,-2.4206219,-0.022485403,-0.0058500394,-0.06750712,-0.021354735,-0.032409932,-0.08205304,-0.0957552,0.037437953,0.037413422,0.009335578,-0.10786705,-0.018076962,-0.16794778,-0.15298717,-0.01406361,28.05643,0.10175848,0.18267345,0.18162036,0.10890442,0.08117065,inf,inf,inf,inf,1,1,1,1,2,2,2,2,2,0,1,1,0,0,0
565515480,565513735,68339896,59.396201899999994,24.6605965,2.3218052,-1.308409,-2.4215598,-0.022485403,-0.0058500394,-0.06750712,-0.022045095,-0.03307646,-0.08292073,-0.096597336,0.037437953,0.037413422,0.009335578,-0.1955939,-0.19568063,-0.16592076,-0.15302105,-0.01406361,28.05643,0.1,0.18339156,0.18193892,0.10934173,0.0813256,inf,inf,inf,inf,1,1,1,1,2,2,2,2,2,0,1,1,0,0,0
565524913,565523750,68339896,59.396201899999994,24.6605965,2.3214378,-1.3082844,-2.4225004,-0.022485403,-0.0058500394,-0.06750712,-0.020777177,-0.033096284,-0.083258994,-0.09690541,0.037437953,0.037413422,0.009335578,0.3113276,-0.26752904,-0.015175188,-0.15303504,-0.01406361,28.05643,0.1,0.18411483,0.1825056,0.10978281,0.08153373,inf,inf,inf,inf,1,1,1,1,2,2,2,2,2,0,1,1,0,0,0
565534879,565533769,68339896,59.396201899999994,24.6605965,2.3210819,-1.3081722,-2.4234502,-0.022485403,-0.0058500394,-0.06750712,-0.022390563,-0.032339327,-0.08604357,-0.09965536,0.037437953,0.037413422,0.009335578,-0.37284365,-0.23692127,-0.20097917,-0.1529594,-0.01406361,28.05643,0.1,0.18484326,0.18307483,0.11022696,0.08174204,inf,inf,inf,inf,1,1,1,1,2,2,2,2,2,0,1,1,0,0,0
565545540,565543788,68339896,59.396201899999994,24.6605965,2.3207235,-1.308081,-2.4244113,-0.022485403,-0.0058500394,-0.06750712,-0.021683287,-0.03236072,-0.08603446,-0.09960741,0.037437953,0.037413422,0.009335578,0.0243572,-0.032660957,0.07791398,-0.15287004,-0.01406361,28.05643,0.1,0.18557689,0.18364665,0.11066688,0.08195029,inf,inf,inf,inf,1,1,1,1,2,2,2,2,2,0,1,1,0,0,0
565554894,565553808,68339896,59.396201899999994,24.6605965,2.3203695,-1.3080137,-2.4253728,-0.022485403,-0.0058500394,-0.06750712,-0.021375004,-0.032604218,-0.08648604,-0.10001613,0.037437953,0.037413422,0.009335578,0.21176696,0.16439602,0.117543295,-0.1528672,-0.01406361,28.05643,0.1,0.18631569,0.18422104,0.11110841,0.08215871,inf,inf,inf,inf,1,1,1,1,2,2,2,2,2,0,1,1,0,0,0
565565033,565563835,68339896,59.396201899999994,24.6605965,2.3200307,-1.3079624,-2.426333,-0.022485403,-0.0058500394,-0.06750712,-0.021368079,-0.032641113,-0.08835101,-0.101834424,0.037437953,0.037413422,0.009335578,-0.18646163,0.0980734,-0.31941774,-0.1529298,-0.01406361,28.05643,0.1,0.18705972,0.18479802,0.11155166,0.08236721,inf,inf,inf,inf,1,1,1,1,2,2,2,2,2,0,1,1,0,0,0
565574926,565573846,68339896,59.396201899999994,24.6605965,2.3196938,-1.3079283,-2.4273121,-0.022485403,-0.0058500394,-0.06750712,-0.020435171,-0.03353716,-0.08984494,-0.10327807,0.037437953,0.037413422,0.009335578,0.22074397,-0.11473163,0.016302785,-0.15300082,-0.01406361,28.05643,0.1001842,0.18780896,0.18537758,0.11199459,0.08257569,inf,inf,inf,inf,1,1,1,1,2,2,2,2,2,0,1,1,0,0,0
565585059,565583869,68339896,59.396201899999994,24.6605965,2.3193624,-1.3079149,-2.4284317,-0.022485403,-0.0058500394,-0.06750712,-0.021530868,-0.03355607,-0.091096476,-0.10461371,0.037437953,0.037413422,0.009335578,-0.074604064,-0.011582133,-0.12928644,-0.15300518,-0.01406361,28.05643,0.1,0.1885634,0.18569778,0.11243545,0.08272652,inf,inf,inf,inf,1,1,1,1,2,2,2,2,2,0,1,1,0,0,0
565594979,565593885,68339896,59.396201899999994,24.6605965,2.319035,-1.3079104,-2.4295547,-0.022485403,-0.0058500394,-0.06750712,-0.021509478,-0.0335593,-0.092672534,-0.10626457,0.037437953,0.037413422,0.009335578,-0.18028592,-0.22678515,-0.22359277,-0.15291731,-0.01406361,28.05643,0.1,0.18932311,0.18628165,0.11287984,0.08293521,inf,inf,inf,inf,1,1,1,1,2,2,2,2,2,0,1,1,0,0,0
565605601,565603904,68339896,59.396201899999994,24.6605965,2.318693,-1.3076236,-2.43045,-0.022485403,-0.0058500394,-0.06750712,-0.02167266,-0.0336705,-0.09534104,-0.10874298,0.037437953,0.037413422,0.009335578,0.14743711,-0.17410736,-0.28944603,-0.15286262,-0.01406361,28.05643,0.1037097,0.18094875,0.18022932,0.10790246,0.08066632,inf,inf,inf,inf,1,1,1,1,2,2,2,2,2,0,1,1,0,0,0
565615780,565613924,68339896,59.396201899999994,24.6605965,2.3183572,-1.3073612,-2.4313629,-0.022485403,-0.0058500394,-0.06750712,-0.022000926,-0.03381446,-0.09652841,-0.10974282,0.037437953,0.037413422,0.009335578,-0.07317351,-0.17063037,-0.125304,-0.15285993,-0.01406361,28.05643,0.10384154,0.1816548,0.18078794,0.10833974,0.08087423,inf,inf,inf,inf,1,1,1,1,2,2,2,2,2,0,1,1,0,0,0
565625032,565623947,68339896,59.396201899999994,24.6605965,2.318029,-1.3071245,-2.432281,-0.022485403,-0.0058500394,-0.06750712,-0.021513926,-0.033140525,-0.0967626,-0.109792046,0.037437953,0.037413422,0.009335578,-0.072045445,0.12087775,-0.086409524,-0.15290059,-0.01406361,28.05643,0.10397267,0.182366,0.18134911,0.1087753,0.08108232,inf,inf,inf,inf,1,1,1,1,2,2,2,2,2,0,1,1,0,0,0
565635104,565633963,68339896,59.396201899999994,24.6605965,2.3177044,-1.3069121,-2.433211,-0.022485403,-0.0058500394,-0.06750712,-0.021066908,-0.03385861,-0.099044286,-0.1118913,0.037437953,0.037413422,0.009335578,0.16925274,0.069472656,-0.29505134,-0.15295202,-0.01406361,28.05643,0.104100704,0.18308231,0.18191287,0.109219134,0.081290245,inf,inf,inf,inf,1,1,1,1,2,2,2,2,2,0,1,1,0,0,0
565645421,565643981,68339896,59.396201899999994,24.6605965,2.3173864,-1.3067162,-2.434273,-0.022485403,-0.0058500394,-0.06750712,-0.02137869,-0.03356719,-0.09916968,-0.111957386,0.037437953,0.037413422,0.009335578,0.010864095,-0.09816221,0.03348484,-0.15296392,-0.01406361,28.05643,0.10142183,0.1838038,0.18223166,0.109656595,0.081444986,inf,inf,inf,inf,1,1,1,1,2,2,2,2,2,0,1,1,0,0,0
565655072,565654000,68339896,59.396201899999994,24.6605965,2.3170776,-1.3065463,-2.4353313,-0.022485403,-0.0058500394,-0.06750712,-0.02055725,-0.033852845,-0.10007004,-0.112795606,0.037437953,0.037413422,0.009335578,0.03262272,0.104619555,-0.24385461,-0.1529241,-0.01406361,28.05643,0.10164881,0.18453047,0.18279979,0.11009434,0.08165321,inf,inf,inf,inf,1,1,1,1,2,2,2,2,2,0,1,1,0,0,0
565665142,565664019,68339896,59.396201899999994,24.6605965,2.3167753,-1.3063936,-2.4364007,-0.022485403,-0.0058500394,-0.06750712,-0.020064695,-0.03358922,-0.10204092,-0.11470166,0.037437953,0.037413422,0.009335578,0.17351384,0.04893617,-0.3342523,-0.15289259,-0.01406361,28.05643,0.10187411,0.18526228,0.1833705,0.11053832,0.08186149,inf,inf,inf,inf,1,1,1,1,2,2,2,2,2,0,1,1,0,0,0
565675074,565674038,68339896,59.396201899999994,24.6605965,2.3164766,-1.3062587,-2.437489,-0.022485403,-0.0058500394,-0.06750712,-0.020679183,-0.033943184,-0.10376179,-0.116355196,0.037437953,0.037413422,0.009335578,0.050592706,-0.05310579,-0.15542945,-0.15288232,-0.01406361,28.05643,0.10210276,0.18599932,0.18394376,0.110980496,0.08206994,inf,inf,inf,inf,1,1,1,1,2,2,2,2,2,0,1,1,0,0,0
565685176,565684057,68339896,59.396201899999994,24.6605965,2.3161826,-1.3061512,-2.4385817,-0.022485403,-0.0058500394,-0.06750712,-0.020685134,-0.034757216,-0.10517632,-0.1177,0.037437953,0.037413422,0.009335578,-0.08228818,-0.01189902,-0.30960783,-0.15293111,-0.01406361,28.05643,0.10232115,0.18674156,0.18451962,0.11142316,0.0822783,inf,inf,inf,inf,1,1,1,1,2,2,2,2,2,0,1,1,0,0,0
565695105,565694077,68339896,59.396201899999994,24.6605965,2.31589,-1.3060632,-2.4396935,-0.022485403,-0.0058500394,-0.06750712,-0.020691816,-0.034166716,-0.10746264,-0.11991437,0.037437953,0.037413422,0.009335578,0.008739745,0.14854987,-0.3107357,-0.15296747,-0.01406361,28.05643,0.10254431,0.18748902,0.18509804,0.11186751,0.0824868,inf,inf,inf,inf,1,1,1,1,2,2,2,2,2,0,1,1,0,0,0
565705081,565704096,68339896,59.396201899999994,24.6605965,2.3156035,-1.3059915,-2.440821,-0.022485403,-0.0058500394,-0.06750712,-0.020631323,-0.034691334,-0.108978555,-0.12135622,0.037437953,0.037413422,0.009335578,-0.07232149,0.018806517,-0.22002824,-0.15295818,-0.01406361,28.05643,0.102761745,0.1882417,0.18567903,0.11231581,0.08269533,inf,inf,inf,inf,1,1,1,1,2,2,2,2,2,0,1,1,0,0,0
565716048,565714115,68339896,59.396201899999994,24.6605965,2.315325,-1.305934,-2.4421,-0.022485403,-0.0058500394,-0.06750712,-0.019817088,-0.0332803,-0.11044062,-0.122885995,0.037437953,0.037413422,0.009335578,-0.030985242,0.2629277,-0.13211237,-0.15293154,-0.01406361,28.05643,0.1,0.18899964,0.18599941,0.112760216,0.082845785,inf,inf,inf,inf,1,1,1,1,2,2,2,2,2,0,1,1,0,0,0
565725920,565724134,68339896,59.396201899999994,24.6605965,2.3149686,-1.3056203,-2.4430616,-0.022485403,-0.0058500394,-0.06750712,-0.020432439,-0.03438504,-0.11156834,-0.1237335,0.037437953,0.037413422,0.009335578,0.14380434,-0.019617675,-0.20185857,-0.15291296,-0.01406361,28.05643,0.10768294,0.18067114,0.17997561,0.107797995,0.080587275,inf,inf,inf,inf,1,1,1,1,2,2,2,2,2,0,1,1,0,0,0
565735268,565734154,68339896,59.396201899999994,24.6605965,2.314627,-1.3053322,-2.444047,-0.022485403,-0.0058500394,-0.06750712,-0.020316133,-0.03456159,-0.1135668,-0.12545873,0.037437953,0.037413422,0.009335578,-0.2776273,-0.06714583,-0.044040877,-0.15291156,-0.01406361,28.05643,0.10775089,0.1813757,0.18053322,0.108239025,0.08079526,inf,inf,inf,inf,1,1,1,1,2,2,2,2,2,0,1,1,0,0,0
565745535,565744173,68339896,59.396201899999994,24.6605965,2.3142862,-1.305075,-2.445047,-0.022485403,-0.0058500394,-0.06750712,-0.019679248,-0.03487118,-0.11498826,-0.12661377,0.037437953,0.037413422,0.009335578,0.105487645,0.09831231,-0.14276898,-0.152956,-0.01406361,28.05643,0.10782051,0.18208541,0.1810934,0.10867456,0.08100323,inf,inf,inf,inf,1,1,1,1,2,2,2,2,2,0,1,1,0,0,0
565755373,565754194,68339896,59.396201899999994,24.6605965,2.3139455,-1.3048347,-2.4460678,-0.022485403,-0.0058500394,-0.06750712,-0.020540506,-0.034996428,-0.11724626,-0.12861192,0.037437953,0.037413422,0.009335578,0.12405402,-0.18463628,-0.2929627,-0.15299116,-0.01406361,28.05643,0.10790324,0.18280025,0.18165614,0.10911375,0.08121137,inf,inf,inf,inf,1,1,1,1,2,2,2,2,2,0,1,1,0,0,0
565765329,565764211,68339896,59.396201899999994,24.6605965,2.3136213,-1.30462,-2.4471133,-0.022485403,-0.0058500394,-0.06750712,-0.019437851,-0.034048807,-0.119718604,-0.13083085,0.037437953,0.037413422,0.009335578,-0.085222945,0.2512794,-0.31037742,-0.15302348,-0.01406361,28.05643,0.107994795,0.18352024,0.18222144,0.109555796,0.08141952,inf,inf,inf,inf,1,1,1,1,2,2,2,2,2,0,1,1,0,0,0
565775360,565774230,68339896,59.396201899999994,24.6605965,2.3132982,-1.3044217,-2.4483087,-0.022485403,-0.0058500394,-0.06750712,-0.019847872,-0.034374032,-0.12010177,-0.13110165,0.037437953,0.037413422,0.009335578,0.033951383,0.04616619,0.011835261,-0.15300448,-0.01406361,28.05643,0.10495353,0.18424542,0.18254057,0.10999781,0.08157383,inf,inf,inf,inf,1,1,1,1,2,2,2,2,2,0,1,1,0,0,0
565785252,565784250,68339896,59.396201899999994,24.6605965,2.3129804,-1.304243,-2.44951,-0.022485403,-0.0058500394,-0.06750712,-0.019541668,-0.034614418,-0.12173115,-0.13261881,0.037437953,0.037413422,0.009335578,0.05489926,-0.059383325,-0.22321054,-0.15296206,-0.01406361,28.05643,0.10515618,0.1849758,0.18311027,0.11043996,0.08178213,inf,inf,inf,inf,1,1,1,1,2,2,2,2,2,0,1,1,0,0,0
565795339,565794269,68339896,59.396201899999994,24.6605965,2.3126733,-1.3040897,-2.4507256,-0.022485403,-0.0058500394,-0.06750712,-0.01920122,-0.034401756,-0.123301916,-0.1340776,0.037437953,0.037413422,0.009335578,-0.03262002,0.19328116,-0.2501228,-0.15299243,-0.01406361,28.05643,0.10535288,0.18571137,0.18368252,0.11088562,0.08199046,inf,inf,inf,inf,1,1,1,1,2,2,2,2,2,0,1,1,0,0,0
565805310,565804289,68339896,59.396201899999994,24.6605965,2.3123734,-1.303957,-2.4519565,-0.022485403,-0.0058500394,-0.06750712,-0.018699383,-0.035621252,-0.124535084,-0.13519907,0.037437953,0.037413422,0.009335578,0.028534621,-0.09557545,-0.068912625,-0.15303046,-0.01406361,28.05643,0.10554719,0.18645217,0.18425736,0.11132777,0.0821989,inf,inf,inf,inf,1,1,1,1,2,2,2,2,2,0,1,1,0,0,0
565815681,565814307,68339896,59.396201899999994,24.6605965,2.312073,-1.3038436,-2.453193,-0.022485403,-0.0058500394,-0.06750712,-0.019231297,-0.03642779,-0.12602039,-0.136573,0.037437953,0.037413422,0.009335578,0.123932354,-0.40577796,-0.39076084,-0.15305586,-0.01406361,28.05643,0.10573268,0.18719818,0.18483476,0.1117721,0.08240739,inf,inf,inf,inf,1,1,1,1,2,2,2,2,2,0,1,1,0,0,0
565825505,565824326,68339896,59.396201899999994,24.6605965,2.311782,-1.3037525,-2.4544504,-0.022485403,-0.0058500394,-0.06750712,-0.019331269,-0.03560856,-0.12786761,-0.1383092,0.037437953,0.037413422,0.009335578,-0.20303342,-0.092182174,-0.09904249,-0.15307102,-0.01406361,28.05643,0.105923414,0.18794942,0.18541475,0.112216644,0.08261595,inf,inf,inf,inf,1,1,1,1,2,2,2,2,2,0,1,1,0,0,0
565835476,565834347,68339896,59.396201899999994,24.6605965,2.3114884,-1.3036773,-2.4557214,-0.022485403,-0.0058500394,-0.06750712,-0.018947372,-0.035970345,-0.12932682,-0.1396578,0.037437953,0.037413422,0.009335578,0.15004627,-0.18921489,-0.15673846,-0.1530653,-0.01406361,28.05643,0.10610986,0.18870592,0.1859973,0.112663455,0.082824565,inf,inf,inf,inf,1,1,1,1,2,2,2,2,2,0,1,1,0,0,0
565846305,565844365,68339896,59.396201899999994,24.6605965,2.311169,-1.3034172,-2.4568355,-0.022485403,-0.0058500394,-0.06750712,-0.019768778,-0.034713797,-0.12998089,-0.14002277,0.037437953,0.037413422,0.009335578,0.02138519,0.035585254,-0.056011293,-0.15305094,-0.01406361,28.05643,0.11029577,0.18041779,0.17973644,0.10772339,0.08051693,inf,inf,inf,inf,1,1,1,1,2,2,2,2,2,0,1,1,0,0,0
565855542,565854384,68339896,59.396201899999994,24.6605965,2.3108613,-1.303179,-2.4579685,-0.022485403,-0.0058500394,-0.06750712,-0.018533563,-0.03484991,-0.1327247,-0.1424857,0.037437953,0.037413422,0.009335578,0.016418966,0.08274552,-0.30804548,-0.1530504,-0.01406361,28.05643,0.11033487,0.18112117,0.18029313,0.108164765,0.08072479,inf,inf,inf,inf,1,1,1,1,2,2,2,2,2,0,1,1,0,0,0
565865473,565864403,68339896,59.396201899999994,24.6605965,2.3105583,-1.3029681,-2.459122,-0.022485403,-0.0058500394,-0.06750712,-0.018437305,-0.035672106,-0.13342476,-0.14291286,0.037437953,0.037413422,0.009335578,0.18327379,0.021552986,-0.10325234,-0.1530746,-0.01406361,28.05643,0.110370636,0.18182968,0.1808524,0.10860759,0.08093285,inf,inf,inf,inf,1,1,1,1,2,2,2,2,2,0,1,1,0,0,0
565875406,565874423,68339896,59.396201899999994,24.6605965,2.310258,-1.3027836,-2.4602923,-0.022485403,-0.0058500394,-0.06750712,-0.019405685,-0.03646358,-0.13528927,-0.14451225,0.037437953,0.037413422,0.009335578,-0.062113438,-0.071496874,-0.15532865,-0.15311103,-0.01406361,28.05643,0.11040878,0.18254335,0.18141425,0.109043606,0.0811409,inf,inf,inf,inf,1,1,1,1,2,2,2,2,2,0,1,1,0,0,0
565885492,565884442,68339896,59.396201899999994,24.6605965,2.3099706,-1.3026234,-2.4614758,-0.022485403,-0.0058500394,-0.06750712,-0.018116076,-0.036526978,-0.13571075,-0.14467615,0.037437953,0.037413422,0.009335578,-0.10961967,-0.007541918,-0.104661815,-0.15309192,-0.01406361,28.05643,0.11044741,0.18326218,0.18197866,0.109486565,0.081349075,inf,inf,inf,inf,1,1,1,1,2,2,2,2,2,0,1,1,0,0,0
565895649,565894461,68339896,59.396201899999994,24.6605965,2.3096826,-1.3024814,-2.4626768,-0.022485403,-0.0058500394,-0.06750712,-0.018619785,-0.03650445,-0.13691042,-0.14562558,0.037437953,0.037413422,0.009335578,0.06706188,-0.07542813,0.024255635,-0.15306553,-0.01406361,28.05643,0.1104846,0.18398622,0.18254565,0.1099282,0.08155729,inf,inf,inf,inf,1,1,1,1,2,2,2,2,2,0,1,1,0,0,0
565905618,565904480,68339896,59.396201899999994,24.6605965,2.309402,-1.3023568,-2.464022,-0.022485403,-0.0058500394,-0.06750712,-0.018521657,-0.03593096,-0.13856624,-0.14717379,0.037437953,0.037413422,0.009335578,-0.10845924,0.019167861,-0.16782205,-0.15306248,-0.01406361,28.05643,0.10736656,0.18471542,0.1828651,0.11037045,0.08171138,inf,inf,inf,inf,1,1,1,1,2,2,2,2,2,0,1,1,0,0,0
565916246,565914499,68339896,59.396201899999994,24.6605965,2.3091302,-1.3022573,-2.465381,-0.022485403,-0.0058500394,-0.06750712,-0.018048283,-0.036819264,-0.13944344,-0.14794436,0.037437953,0.037413422,0.009335578,-0.1444933,0.06027782,-0.04607742,-0.15306771,-0.01406361,28.05643,0.10752058,0.18544984,0.18343645,0.11081278,0.08191972,inf,inf,inf,inf,1,1,1,1,2,2,2,2,2,0,1,1,0,0,0
565925574,565924518,68339896,59.396201899999994,24.6605965,2.308856,-1.3021785,-2.4667537,-0.022485403,-0.0058500394,-0.06750712,-0.018593138,-0.036546875,-0.14164956,-0.15004483,0.037437953,0.037413422,0.009335578,0.009808334,0.087625615,-0.19145969,-0.15312123,-0.01406361,28.05643,0.10767245,0.18618946,0.18401039,0.11125653,0.082128115,inf,inf,inf,inf,1,1,1,1,2,2,2,2,2,0,1,1,0,0,0
565935675,565934538,68339896,59.396201899999994,24.6605965,2.3085866,-1.3021145,-2.4681318,-0.022485403,-0.0058500394,-0.06750712,-0.01871472,-0.03774649,-0.14115886,-0.14944948,0.037437953,0.037413422,0.009335578,-0.16499527,-0.31200334,0.018038638,-0.15314849,-0.01406361,28.05643,0.10781193,0.18693432,0.1845869,0.11170132,0.08233666,inf,inf,inf,inf,1,1,1,1,2,2,2,2,2,0,1,1,0,0,0
565945611,565944557,68339896,59.396201899999994,24.6605965,2.3083227,-1.3020747,-2.4695199,-0.022485403,-0.0058500394,-0.06750712,-0.017634148,-0.0373879,-0.14319237,-0.15137933,0.037437953,0.037413422,0.009335578,0.063526824,-0.06255022,-0.12651527,-0.15313895,-0.01406361,28.05643,0.10794926,0.18768442,0.18516597,0.112143055,0.082545094,inf,inf,inf,inf,1,1,1,1,2,2,2,2,2,0,1,1,0,0,0
565955589,565954576,68339896,59.396201899999994,24.6605965,2.308059,-1.3020515,-2.4709198,-0.022485403,-0.0058500394,-0.06750712,-0.019206,-0.037385225,-0.14377058,-0.15185492,0.037437953,0.037413422,0.009335578,-0.1950744,-0.014458048,0.04506149,-0.15311463,-0.01406361,28.05643,0.10807943,0.18843974,0.18574764,0.11259332,0.082753815,inf,inf,inf,inf,1,1,1,1,2,2,2,2,2,0,1,1,0,0,0
565965793,565964595,68339896,59.396201899999994,24.6605965,2.3077996,-1.3020365,-2.4723258,-0.022485403,-0.0058500394,-0.06750712,-0.017812245,-0.03759294,-0.1447549,-0.15273768,0.037437953,0.037413422,0.009335578,-0.014093812,-0.31855208,-0.014783197,-0.153084,-0.01406361,28.05643,0.108195305,0.18920034,0.18633188,0.11303725,0.08296254,inf,inf,inf,inf,1,1,1,1,2,2,2,2,2,0,1,1,0,0,0
565976365,565974614,68339896,59.396201899999994,24.6605965,2.3074765,-1.3017359,-2.4733768,-0.022485403,-0.0058500394,-0.06750712,-0.017698843,-0.036957394,-0.1461351,-0.15362948,0.037437953,0.037413422,0.009335578,0.17031425,0.098536976,-0.09404955,-0.15310873,-0.01406361,28.05643,0.11706233,0.18083441,0.18003495,0.108042724,0.08063991,inf,inf,inf,inf,1,1,1,1,2,2,2,2,2,0,1,1,0,0,0
565985659,565984636,68339896,59.396201899999994,24.6605965,2.3071585,-1.3014576,-2.4744565,-0.022485403,-0.0058500394,-0.06750712,-0.019162446,-0.037829105,-0.14739074,-0.15441458,0.037437953,0.037413422,0.009335578,-0.2180303,-0.21052632,0.06359054,-0.15316895,-0.01406361,28.05643,0.11688256,0.18154125,0.18059316,0.10847961,0.08084801,inf,inf,inf,inf,1,1,1,1,2,2,2,2,2,0,1,1,0,0,0
565995744,565994653,68339896,59.396201899999994,24.6605965,2.3068397,-1.3012006,-2.475548,-0.022485403,-0.0058500394,-0.06750712,-0.018150039,-0.036990065,-0.14824764,-0.15481825,0.037437953,0.037413422,0.009335578,0.16043268,-0.09700397,-0.2600792,-0.15319484,-0.01406361,28.05643,0.1167047,0.18225324,0.18115392,0.1089184,0.08105602,inf,inf,inf,inf,1,1,1,1,2,2,2,2,2,0,1,1,0,0,0
566005729,566004672,68339896,59.396201899999994,24.6605965,2.3065345,-1.300969,-2.4766653,-0.022485403,-0.0058500394,-0.06750712,-0.017527033,-0.0377425,-0.15001045,-0.15614456,0.037437953,0.037413422,0.009335578,0.08567945,-0.16204259,-0.19684295,-0.15320723,-0.01406361,28.05643,0.11653733,0.18297037,0.18171728,0.10935994,0.08126412,inf,inf,inf,inf,1,1,1,1,2,2,2,2,2,0,1,1,0,0,0
566016058,566014691,68339896,59.396201899999994,24.6605965,2.3062258,-1.3007611,-2.4778078,-0.022485403,-0.0058500394,-0.06750712,-0.019624637,-0.037706353,-0.15105794,-0.15677176,0.037437953,0.037413422,0.009335578,-0.15435301,-0.15585431,-0.12030284,-0.15317291,-0.01406361,28.05643,0.1163795,0.18369271,0.1822832,0.10980033,0.08147239,inf,inf,inf,inf,1,1,1,1,2,2,2,2,2,0,1,1,0,0,0
566025841,566024711,68339896,59.396201899999994,24.6605965,2.3059182,-1.300575,-2.4789574,-0.022485403,-0.0058500394,-0.06750712,-0.018589301,-0.037765544,-0.15013506,-0.15544428,0.037437953,0.037413422,0.009335578,0.05801344,-0.12418113,-0.0058270143,-0.15310007,-0.01406361,28.05643,0.11621165,0.18442021,0.18285169,0.11024412,0.08168058,inf,inf,inf,inf,1,1,1,1,2,2,2,2,2,0,1,1,0,0,0
566036016,566034730,68339896,59.396201899999994,24.6605965,2.3056273,-1.3004074,-2.480247,-0.022485403,-0.0058500394,-0.06750712,-0.017170342,-0.03747768,-0.15278324,-0.15782705,0.037437953,0.037413422,0.009335578,0.09650518,-0.14570813,-0.2950657,-0.15312225,-0.01406361,28.05643,0.11317015,0.18515292,0.18317139,0.110680595,0.081834294,inf,inf,inf,inf,1,1,1,1,2,2,2,2,2,0,1,1,0,0,0
566045791,566044749,68339896,59.396201899999994,24.6605965,2.305335,-1.3002622,-2.4815607,-0.022485403,-0.0058500394,-0.06750712,-0.019560143,-0.038425222,-0.15393573,-0.15872334,0.037437953,0.037413422,0.009335578,-0.2686015,-0.3328926,-0.08815593,-0.153182,-0.01406361,28.05643,0.113138914,0.18589082,0.18374425,0.11112527,0.08204278,inf,inf,inf,inf,1,1,1,1,2,2,2,2,2,0,1,1,0,0,0
566055773,566054768,68339896,59.396201899999994,24.6605965,2.3050475,-1.3001415,-2.482892,-0.022485403,-0.0058500394,-0.06750712,-0.017676143,-0.03853148,-0.1548435,-0.15938386,0.037437953,0.037413422,0.009335578,-0.021384548,-0.22097908,0.11728679,-0.15321068,-0.01406361,28.05643,0.11311364,0.18663396,0.18431969,0.11156481,0.08225111,inf,inf,inf,inf,1,1,1,1,2,2,2,2,2,0,1,1,0,0,0
566065850,566064788,68339896,59.396201899999994,24.6605965,2.3047693,-1.3000406,-2.4842296,-0.022485403,-0.0058500394,-0.06750712,-0.016710825,-0.037660662,-0.15532109,-0.15962291,0.037437953,0.037413422,0.009335578,0.23674935,0.032327488,-0.06819477,-0.15323411,-0.01406361,28.05643,0.11308694,0.18738231,0.1848977,0.11200797,0.08245976,inf,inf,inf,inf,1,1,1,1,2,2,2,2,2,0,1,1,0,0,0
566075834,566074807,68339896,59.396201899999994,24.6605965,2.30449,-1.2999562,-2.4855902,-0.022485403,-0.0058500394,-0.06750712,-0.019984826,-0.037998524,-0.15766515,-0.16173683,0.037437953,0.037413422,0.009335578,-0.4390812,-0.03076271,-0.10519282,-0.15321252,-0.01406361,28.05643,0.11306763,0.18813589,0.1854783,0.11245427,0.082668364,inf,inf,inf,inf,1,1,1,1,2,2,2,2,2,0,1,1,0,0,0
566086003,566084836,68339896,59.396201899999994,24.6605965,2.3042092,-1.29989,-2.4869716,-0.022485403,-0.0058500394,-0.06750712,-0.017910305,-0.03797246,-0.15901703,-0.16286674,0.037437953,0.037413422,0.009335578,0.05175068,-0.020314205,-0.20835267,-0.15314226,-0.01406361,28.05643,0.11305046,0.18889476,0.18606147,0.112900436,0.082876965,inf,inf,inf,inf,1,1,1,1,2,2,2,2,2,0,1,1,0,0,0
566096062,566094845,68339896,59.396201899999994,24.6605965,2.3039427,-1.2998422,-2.488368,-0.022485403,-0.0058500394,-0.06750712,-0.016799938,-0.038484156,-0.16022749,-0.16386318,0.037437953,0.037413422,0.009335578,0.15886125,-0.11903989,-0.10134019,-0.15314154,-0.01406361,28.05643,0.11303449,0.18965888,0.18664722,0.11334553,0.08308576,inf,inf,inf,inf,1,1,1,1,2,2,2,2,2,0,1,1,0,0,0
566106211,566104864,68339896,59.396201899999994,24.6605965,2.303676,-1.2998168,-2.4899251,-0.022485403,-0.0058500394,-0.06750712,-0.019307872,-0.039618585,-0.162395,-0.16596703,0.037437953,0.037413422,0.009335578,-0.34859914,-0.30265737,-0.22480729,-0.15318456,-0.01406361,28.05643,0.10970616,0.19042827,0.18696819,0.11379441,0.08323525,inf,inf,inf,inf,1,1,1,1,2,2,2,2,2,0,1,1,0,0,0
566117109,566114883,68339896,59.396201899999994,24.6605965,2.3035076,-1.2996671,-2.4910548,-0.022485403,-0.0058500394,-0.06750712,-0.016915884,-0.038367916,-0.16320032,-0.16624378,0.037437953,0.037413422,0.009335578,0.07408758,-0.085733846,-0.049761396,-0.15324973,-0.01406361,28.05643,0.120441675,0.18187518,0.18084349,0.108679876,0.08093514,inf,inf,inf,inf,1,1,1,1,2,2,2,2,2,0,1,1,0,0,0
566125981,566124902,68339896,59.396201899999994,24.6605965,2.3033519,-1.2995392,-2.4922073,-0.022485403,-0.0058500394,-0.06750712,-0.01558997,-0.038717862,-0.1647293,-0.16726562,0.037437953,0.037413422,0.009335578,0.21420893,-0.021730527,-0.12915087,-0.15325359,-0.01406361,28.05643,0.120194435,0.18258946,0.18140535,0.10911235,0.08114329,inf,inf,inf,inf,1,1,1,1,2,2,2,2,2,0,1,1,0,0,0
566136058,566134922,68339896,59.396201899999994,24.6605965,2.3031998,-1.2994295,-2.4933796,-0.022485403,-0.0058500394,-0.06750712,-0.018104324,-0.038919043,-0.1650502,-0.16710013,0.037437953,0.037413422,0.009335578,-0.53443426,-0.14543852,-0.15087466,-0.15320872,-0.01406361,28.05643,0.119954824,0.18330885,0.18196978,0.10955871,0.08135151,inf,inf,inf,inf,1,1,1,1,2,2,2,2,2,0,1,1,0,0,0
566145958,566144944,68339896,59.396201899999994,24.6605965,2.303039,-1.2993405,-2.4945858,-0.022485403,-0.0058500394,-0.06750712,-0.015963867,-0.03814038,-0.16748975,-0.16907336,0.037437953,0.037413422,0.009335578,0.23860237,0.11386759,-0.12172068,-0.15313448,-0.01406361,28.05643,0.11972761,0.18403347,0.18253678,0.10999846,0.081559554,inf,inf,inf,inf,1,1,1,1,2,2,2,2,2,0,1,1,0,0,0
566155959,566154960,68339896,59.396201899999994,24.6605965,2.3028877,-1.2992723,-2.4958134,-0.022485403,-0.0058500394,-0.06750712,-0.015551125,-0.039120857,-0.16867605,-0.1698127,0.037437953,0.037413422,0.009335578,0.25047165,-0.03311785,-0.29437035,-0.15313064,-0.01406361,28.05643,0.11951113,0.18476325,0.18310635,0.11043899,0.081767984,inf,inf,inf,inf,1,1,1,1,2,2,2,2,2,0,1,1,0,0,0
566166110,566164984,68339896,59.396201899999994,24.6605965,2.3027434,-1.2992249,-2.4971952,-0.022485403,-0.0058500394,-0.06750712,-0.016839523,-0.039086986,-0.1692551,-0.1700947,0.037437953,0.037413422,0.009335578,-0.3823088,-0.017018482,-0.009121267,-0.15320258,-0.01406361,28.05643,0.11626077,0.18549824,0.18342608,0.11087918,0.08192142,inf,inf,inf,inf,1,1,1,1,2,2,2,2,2,0,1,1,0,0,0
566176733,566174998,68339896,59.396201899999994,24.6605965,2.3025835,-1.2991937,-2.4985886,-0.022485403,-0.0058500394,-0.06750712,-0.016353877,-0.040071845,-0.17009233,-0.17064725,0.037437953,0.037413422,0.009335578,0.32953653,-0.33588335,-0.16713783,-0.15324035,-0.01406361,28.05643,0.11617446,0.18623845,0.18400002,0.111325145,0.0821296,inf,inf,inf,inf,1,1,1,1,2,2,2,2,2,0,1,1,0,0,0
566186153,566185020,68339896,59.396201899999994,24.6605965,2.3024359,-1.299187,-2.5000014,-0.022485403,-0.0058500394,-0.06750712,-0.015330773,-0.039541006,-0.17129117,-0.1715733,0.037437953,0.037413422,0.009335578,0.18029019,0.014178812,-0.11874963,-0.15324797,-0.01406361,28.05643,0.11608577,0.18698388,0.18457653,0.11177005,0.08233824,inf,inf,inf,inf,1,1,1,1,2,2,2,2,2,0,1,1,0,0,0
566196267,566195037,68339896,59.396201899999994,24.6605965,2.302291,-1.2991948,-2.501427,-0.022485403,-0.0058500394,-0.06750712,-0.016638815,-0.03925621,-0.17169295,-0.1717139,0.037437953,0.037413422,0.009335578,-0.18403755,0.07138356,-0.09522655,-0.15323293,-0.01406361,28.05643,0.115997076,0.18773456,0.18515563,0.11221365,0.082546905,inf,inf,inf,inf,1,1,1,1,2,2,2,2,2,0,1,1,0,0,0
566206198,566205056,68339896,59.396201899999994,24.6605965,2.302136,-1.2992218,-2.502869,-0.022485403,-0.0058500394,-0.06750712,-0.01641543,-0.039235454,-0.1725619,-0.17233284,0.037437953,0.037413422,0.009335578,0.20084396,0.22423552,-0.12084055,-0.15317829,-0.01406361,28.05643,0.11590505,0.1884905,0.1857373,0.11266126,0.082755364,inf,inf,inf,inf,1,1,1,1,2,2,2,2,2,0,1,1,0,0,0
566216231,566215075,68339896,59.396201899999994,24.6605965,2.3019934,-1.2992643,-2.5043266,-0.022485403,-0.0058500394,-0.06750712,-0.014992085,-0.04000596,-0.17415944,-0.17369112,0.037437953,0.037413422,0.009335578,0.15782277,-0.009957636,-0.264394,-0.15314162,-0.01406361,28.05643,0.11581111,0.1892517,0.18632154,0.11310599,0.08296418,inf,inf,inf,inf,1,1,1,1,2,2,2,2,2,0,1,1,0,0,0
566226170,566225094,68339896,59.396201899999994,24.6605965,2.3018532,-1.299326,-2.5057986,-0.022485403,-0.0058500394,-0.06750712,-0.016429184,-0.04039673,-0.1742657,-0.1735686,0.037437953,0.037413422,0.009335578,-0.1913919,-0.074491195,-0.11574161,-0.15320952,-0.01406361,28.05643,0.11571622,0.19001816,0.18690838,0.113553405,0.08317307,inf,inf,inf,inf,1,1,1,1,2,2,2,2,2,0,1,1,0,0,0
566236338,566235114,68339896,59.396201899999994,24.6605965,2.3017035,-1.2994043,-2.5074236,-0.022485403,-0.0058500394,-0.06750712,-0.016108705,-0.04099591,-0.17533238,-0.17455734,0.037437953,0.037413422,0.009335578,0.17914551,-0.17516275,-0.19347756,-0.15324084,-0.01406361,28.05643,0.11235428,0.19078991,0.18722932,0.113997005,0.08332195,inf,inf,inf,inf,1,1,1,1,2,2,2,2,2,0,1,1,0,0,0
566246360,566245133,68339896,59.396201899999994,24.6605965,2.30157,-1.2994993,-2.5090587,-0.022485403,-0.0058500394,-0.06750712,-0.0143880155,-0.041168552,-0.17587797,-0.17502856,0.037437953,0.037413422,0.009335578,0.08980996,-0.19930951,-0.051463682,-0.15325673,-0.01406361,28.05643,0.11238289,0.19156693,0.18782045,0.11444887,0.08353096,inf,inf,inf,inf,1,1,1,1,2,2,2,2,2,0,1,1,0,0,0
566256157,566255152,68339896,59.396201899999994,24.6605965,2.30144,-1.2996113,-2.510698,-0.022485403,-0.0058500394,-0.06750712,-0.015531477,-0.041258577,-0.17560618,-0.17468588,0.037437953,0.037413422,0.009335578,-0.2686106,-0.09018859,0.16846107,-0.15326604,-0.01406361,28.05643,0.11239457,0.19234928,0.18841416,0.11489745,0.08373997,inf,inf,inf,inf,1,1,1,1,2,2,2,2,2,0,1,1,0,0,0
566266318,566265173,68339896,59.396201899999994,24.6605965,2.3012989,-1.2997369,-2.512337,-0.022485403,-0.0058500394,-0.06750712,-0.015132705,-0.041042797,-0.17566058,-0.17467277,0.037437953,0.037413422,0.009335578,0.22646275,-0.024381174,-0.06440302,-0.15320677,-0.01406361,28.05643,0.11239171,0.19313696,0.18901046,0.11534425,0.083948866,inf,inf,inf,inf,1,1,1,1,2,2,2,2,2,0,1,1,0,0,0
566276952,566275191,68339896,59.396201899999994,24.6605965,2.3010547,-1.2996017,-2.5134614,-0.022485403,-0.0058500394,-0.06750712,-0.014233148,-0.041163217,-0.1757434,-0.17414549,0.037437953,0.037413422,0.009335578,0.07322598,0.16179776,0.07494189,-0.15319398,-0.01406361,28.05643,0.124831915,0.18416885,0.18267342,0.109979235,0.08156817,inf,inf,inf,inf,1,1,1,1,2,2,2,2,2,0,1,1,0,0,0
566286353,566285210,68339896,59.396201899999994,24.6605965,2.3008173,-1.2994875,-2.5146055,-0.022485403,-0.0058500394,-0.06750712,-0.014569065,-0.042180084,-0.17652465,-0.17434351,0.037437953,0.037413422,0.009335578,-0.052263655,-0.12708113,-0.12826638,-0.15324652,-0.01406361,28.05643,0.12438011,0.18489842,0.18324313,0.11042076,0.08177643,inf,inf,inf,inf,1,1,1,1,2,2,2,2,2,0,1,1,0,0,0
566296472,566295229,68339896,59.396201899999994,24.6605965,2.3005755,-1.2993952,-2.5158746,-0.022485403,-0.0058500394,-0.06750712,-0.014830088,-0.041038062,-0.17571117,-0.173084,0.037437953,0.037413422,0.009335578,0.15384214,0.17414725,0.0027374357,-0.15329167,-0.01406361,28.05643,0.12134981,0.18563318,0.18356244,0.11085987,0.08192952,inf,inf,inf,inf,1,1,1,1,2,2,2,2,2,0,1,1,0,0,0
566306387,566305248,68339896,59.396201899999994,24.6605965,2.3003418,-1.2993214,-2.5171595,-0.022485403,-0.0058500394,-0.06750712,-0.014670871,-0.042107057,-0.17690317,-0.17385021,0.037437953,0.037413422,0.009335578,-0.0020022874,-0.084058896,-0.15637113,-0.15330952,-0.01406361,28.05643,0.12101269,0.18637316,0.18413651,0.11130082,0.082137875,inf,inf,inf,inf,1,1,1,1,2,2,2,2,2,0,1,1,0,0,0
566316433,566315268,68339896,59.396201899999994,24.6605965,2.3001187,-1.2992678,-2.5184667,-0.022485403,-0.0058500394,-0.06750712,-0.014160841,-0.042231336,-0.17703407,-0.17357485,0.037437953,0.037413422,0.009335578,-0.113060154,-0.14610021,0.010073506,-0.1533021,-0.01406361,28.05643,0.12068415,0.18711834,0.18471316,0.11174529,0.08234642,inf,inf,inf,inf,1,1,1,1,2,2,2,2,2,0,1,1,0,0,0
566326430,566325287,68339896,59.396201899999994,24.6605965,2.299888,-1.2992282,-2.519785,-0.022485403,-0.0058500394,-0.06750712,-0.01521467,-0.0409186,-0.17724875,-0.17340213,0.037437953,0.037413422,0.009335578,0.04339117,0.038303614,-0.11036268,-0.1532545,-0.01406361,28.05643,0.12035489,0.18786876,0.18529236,0.11218617,0.08255479,inf,inf,inf,inf,1,1,1,1,2,2,2,2,2,0,1,1,0,0,0
566336310,566335306,68339896,59.396201899999994,24.6605965,2.299663,-1.2992078,-2.5211182,-0.022485403,-0.0058500394,-0.06750712,-0.015128343,-0.041402854,-0.17774458,-0.17352878,0.037437953,0.037413422,0.009335578,-0.1319156,0.054064877,-0.15545951,-0.15324815,-0.01406361,28.05643,0.12003112,0.18862441,0.18587416,0.11263024,0.08276338,inf,inf,inf,inf,1,1,1,1,2,2,2,2,2,0,1,1,0,0,0
566346632,566345325,68339896,59.396201899999994,24.6605965,2.299443,-1.2992097,-2.5224652,-0.022485403,-0.0058500394,-0.06750712,-0.014454624,-0.041990846,-0.17700581,-0.1724384,0.037437953,0.037413422,0.009335578,-0.016488306,0.062463656,0.09166554,-0.15327364,-0.01406361,28.05643,0.11971259,0.18938531,0.18645854,0.113071874,0.082972124,inf,inf,inf,inf,1,1,1,1,2,2,2,2,2,0,1,1,0,0,0
566357166,566355344,68339896,59.396201899999994,24.6605965,2.2991323,-1.2990472,-2.5233562,-0.022485403,-0.0058500394,-0.06750712,-0.015360147,-0.04151539,-0.1769499,-0.17155889,0.037437953,0.037413422,0.009335578,0.03583785,0.01347958,-0.091842555,-0.15331993,-0.01406361,28.05643,0.13047123,0.18099765,0.18014966,0.1080643,0.08064711,inf,inf,inf,inf,1,1,1,1,2,2,2,2,2,0,1,1,0,0,0
566366464,566365364,68339896,59.396201899999994,24.6605965,2.2988334,-1.2989082,-2.5242712,-0.022485403,-0.0058500394,-0.06750712,-0.014249399,-0.042595726,-0.17680731,-0.17063026,0.037437953,0.037413422,0.009335578,0.02698729,-0.19572383,-0.054709367,-0.15338725,-0.01406361,28.05643,0.12978768,0.18170467,0.18070796,0.10849844,0.08085505,inf,inf,inf,inf,1,1,1,1,2,2,2,2,2,0,1,1,0,0,0
566377141,566375382,68339896,59.396201899999994,24.6605965,2.298541,-1.2987872,-2.5252142,-0.022485403,-0.0058500394,-0.06750712,-0.013958545,-0.041844945,-0.1773674,-0.17044064,0.037437953,0.037413422,0.009335578,0.16391423,-0.13635102,-0.08923769,-0.15339234,-0.01406361,28.05643,0.12913013,0.1824168,0.18126883,0.10893438,0.08106308,inf,inf,inf,inf,1,1,1,1,2,2,2,2,2,0,1,1,0,0,0
566386557,566385402,68339896,59.396201899999994,24.6605965,2.2982485,-1.298685,-2.5261798,-0.022485403,-0.0058500394,-0.06750712,-0.015337481,-0.041564945,-0.17640904,-0.16876769,0.037437953,0.037413422,0.009335578,-0.03340742,-0.011965683,0.07335957,-0.15332447,-0.01406361,28.05643,0.1284852,0.18313405,0.18183227,0.1093745,0.08127114,inf,inf,inf,inf,1,1,1,1,2,2,2,2,2,0,1,1,0,0,0
566396518,566395421,68339896,59.396201899999994,24.6605965,2.2979603,-1.2986069,-2.527164,-0.022485403,-0.0058500394,-0.06750712,-0.014145856,-0.04187997,-0.17732365,-0.1690016,0.037437953,0.037413422,0.009335578,0.24955976,0.06509601,-0.27167073,-0.15330109,-0.01406361,28.05643,0.12785482,0.1838565,0.18239829,0.10980782,0.08147919,inf,inf,inf,inf,1,1,1,1,2,2,2,2,2,0,1,1,0,0,0
566406545,566405442,68339896,59.396201899999994,24.6605965,2.2976792,-1.2985462,-2.528181,-0.022485403,-0.0058500394,-0.06750712,-0.016023992,-0.041746113,-0.17745014,-0.16848008,0.037437953,0.037413422,0.009335578,-0.29319176,0.01207937,0.014848793,-0.15330845,-0.01406361,28.05643,0.12725234,0.1845841,0.18296687,0.110249676,0.08168745,inf,inf,inf,inf,1,1,1,1,2,2,2,2,2,0,1,1,0,0,0
566416527,566415459,68339896,59.396201899999994,24.6605965,2.2973914,-1.2985051,-2.5292084,-0.022485403,-0.0058500394,-0.06750712,-0.015090787,-0.04182545,-0.17668387,-0.16709737,0.037437953,0.037413422,0.009335578,0.23894724,0.025540017,-0.15711397,-0.15334606,-0.01406361,28.05643,0.12664986,0.18531689,0.18353802,0.110687934,0.08189576,inf,inf,inf,inf,1,1,1,1,2,2,2,2,2,0,1,1,0,0,0
566426525,566425479,68339896,59.396201899999994,24.6605965,2.2971172,-1.298485,-2.5303807,-0.022485403,-0.0058500394,-0.06750712,-0.014494943,-0.042639267,-0.17578116,-0.1657441,0.037437953,0.037413422,0.009335578,0.14686438,-0.10559333,-0.14682889,-0.1534012,-0.01406361,28.05643,0.1229074,0.18605489,0.18385756,0.11112681,0.08204853,inf,inf,inf,inf,1,1,1,1,2,2,2,2,2,0,1,1,0,0,0
566436512,566435498,68339896,59.396201899999994,24.6605965,2.2968516,-1.2984757,-2.5315669,-0.022485403,-0.0058500394,-0.06750712,-0.015346186,-0.04210133,-0.1754627,-0.1649985,0.037437953,0.037413422,0.009335578,-0.2468408,-0.23089685,-0.09554628,-0.1533891,-0.01406361,28.05643,0.122443914,0.18679805,0.18443307,0.11156705,0.08225694,inf,inf,inf,inf,1,1,1,1,2,2,2,2,2,0,1,1,0,0,0
566446679,566445517,68339896,59.396201899999994,24.6605965,2.2965784,-1.2984866,-2.5327687,-0.022485403,-0.0058500394,-0.06750712,-0.014700806,-0.04202127,-0.17517792,-0.16430922,0.037437953,0.037413422,0.009335578,0.33739594,-0.066187695,0.10457186,-0.15335943,-0.01406361,28.05643,0.121994495,0.18754646,0.18501116,0.11200487,0.08246548,inf,inf,inf,inf,1,1,1,1,2,2,2,2,2,0,1,1,0,0,0
566456847,566455537,68339896,59.396201899999994,24.6605965,2.2963226,-1.298512,-2.5339825,-0.022485403,-0.0058500394,-0.06750712,-0.01438073,-0.041485336,-0.17497458,-0.16372317,0.037437953,0.037413422,0.009335578,-0.05729829,0.061480626,0.036068004,-0.15333955,-0.01406361,28.05643,0.12155509,0.18830006,0.18559183,0.11244626,0.08267394,inf,inf,inf,inf,1,1,1,1,2,2,2,2,2,0,1,1,0,0,0
566466694,566465556,68339896,59.396201899999994,24.6605965,2.2960749,-1.2985613,-2.5352182,-0.022485403,-0.0058500394,-0.06750712,-0.014514739,-0.04271477,-0.17625254,-0.16463952,0.037437953,0.037413422,0.009335578,-0.22589013,0.08379194,-0.101117864,-0.15335152,-0.01406361,28.05643,0.12113261,0.1890589,0.18617508,0.11288735,0.08288268,inf,inf,inf,inf,1,1,1,1,2,2,2,2,2,0,1,1,0,0,0
566476686,566475575,68339896,59.396201899999994,24.6605965,2.295813,-1.2986262,-2.5364718,-0.022485403,-0.0058500394,-0.06750712,-0.015664255,-0.041988704,-0.17588887,-0.16393454,0.037437953,0.037413422,0.009335578,0.1507241,0.12545726,0.06757013,-0.15338865,-0.01406361,28.05643,0.12072158,0.18982299,0.1867609,0.11333139,0.08309135,inf,inf,inf,inf,1,1,1,1,2,2,2,2,2,0,1,1,0,0,0
566487442,566485594,68339896,59.396201899999994,24.6605965,2.2956445,-1.2983837,-2.5374053,-0.022485403,-0.0058500394,-0.06750712,-0.014754009,-0.042460877,-0.17555085,-0.16292876,0.037437953,0.037413422,0.009335578,-0.047802657,-0.037238196,-0.10016758,-0.15341508,-0.01406361,28.05643,0.12815809,0.18136849,0.1804195,0.10828114,0.08075325,inf,inf,inf,inf,1,1,1,1,2,2,2,2,2,0,1,1,0,0,0
