timestamp,timestamp_sample,device_id,x,y,z,temperature,error_count,clip_counter[0],clip_counter[1],clip_counter[2],samples
564935482,564935119,3670026,-0.01981392,0.0026098979,-0.000958738,55.408813,0,0,0,0,10
564936738,564936371,3670026,-0.028975192,-0.01571265,-0.0063383235,55.374542,0,0,0,0,10
564938005,564937623,3670026,-0.03771036,-0.00628506,0.0056991647,55.443085,0,0,0,0,10
564939266,564938877,3670026,-0.0304133,0.003355583,0.0066579026,55.408813,0,0,0,0,10
564940509,564940128,3670026,-0.022583606,-0.004101268,-0.0068709557,55.4284,0,0,0,0,10
564941830,564941387,3670026,-0.03286341,-0.010492855,0.0016511598,55.41371,0,0,0,0,10
564943077,564942637,3670026,-0.041918155,0.00074568513,0.0127831735,55.369644,0,0,0,0,10
564944268,564943887,3670026,-0.024181502,0.0029827405,0.0016511598,55.35985,0,0,0,0,10
564945513,564945138,3670026,-0.030306773,-0.016405072,-0.004101268,55.369644,0,0,0,0,10
564946773,564946391,3670026,-0.039254993,-0.00644485,0.0028229507,55.34027,0,0,0,0,10
564948007,564947643,3670026,-0.031318776,0.0029827405,0.010705908,55.403915,0,0,0,0,10
564949284,564948895,3670026,-0.01901497,-0.005432849,-0.0048469533,55.4284,0,0,0,0,10
564950574,564950153,3670026,-0.03568636,-0.015765913,-0.00058589544,55.38923,0,0,0,0,10
564951843,564951400,3670026,-0.040586576,0.0011185276,0.00974717,55.379436,0,0,0,0,10
564953021,564952652,3670026,-0.02545982,0.0002663161,0.0002663161,55.350063,0,0,0,0,10
564956778,564956409,3670026,-0.03787015,0.013741911,0.0002663161,55.354958,0,0,0,0,10
564960551,564960167,3670026,-0.04527374,-0.007669904,-0.010652645,55.433292,0,0,0,0,10
564963049,564962672,3670026,-0.048203215,-0.011877699,-0.01688444,55.452877,0,0,0,0,10
564966809,564966429,3670026,-0.02396845,-0.0027164244,-0.0025566346,55.41371,0,0,0,0,10
564971845,564971438,3670026,-0.024714135,-0.01304949,0.002876214,55.38923,0,0,0,0,10
564973071,564972691,3670026,-0.038935415,-0.008522116,0.011291803,55.38923,0,0,0,0,10
564976889,564976448,3670026,-0.02545982,-0.013422332,0.019760655,55.423504,0,0,0,0,10
564980578,564980205,3670026,-0.024394555,-0.011877699,0.032170985,55.38923,0,0,0,0,10
564985590,564985215,3670026,0.000958738,-0.018322548,0.017576864,55.418606,0,0,0,0,10
564988077,564987720,3670026,-0.0618386,-0.010120012,0.07190535,55.34027,0,0,0,0,10
564990670,564990225,3670026,0.027164243,-0.020133497,-0.007243798,55.379436,0,0,0,0,10
564995593,564995234,3670026,-0.07190535,0.014647386,-5.3263222e-05,55.345165,0,0,0,0,10
564998166,564997739,3670026,-0.0053795855,-0.029188246,0.0026631611,55.33048,0,0,0,0,10
565001880,565001496,3670026,-0.05006743,-0.016192019,-0.047830373,55.345165,0,0,0,0,10
565005629,565005253,3670026,-0.050759852,0.01272991,-0.03334278,55.369644,0,0,0,0,10
565008124,565007758,3670026,-0.05273059,0.018002968,-0.059921123,55.408813,0,0,0,0,10
565011967,565011515,3670026,-0.00942759,-0.023915187,-0.042397525,55.408813,0,0,0,0,10
565015704,565015274,3670026,-0.011824436,-0.0018642128,-0.014594123,55.350063,0,0,0,0,10
565020656,565020282,3670026,-0.08207863,0.019973708,-0.0058589545,55.408813,0,0,0,0,10
565023192,565022788,3670026,-0.07888283,0.02066613,0.015925704,55.369644,0,0,0,0,10
565025658,565025292,3670026,0.013848438,-0.04564658,0.02066613,55.38923,0,0,0,0,10
565029431,565029049,3670026,-0.0015978967,-0.014807176,0.051345747,55.394123,0,0,0,0,10
565033188,565032807,3670026,-0.026365295,-0.009374327,0.04016047,55.36475,0,0,0,0,10
565036944,565036564,3670026,-0.030040458,0.012463594,0.03025351,55.34027,0,0,0,0,10
565040684,565040321,3670026,-0.055766594,-0.014753913,0.035473306,55.403915,0,0,0,0,10
565045751,565045330,3670026,-0.0056991647,0.0038882152,0.0020772656,55.310894,0,0,0,0,10
565046956,565046583,3670026,-0.04165184,-0.016564863,-0.014168017,55.38433,0,0,0,0,10
565050794,565050340,3670026,-0.000106526444,0.012516857,-0.021145498,55.350063,0,0,0,0,10
565054467,565054097,3670026,-0.059974387,-0.00069242186,-0.003621899,55.354958,0,0,0,0,10
565058217,565057854,3670026,-0.04165184,0.04596616,-0.015020229,55.394123,0,0,0,0,10
565060792,565060359,3670026,-0.03834952,-0.0027696874,-0.041278996,55.369644,0,0,0,0,10
565064490,565064117,3670026,-0.0050067427,0.0011717909,-0.035153728,55.35985,0,0,0,0,10
565069566,565069126,3670026,-0.069348715,-0.017470337,-0.016511599,55.394123,0,0,0,0,10
565072005,565071631,3670026,0.00021305289,-0.0026631611,-0.005273059,55.374542,0,0,0,0,10
565075755,565075388,3670026,-0.053103432,-0.013475595,0.021465078,55.38433,0,0,0,0,10
565078294,565077893,3670026,-0.0360592,-0.0038882152,0.023009712,55.394123,0,0,0,0,10
565082077,565081650,3670026,-0.024021713,-0.0051665325,0.023702133,55.379436,0,0,0,0,10
565085779,565085407,3670026,-0.021518342,-0.0056991647,0.029614352,55.394123,0,0,0,0,10
565089606,565089165,3670026,0.014860439,0.01107875,0.020879183,55.374542,0,0,0,0,10
565092069,565091669,3670026,-0.019228023,-0.00644485,0.016618125,55.394123,0,0,0,0,10
565095815,565095427,3670026,-0.02561961,-0.023009712,0.012463594,55.379436,0,0,0,0,10
565099567,565099184,3670026,-0.021411816,-0.02130529,-0.0073503247,55.403915,0,0,0,0,10
565103373,565102941,3670026,-0.020559603,-0.009800433,-0.025513083,55.38433,0,0,0,0,10
565107083,565106707,3670026,-0.05848302,-0.008735169,-0.016937705,55.379436,0,0,0,0,10
565110901,565110456,3670026,-0.020506341,0.011877699,-0.008468852,55.325584,0,0,0,0,10
565113415,565112967,3670026,-0.05219796,-0.0041545313,-0.020186761,55.354958,0,0,0,0,10
565117159,565116719,3670026,-0.042770367,-0.010599381,-0.036325518,55.374542,0,0,0,0,10
565120875,565120475,3670026,-0.045593318,-0.021837922,0.00085221155,55.345165,0,0,0,0,10
565124617,565124232,3670026,-0.050173957,0.010173275,-0.0073503247,55.35985,0,0,0,0,10
565128374,565127991,3670026,-0.030146984,0.0002663161,0.030786142,55.369644,0,0,0,0,10
565130947,565130495,3670026,-0.050227217,-0.016138757,0.0011717909,55.354958,0,0,0,0,10
565135877,565135508,3670026,-0.020133497,-0.0012250541,0.024554346,55.408813,0,0,0,0,10
565138364,565138009,3670026,0.0033023197,-0.010865698,-0.0030892668,55.310894,0,0,0,0,10
565142133,565141767,3670026,-0.03169162,-0.022743396,0.0020240024,55.41371,0,0,0,0,10
565145913,565145528,3670026,-0.014913702,0.009161274,0.021891184,55.369644,0,0,0,0,10
565148389,565148032,3670026,-0.0350472,0.008149273,-0.010918961,55.335373,0,0,0,0,10
565152150,565151785,3670026,-0.016831178,0.0005326322,0.0011185276,55.369644,0,0,0,0,10
565155935,565155542,3670026,-0.01768339,0.007723167,-0.0029294773,55.350063,0,0,0,0,10
565159723,565159299,3670026,-0.05555354,0.011771172,-0.014114754,55.36475,0,0,0,0,10
565162176,565161805,3670026,-0.033182986,-0.0070307455,0.005592638,55.36475,0,0,0,0,10
565165942,565165561,3670026,-0.061572284,-0.035260253,-0.014487596,55.374542,0,0,0,0,10
565169766,565169319,3670026,-0.048363004,-0.005752428,-0.011664646,55.354958,0,0,0,0,10
565173434,565173076,3670026,-0.011132013,0.011398329,-0.0013315806,55.29131,0,0,0,0,10
565177279,565176833,3670026,-0.0070840083,0.002396845,0.006711166,55.354958,0,0,0,0,10
565179727,565179338,3670026,-0.02412824,0.010013485,0.01257012,55.35985,0,0,0,0,10
565183466,565183095,3670026,0.000479369,-0.004580637,0.008309063,55.35985,0,0,0,0,10
565187223,565186853,3670026,-0.030999195,-0.011185276,-0.008362326,55.38923,0,0,0,0,10
565191043,565190612,3670026,-0.015765913,-0.0040480047,0.01688444,55.350063,0,0,0,0,10
565194757,565194367,3670026,-0.0551807,0.013848438,0.018695392,55.34027,0,0,0,0,10
565197243,565196872,3670026,-0.030360037,-0.018801918,0.0041545313,55.350063,0,0,0,0,10
565201026,565200629,3670026,-0.028975192,-0.0018109495,0.003941478,55.4284,0,0,0,0,10
565206038,565205643,3670026,-0.037816886,-0.0002663161,0.00074568513,55.369644,0,0,0,0,10
565208579,565208143,3670026,-0.058802597,0.007989483,-0.01901497,55.369644,0,0,0,0,10
565212334,565211901,3670026,-0.005060006,0.008575379,-0.00628506,55.369644,0,0,0,0,10
565216031,565215658,3670026,-0.021465078,0.005912218,-0.0025033713,55.418606,0,0,0,0,10
565218551,565218163,3670026,-0.07153251,-0.04415521,-0.004740427,55.443085,0,0,0,0,10
565222307,565221920,3670026,0.015978966,-0.0068176924,-0.010386328,55.447983,0,0,0,0,10
565226051,565225677,3670026,-0.017949706,-0.0029827405,0.00069242186,55.38923,0,0,0,0,10
565228554,565228182,3670026,-0.04580637,-0.02828277,0.016618125,55.34027,0,0,0,0,10
565232361,565231939,3670026,-0.022104237,0.010652645,0.012250541,55.41371,0,0,0,0,10
565236062,565235697,3670026,-0.01571265,-0.0034088462,0.0025033713,55.38433,0,0,0,0,10
565239839,565239454,3670026,-0.029987194,-0.005752428,0.00031957933,55.38923,0,0,0,0,10
565243643,565243211,3670026,0.0064981133,0.0058589545,0.008202536,55.315792,0,0,0,0,10
565247327,565246968,3670026,-0.047510795,0.010759171,0.0145408595,55.38923,0,0,0,0,10
565249945,565249477,3670026,-0.01587244,-0.009161274,-0.01784318,55.374542,0,0,0,0,10
565253602,565253230,3670026,-0.014434333,-0.016564863,0.00015978966,55.33048,0,0,0,0,10
565257361,565256989,3670026,-0.035260253,0.017789917,-0.009640643,55.320686,0,0,0,0,10
565261132,565260745,3670026,-0.04974785,-0.0034621095,-0.00037284257,55.418606,0,0,0,0,10
565263614,565263250,3670026,-0.012942963,0.0037816889,-0.009800433,55.41371,0,0,0,0,10
565267424,565267007,3670026,-0.033449303,-0.0041545313,0.0056459014,55.33048,0,0,0,0,10
565271145,565270767,3670026,-0.06354302,-0.0076166405,-0.0002663161,55.374542,0,0,0,0,10
565274910,565274521,3670026,-0.04346279,-0.002876214,-0.0029827405,55.423504,0,0,0,0,10
565278706,565278278,3670026,-0.005432849,0.009693907,-0.0034621095,55.320686,0,0,0,0,10
565281153,565280783,3670026,-0.04873585,0.023276027,0.017044231,55.34027,0,0,0,0,10
565286190,565285793,3670026,-0.055819858,0.0070307455,0.01736381,55.433292,0,0,0,0,10
565288657,565288297,3670026,-0.028815404,-0.037124466,0.01422128,55.408813,0,0,0,0,10
565292482,565292055,3670026,-0.020133497,-0.0017044231,0.0021837922,55.39902,0,0,0,0,10
565297445,565297064,3670026,-0.030146984,-0.033182986,-0.0065513765,55.408813,0,0,0,0,10
565298683,565298317,3670026,-0.02034655,0.0012783173,0.014966966,55.403915,0,0,0,0,10
565302487,565302075,3670026,-0.0572047,-0.027324032,0.011398329,55.394123,0,0,0,0,10
565307457,565307084,3670026,-0.037923414,-0.028868666,0.0048469533,55.325584,0,0,0,0,10
565309977,565309588,3670026,-0.038242992,-0.007723167,-0.01784318,55.35985,0,0,0,0,10
565313795,565313346,3670026,0.016937705,0.037603837,-5.3263222e-05,55.325584,0,0,0,0,10
565316277,565315850,3670026,-0.060720075,-0.023009712,-0.010013485,55.325584,0,0,0,0,10
565319977,565319608,3670026,-0.06247776,-0.03376888,-0.017044231,55.374542,0,0,0,0,10
565323727,565323365,3670026,0.013528858,-0.005432849,-0.008681905,55.374542,0,0,0,0,10
565327497,565327122,3670026,-0.015765913,-0.018216021,-0.000479369,55.345165,0,0,0,0,10
565331316,565330886,3670026,-0.0068176924,0.019867182,-0.008362326,55.39902,0,0,0,0,10
565333743,565333384,3670026,-0.03472762,0.00015978966,0.02727077,55.34027,0,0,0,0,10
565337511,565337141,3670026,-0.074035875,-0.03451457,0.011717909,55.39902,0,0,0,0,10
565341273,565340899,3670026,-0.027324032,-0.008415589,-0.0027696874,55.423504,0,0,0,0,10
565347604,565347161,3670026,-0.03424825,-0.0064981133,0.02263687,55.315792,0,0,0,0,10
565348879,565348413,3670026,-0.029933931,0.032650355,0.027856665,55.35985,0,0,0,0,10
565351352,565350918,3670026,-0.02444782,-0.033502568,-0.0070307455,55.379436,0,0,0,0,10
565356292,565355927,3670026,-0.050972905,-0.008735169,0.009800433,55.34027,0,0,0,0,10
565358803,565358432,3670026,-0.020612868,-0.018695392,-0.016138757,55.403915,0,0,0,0,10
565362547,565362189,3670026,-0.003355583,0.002396845,0.0029294773,55.325584,0,0,0,0,10
565367569,565367199,3670026,-0.01784318,-0.0012783173,0.0024501083,55.345165,0,0,0,0,10
565368830,565368452,3670026,-0.048203215,-0.008522116,0.0046339002,55.408813,0,0,0,0,10
565372599,565372209,3670026,-0.028815404,0.015073492,0.0013848437,55.354958,0,0,0,0,10
565376334,565375966,3670026,-0.027643612,-0.0029294773,-0.021198763,55.335373,0,0,0,0,10
565380156,565379723,3670026,-0.0020772656,0.021837922,0.0010120012,55.38923,0,0,0,0,10
565382591,565382228,3670026,-0.039894152,-0.01720402,-0.0015446334,55.354958,0,0,0,0,10
565386359,565385985,3670026,-0.04000068,0.00090547476,0.0071372716,55.369644,0,0,0,0,10
565390142,565389743,3670026,-0.025939189,-0.021624869,5.3263222e-05,55.35985,0,0,0,0,10
565393883,565393500,3670026,-0.0032490566,-0.01981392,-0.014008228,55.306,0,0,0,0,10
565397619,565397257,3670026,-0.0058589545,0.0052197957,-0.00042610578,55.354958,0,0,0,0,10
565400219,565399762,3670026,-0.06609966,-0.0031957934,0.030200247,55.433292,0,0,0,0,10
565403931,565403519,3670026,-0.032170985,0.017044231,0.0012250541,55.34027,0,0,0,0,10
565407647,565407276,3670026,-0.037923414,0.006764429,-0.0046871635,55.374542,0,0,0,0,10
565411466,565411036,3670026,-0.03025351,0.032117724,-0.0033023197,55.315792,0,0,0,0,10
565416482,565416043,3670026,-0.03771036,0.009054747,-0.010865698,55.36475,0,0,0,0,10
565417732,565417295,3670026,-0.031638354,-0.027750138,0.0034088462,55.315792,0,0,0,0,10
565421452,565421067,3670026,-0.014807176,-0.01438107,-0.008042746,55.38433,0,0,0,0,10
565426428,565426062,3670026,-0.04564658,-0.010865698,-0.002130529,55.29131,0,0,0,0,10
565428950,565428567,3670026,-0.023009712,0.011877699,-0.0012250541,55.35985,0,0,0,0,10
565432698,565432324,3670026,0.012996227,-0.0017044231,-0.015765913,55.310894,0,0,0,0,10
565435201,565434829,3670026,-0.038083203,-0.019228023,0.0076166405,55.325584,0,0,0,0,10
565438989,565438586,3670026,-0.05262406,0.0041545313,0.00495348,55.39902,0,0,0,0,10
565442711,565442344,3670026,-0.03073288,0.017257284,0.00021305289,55.374542,0,0,0,0,10
565446525,565446101,3670026,-0.01603223,0.007829694,-0.035313517,55.394123,0,0,0,0,10
565450306,565449858,3670026,-0.027750138,-0.0038882152,-0.0036751623,55.354958,0,0,0,0,10
565452726,565452363,3670026,-0.06215818,-0.0050067427,0.0058056912,55.394123,0,0,0,0,10
565456524,565456130,3670026,-0.008149273,0.00069242186,0.00042610578,55.33048,0,0,0,0,10
565460308,565459879,3670026,-0.005060006,-0.0221575,-0.0070840083,55.29131,0,0,0,0,10
565466507,565466139,3670026,-0.04660532,-0.020186761,0.0064981133,55.25704,0,0,0,0,10
565467777,565467391,3670026,-0.02977414,-0.0022370552,0.014168017,55.379436,0,0,0,0,10
565470348,565469897,3670026,-0.035846148,-0.04697816,-0.0070307455,55.310894,0,0,0,0,10
565476595,565476159,3670026,-0.044687845,0.039734364,0.0017576864,55.26683,0,0,0,0,10
565477862,565477411,3670026,-0.03936152,0.018482339,0.015552861,55.36475,0,0,0,0,10
565481531,565481168,3670026,-0.040746365,0.0029294773,0.010599381,55.306,0,0,0,0,10
565486553,565486178,3670026,-0.042397525,0.009640643,0.018322548,55.335373,0,0,0,0,10
565487843,565487430,3670026,-0.036005937,-0.0048469533,0.0075633777,55.315792,0,0,0,0,10
565491636,565491203,3670026,-0.029720878,0.029081719,0.008628642,55.34027,0,0,0,0,10
565496568,565496197,3670026,-0.037603837,0.0002663161,0.005273059,55.28641,0,0,0,0,10
565499132,565498702,3670026,-0.010546118,0.03616573,-0.015499597,55.350063,0,0,0,0,10
565501575,565501207,3670026,-0.024394555,-0.024341293,0.011558119,55.26683,0,0,0,0,10
565506574,565506216,3670026,-0.011558119,-0.0010120012,0.007723167,55.36475,0,0,0,0,10
565509102,565508721,3670026,-0.049641322,0.0041545313,-0.0049002166,55.320686,0,0,0,0,10
565512925,565512478,3670026,-0.021145498,-0.01422128,0.0026098979,55.3011,0,0,0,0,10
565516654,565516235,3670026,-0.016245283,-0.007243798,-0.009960223,55.36475,0,0,0,0,10
565519095,565518740,3670026,-0.07174556,-0.00090547476,0.01667139,55.26683,0,0,0,0,10
565524178,565523750,3670026,-0.06258429,-0.05091964,0.015765913,55.310894,0,0,0,0,10
565526621,565526255,3670026,-0.026205506,-0.015180019,0.012303804,55.281517,0,0,0,0,10
565530447,565530012,3670026,-0.0110254865,0.041545313,0.02380866,55.28641,0,0,0,0,10
565534132,565533769,3670026,-0.043089945,0.047883637,0.010652645,55.237453,0,0,0,0,10
565537905,565537526,3670026,-0.018482339,0.05006743,0.021358551,55.276623,0,0,0,0,10
565540403,565540031,3670026,-0.017896442,-0.044528052,-0.0075633777,55.252144,0,0,0,0,10
565544218,565543788,3670026,-0.015446334,-0.0041545313,-0.0010652645,55.28641,0,0,0,0,10
565548015,565547555,3670026,-0.036591835,-0.0011185276,0.02545982,55.252144,0,0,0,0,10
565551667,565551303,3670026,-0.04143879,0.010812434,0.0030892668,55.306,0,0,0,0,10
565554189,565553808,3670026,-0.005486112,-0.03536678,-0.0072970614,55.310894,0,0,0,0,10
565558031,565557567,3670026,-0.044048686,-0.021678131,0.0071372716,55.3011,0,0,0,0,10
565561687,565561322,3670026,-0.044900898,-0.0068709557,0.014966966,55.26683,0,0,0,0,10
565566691,565566332,3670026,-0.05656554,-0.03334278,0.008309063,55.335373,0,0,0,0,10
565569256,565568837,3670026,-0.018535601,0.013795175,-0.0128897,55.320686,0,0,0,0,10
565571710,565571341,3670026,-0.056672066,-0.021784658,-0.00063915865,55.252144,0,0,0,0,10
565576801,565576351,3670026,-0.03488741,0.0013315806,0.0040480047,55.310894,0,0,0,0,10
565579232,565578856,3670026,-0.025513083,-0.009214537,-0.005965481,55.23256,0,0,0,0,10
565582989,565582613,3670026,-0.012463594,-0.005592638,-0.007882956,55.33048,0,0,0,0,10
565586773,565586370,3670026,-0.028655613,0.030679615,0.026897928,55.271725,0,0,0,0,10
565590594,565590128,3670026,-0.04165184,0.03552657,0.022423817,55.296207,0,0,0,0,10
565593015,565592632,3670026,-0.0314253,-0.075580515,-0.0024501083,55.247246,0,0,0,0,10
565596774,565596389,3670026,0.011291803,-0.011824436,0.015765913,55.315792,0,0,0,0,10
565600527,565600146,3670026,-0.015233281,0.0053263223,0.010333065,55.25704,0,0,0,0,10
565604262,565603904,3670026,-0.059921123,0.023062976,0.019441076,55.252144,0,0,0,0,10
565608029,565607661,3670026,-0.043888897,0.021252025,0.002130529,55.26683,0,0,0,0,10
565610590,565610166,3670026,-0.00990696,-0.0022903185,-0.001438107,55.261932,0,0,0,0,10
565614372,565613924,3670026,-0.008841695,-0.028176244,-0.0110254865,55.276623,0,0,0,0,10
565618108,565617680,3670026,-0.005752428,0.01736381,0.0014913703,55.276623,0,0,0,0,10
565620546,565620185,3670026,-0.022264026,-0.00479369,-0.012410331,55.310894,0,0,0,0,10
565624321,565623947,3670026,-0.012357067,0.0022370552,0.0018109495,55.310894,0,0,0,0,10
565628079,565627700,3670026,-0.025086978,-0.024341293,0.0031957934,55.222767,0,0,0,0,10
565631902,565631457,3670026,-0.0257794,-0.020080235,-0.022050973,55.227665,0,0,0,0,10
565636835,565636466,3670026,-0.059068915,-0.035153728,-0.019920446,55.310894,0,0,0,0,10
565638084,565637719,3670026,-0.075793564,0.0018642128,-0.0002663161,55.29131,0,0,0,0,10
565641855,565641476,3670026,-0.07195862,-0.03520699,-0.009853696,55.281517,0,0,0,0,10
565645672,565645233,3670026,-0.03488741,-0.058163438,-0.004261058,55.320686,0,0,0,0,10
565649412,565648993,3670026,-0.027377296,-0.04628574,0.00074568513,55.271725,0,0,0,0,10
565653128,565652748,3670026,-0.019654129,-0.002876214,0.014860439,55.34027,0,0,0,0,10
565656881,565656505,3670026,-0.03451457,0.039787628,0.014434333,55.20808,0,0,0,0,10
565659417,565659010,3670026,-0.039201733,-0.041278996,-0.0026631611,55.296207,0,0,0,0,10
565663147,565662768,3670026,0.009054747,-0.04862932,-0.01107875,55.25704,0,0,0,0,10
565666909,565666524,3670026,-0.0046339002,-0.019547602,-0.015286544,55.29131,0,0,0,0,10
565670731,565670282,3670026,-0.010972224,-0.013901701,-0.010013485,55.28641,0,0,0,0,10
565673169,565672787,3670026,-0.07249124,-0.0002663161,0.01768339,55.222767,0,0,0,0,10
565676928,565676543,3670026,-0.044847634,-0.016138757,-0.006072007,55.296207,0,0,0,0,10
565680794,565680301,3670026,-0.037017938,-0.015286544,-0.016192019,55.276623,0,0,0,0,10
565684427,565684057,3670026,-0.013209279,-0.005060006,0.018588865,55.25704,0,0,0,0,10
565688194,565687815,3670026,-0.013475595,0.0041545313,-0.011984225,55.315792,0,0,0,0,10
565691948,565691572,3670026,-0.013901701,-0.0038882152,-0.00644485,55.237453,0,0,0,0,10
565694434,565694077,3670026,-0.04234426,-0.000958738,0.01981392,55.247246,0,0,0,0,10
565698197,565697834,3670026,-0.057950385,-0.037017938,-0.0060187443,55.217873,0,0,0,0,10
565701957,565701591,3670026,-0.007190535,-0.042397525,-0.02380866,55.237453,0,0,0,0,10
565708216,565707853,3670026,-0.05800365,0.016724652,0.029188246,55.25704,0,0,0,0,10
565709471,565709106,3670026,-0.01667139,0.0031957934,0.027217507,55.252144,0,0,0,0,10
565712032,565711610,3670026,-0.0505468,-0.0175236,-0.005592638,55.276623,0,0,0,0,10
565717060,565716620,3670026,-0.054807857,0.035579834,0.022050973,55.28641,0,0,0,0,10
565719511,565719126,3670026,0.0015978967,-0.04990764,-0.008788432,55.24235,0,0,0,0,10
565723250,565722882,3670026,0.00085221155,0.0053795855,-0.0012250541,55.222767,0,0,0,0,10
565727019,565726642,3670026,-0.018482339,0.021145498,0.022690132,55.237453,0,0,0,0,10
565729624,565729152,3670026,-0.09108011,-0.023116238,-0.00063915865,55.20808,0,0,0,0,10
565733273,565732902,3670026,-0.02231729,0.0077764303,0.0133690685,55.261932,0,0,0,0,10
565737041,565736658,3670026,-0.052517537,-0.021571605,0.00063915865,55.247246,0,0,0,0,10
565739588,565739163,3670026,-0.004261058,-0.0037816889,-0.004740427,55.198288,0,0,0,0,10
565743290,565742921,3670026,-0.020506341,-0.023595607,0.0063383235,55.23256,0,0,0,0,10
565747096,565746678,3670026,-0.029294772,-0.001970739,0.0076166405,55.26683,0,0,0,0,10
565750897,565750437,3670026,-0.035739623,-0.022690132,-0.00079894834,55.252144,0,0,0,0,10
565754570,565754194,3670026,-0.0026631611,-0.0145408595,-0.024181502,55.188496,0,0,0,0,10
565758351,565757955,3670026,-0.015606124,-0.029507825,-0.026205506,55.19339,0,0,0,0,10
565760859,565760454,3670026,-0.08873653,0.030839406,0.027217507,55.164013,0,0,0,0,10
565764576,565764211,3670026,-0.075314194,0.008841695,0.01885518,55.173805,0,0,0,0,10
565768335,565767968,3670026,-0.07078682,-0.026844664,-0.015020229,55.217873,0,0,0,0,10
565772172,565771726,3670026,-0.057630807,-0.014487596,-0.003621899,55.237453,0,0,0,0,10
565777161,565776736,3670026,-0.024927188,-0.04005394,0.009108011,55.203182,0,0,0,0,10
565778416,565777988,3670026,-0.056139436,0.015233281,0.023702133,55.217873,0,0,0,0,10
565782114,565781745,3670026,-0.03206446,-0.024927188,0.007989483,55.252144,0,0,0,0,10
565787128,565786754,3670026,-0.036325518,0.027963191,0.018216021,55.198288,0,0,0,0,10
565789661,565789259,3670026,-0.016458336,-0.044101946,0.005432849,55.24235,0,0,0,0,10
565798399,565798027,3670026,-0.057311226,-0.014274543,-0.0034621095,55.212975,0,0,0,0,10
565799646,565799278,3670026,-0.026471822,-0.02444782,0.0065513765,55.23256,0,0,0,0,10
565800902,565800531,3670026,0.021891184,-0.009321064,0.0027696874,55.144432,0,0,0,0,10
565803405,565803036,3670026,-0.037444044,-0.027963191,-0.006764429,55.227665,0,0,0,0,10
565807176,565806793,3670026,-0.031372037,0.005432849,0.0051665325,55.173805,0,0,0,0,10
565810929,565810550,3670026,0.0030892668,0.0064981133,-0.007190535,55.20808,0,0,0,0,10
565813487,565813061,3670026,-0.034674358,-0.0058589545,0.011558119,55.20808,0,0,0,0,10
565817243,565816812,3670026,-0.04527374,-0.0044741104,0.010972224,55.164013,0,0,0,0,10
565820951,565820569,3670026,-0.06940198,-0.0034088462,0.030573089,55.252144,0,0,0,0,10
565824697,565824326,3670026,-0.056245964,-0.02844256,-0.006924219,55.16891,0,0,0,0,10
565827269,565826834,3670026,0.001917476,-0.0005326322,0.0035686358,55.222767,0,0,0,0,10
565830953,565830588,3670026,-0.02130529,0.018002968,0.025992453,55.13464,0,0,0,0,10
565834725,565834347,3670026,-0.056459017,0.01688444,0.0018642128,55.212975,0,0,0,0,10
565838481,565838103,3670026,-0.029561087,-0.022743396,-0.00479369,55.227665,0,0,0,0,10
565842293,565841861,3670026,-0.023755398,-0.0618386,-0.013901701,55.217873,0,0,0,0,10
565844756,565844365,3670026,-0.037390783,0.033449303,0.017310547,55.188496,0,0,0,0,10
565848576,565848126,3670026,-0.037444044,-0.0015446334,0.0049002166,55.247246,0,0,0,0,10
565852251,565851879,3670026,-0.047883637,-0.029720878,-0.004261058,55.183598,0,0,0,0,10
565856031,565855637,3670026,-0.020719394,-0.026578348,-0.0068709557,55.183598,0,0,0,0,10
565859772,565859394,3670026,-0.054328486,0.0017576864,5.3263222e-05,55.16891,0,0,0,0,10
565862266,565861898,3670026,-0.0063915867,0.021678131,0.0027696874,55.198288,0,0,0,0,10
565867315,565866908,3670026,-0.00495348,0.035100464,-0.015233281,55.183598,0,0,0,0,10
565871134,565870678,3670026,-0.01422128,0.0075101145,-0.007456851,55.183598,0,0,0,0,10
565873534,565873170,3670026,-0.041065942,-0.010705908,-0.00021305289,55.23256,0,0,0,0,10
565877319,565876931,3670026,-0.029880667,0.010333065,0.0014913703,55.15912,0,0,0,0,10
565879873,565879434,3670026,-0.016138757,-0.00990696,0.0011717909,55.144432,0,0,0,0,10
565883562,565883189,3670026,-0.03307646,0.00021305289,0.012463594,55.222767,0,0,0,0,10
565887364,565886947,3670026,-0.04314321,-0.0015446334,0.01688444,55.119953,0,0,0,0,10
565891071,565890704,3670026,-0.041065942,-0.012410331,-0.00628506,55.23256,0,0,0,0,10
565893590,565893209,3670026,-0.019654129,0.009054747,0.019920446,55.16891,0,0,0,0,10
565897372,565896966,3670026,-0.019228023,0.03009372,0.013795175,55.183598,0,0,0,0,10
565901095,565900723,3670026,-0.042131208,0.028655613,0.01688444,55.188496,0,0,0,0,10
565904854,565904480,3670026,-0.03488741,0.0011185276,-0.0061252704,55.183598,0,0,0,0,10
565908611,565908238,3670026,-0.025513083,-0.014753913,0.0002663161,55.16891,0,0,0,0,10
565911175,565910742,3670026,-0.06471481,-0.033822145,-0.0010120012,55.149326,0,0,0,0,10
565914972,565914499,3670026,-0.025193503,0.03195793,0.004101268,55.188496,0,0,0,0,10
565918631,565918257,3670026,0.0015446334,-0.007829694,-0.008309063,55.129745,0,0,0,0,10
565922371,565922014,3670026,-0.0068709557,-0.027483823,-0.009108011,55.227665,0,0,0,0,10
565927399,565927023,3670026,-0.04681837,0.0088949585,-0.012144014,55.20808,0,0,0,0,10
565928653,565928277,3670026,-0.02514024,0.02444782,0.0068709557,55.212975,0,0,0,0,10
565932458,565932033,3670026,-0.0133690685,0.0035153728,0.018375812,55.173805,0,0,0,0,10
565936183,565935790,3670026,-0.020293288,-0.0061785337,0.0012250541,55.183598,0,0,0,0,10
565939936,565939547,3670026,-0.008841695,0.00958738,-0.017470337,55.15912,0,0,0,0,10
565943735,565943304,3670026,-0.04495416,-0.020240024,0.013635385,55.13464,0,0,0,0,10
565946187,565945810,3670026,-0.039254993,0.0017044231,0.004580637,55.24235,0,0,0,0,10
565949948,565949566,3670026,-0.00974717,0.013741911,0.014274543,55.20808,0,0,0,0,10
565953713,565953324,3670026,-0.016511599,0.037071202,0.01107875,55.154224,0,0,0,0,10
565957448,565957081,3670026,-0.058056913,0.0044208476,0.013209279,55.237453,0,0,0,0,10
565961230,565960838,3670026,-0.029880667,0.021411816,-0.0018642128,55.149326,0,0,0,0,10
565963721,565963344,3670026,-0.02924151,-0.016937705,0.008149273,55.296207,0,0,0,0,10
565967472,565967100,3670026,-0.060080916,-0.009374327,0.02759035,55.227665,0,0,0,0,10
565971244,565970862,3670026,-0.05107943,0.0073503247,0.0061785337,55.178703,0,0,0,0,10
565974988,565974614,3670026,-0.040213734,-0.009161274,-0.011824436,55.16891,0,0,0,0,10
565978744,565978377,3670026,-0.00090547476,-0.040852893,-0.03195793,55.24235,0,0,0,0,10
565981336,565980880,3670026,-0.059601545,-0.009321064,0.02609898,55.164013,0,0,0,0,10
565985019,565984636,3670026,-0.03616573,0.017417073,0.023595607,55.227665,0,0,0,0,10
565988755,565988391,3670026,-0.02631203,0.016777916,-0.017736653,55.183598,0,0,0,0,10
565992504,565992148,3670026,0.0066046393,-0.0012783173,0.009001484,55.227665,0,0,0,0,10
565996298,565995906,3670026,-0.0030360036,-0.00074568513,-0.0044741104,55.227665,0,0,0,0,10
565998783,565998410,3670026,-0.043888897,-0.0063915867,0.002396845,55.188496,0,0,0,0,10
566002581,566002168,3670026,-0.06988135,-0.0350472,0.0030892668,55.20808,0,0,0,0,10
566008805,566008434,3670026,-0.015499597,0.0026098979,-0.009108011,55.20808,0,0,0,0,10
566010049,566009682,3670026,-0.013209279,-0.005432849,0.0052197957,55.124847,0,0,0,0,10
566012636,566012187,3670026,-0.053316485,-0.04495416,0.0005326322,55.252144,0,0,0,0,10
566016370,566015944,3670026,-0.043675844,-0.02631203,0.026578348,55.25704,0,0,0,0,10
566020066,566019701,3670026,-0.039254993,-0.0080960095,0.024074977,55.203182,0,0,0,0,10
566023872,566023458,3670026,-0.030146984,-0.00021305289,0.027803402,55.247246,0,0,0,0,10
566027600,566027216,3670026,-0.03355583,0.0068709557,-0.0058056912,55.188496,0,0,0,0,10
566030142,566029720,3670026,-0.022849923,0.007190535,0.01422128,55.124847,0,0,0,0,10
566033859,566033477,3670026,-0.03797668,-0.023755398,0.01304949,55.15912,0,0,0,0,10
566037609,566037235,3670026,-0.039095204,0.01635181,-0.00031957933,55.198288,0,0,0,0,10
566041370,566040992,3670026,-0.043302998,0.023222765,-0.0005326322,55.217873,0,0,0,0,10
566045145,566044749,3670026,-0.016777916,0.035739623,-0.0015446334,55.13464,0,0,0,0,10
566048887,566048506,3670026,-0.0110254865,0.00042610578,-0.007882956,55.19339,0,0,0,0,10
566051450,566051011,3670026,-0.035313517,-0.025353294,-0.0038882152,55.178703,0,0,0,0,10
566055138,566054768,3670026,-0.04596616,-0.01736381,0.011930962,55.198288,0,0,0,0,10
566058917,566058525,3670026,-0.04298342,-0.0304133,0.01422128,55.178703,0,0,0,0,10
566062642,566062282,3670026,-0.031372037,-0.01635181,0.00479369,55.237453,0,0,0,0,10
566065173,566064788,3670026,-0.037497308,-0.0037816889,0.0010120012,55.139534,0,0,0,0,10
566068912,566068545,3670026,-0.054754592,-0.009108011,0.011345066,55.198288,0,0,0,0,10
566072678,566072302,3670026,-0.059921123,-0.03717773,0.02247708,55.237453,0,0,0,0,10
566077729,566077311,3670026,-0.04149205,-0.036751624,0.019228023,55.203182,0,0,0,0,10
566080247,566079816,3670026,-0.05273059,-0.00090547476,0.011664646,55.20808,0,0,0,0,10
566082684,566082321,3670026,-0.0257794,0.016458336,0.0021837922,55.16891,0,0,0,0,10
566089035,566088583,3670026,-0.048309743,-0.0044741104,-0.0011717909,55.212975,0,0,0,0,10
566090277,566089835,3670026,-0.036112465,-0.025726136,0.0053795855,55.129745,0,0,0,0,10
566093955,566093592,3670026,-0.034461305,-0.019068234,0.0035153728,55.149326,0,0,0,0,10
566098972,566098602,3670026,-0.036325518,-0.009693907,0.010705908,55.173805,0,0,0,0,10
566100230,566099855,3670026,0.0050067427,0.0023435818,-0.015126755,55.212975,0,0,0,0,10
566103986,566103612,3670026,-0.02380866,-0.012516857,0.0133690685,55.16891,0,0,0,0,10
566110328,566109875,3670026,-0.021837922,0.010546118,-0.0034621095,55.25704,0,0,0,0,10
566111502,566111126,3670026,-0.036325518,-0.03797668,-0.00793622,55.164013,0,0,0,0,10
566115304,566114883,3670026,-0.013156015,-0.019547602,0.0046339002,55.16891,0,0,0,0,10
566117887,566117394,3670026,-0.029134983,0.0075101145,0.0012250541,55.20808,0,0,0,0,10
566121524,566121145,3670026,-0.046498794,0.008149273,0.0069774822,55.212975,0,0,0,0,10
566125270,566124902,3670026,-0.038402785,-0.042557314,-0.010013485,55.15912,0,0,0,0,10
566129141,566128671,3670026,-0.06375608,-0.0068709557,0.008628642,55.115055,0,0,0,0,10
566132790,566132417,3670026,-0.037124466,0.009374327,0.015819177,55.119953,0,0,0,0,10
566135342,566134922,3670026,-0.03717773,0.010386328,0.007829694,55.164013,0,0,0,0,10
566139064,566138679,3670026,-0.054754592,-0.037017938,0.013209279,55.188496,0,0,0,0,10
566142873,566142436,3670026,-0.031212248,-0.0231695,0.013422332,55.20808,0,0,0,0,10
566147893,566147449,3670026,-0.029827405,0.014061491,0.019654129,55.222767,0,0,0,0,10
566149125,566148698,3670026,-0.03653857,0.0127831735,-0.0073503247,55.198288,0,0,0,0,10
566152830,566152455,3670026,-0.049694587,0.01784318,0.02561961,55.16891,0,0,0,0,10
566157911,566157465,3670026,-0.019441076,0.016405072,0.0127831735,55.203182,0,0,0,0,10
566160362,566159970,3670026,-0.043569315,-0.042290997,-0.007989483,55.252144,0,0,0,0,10
566164086,566163727,3670026,-0.02034655,-0.03536678,-0.02199771,55.222767,0,0,0,0,10
566169106,566168736,3670026,-0.014274543,-0.043675844,-0.03174488,55.217873,0,0,0,0,10
566170353,566169989,3670026,-0.023702133,0.051399007,0.013422332,55.217873,0,0,0,0,10
566174119,566173746,3670026,0.002876214,0.016618125,-0.007456851,55.164013,0,0,0,0,10
566177880,566177504,3670026,-0.03797668,-0.054275222,-0.017097494,55.173805,0,0,0,0,10
566181619,566181260,3670026,-0.020506341,-0.03435478,-0.0061252704,55.183598,0,0,0,0,10
566184128,566183767,3670026,-0.045699846,0.018961707,0.019920446,55.198288,0,0,0,0,10
566187976,566187523,3670026,-0.04234426,0.004261058,0.0072970614,55.13464,0,0,0,0,10
566191645,566191280,3670026,-0.054648064,-0.0020240024,0.00090547476,55.24235,0,0,0,0,10
566196664,566196289,3670026,-0.020240024,0.04543353,0.015020229,55.164013,0,0,0,0,10
566199167,566198794,3670026,-0.0360592,-0.037017938,0.0066046393,55.188496,0,0,0,0,10
566201665,566201299,3670026,-0.02130529,0.025193503,0.022423817,55.178703,0,0,0,0,10
566208006,566207561,3670026,-0.012836437,-0.044048686,-0.0015978967,55.149326,0,0,0,0,10
566209264,566208813,3670026,-0.060560282,0.0056459014,0.023276027,55.188496,0,0,0,0,10
566213010,566212570,3670026,-0.046711847,-0.0022370552,0.0121972775,55.129745,0,0,0,0,10
566217952,566217580,3670026,-0.037816886,0.034088463,0.018429074,55.203182,0,0,0,0,10
566219210,566218840,3670026,-0.02530003,0.012516857,0.005486112,55.212975,0,0,0,0,10
566222966,566222590,3670026,-0.040426787,0.042663842,0.013901701,55.178703,0,0,0,0,10
566228000,566227599,3670026,-0.01272991,0.04447479,0.011291803,55.217873,0,0,0,0,10
566230560,566230104,3670026,-0.01422128,0.012090751,-0.0020240024,55.247246,0,0,0,0,10
566234231,566233861,3670026,0.0021837922,-0.045060687,-0.020453077,55.164013,0,0,0,0,10
566237993,566237618,3670026,0.0020772656,-0.043249737,-0.007403588,55.217873,0,0,0,0,10
566240498,566240123,3670026,-0.042131208,0.021731395,0.024234766,55.16891,0,0,0,0,10
566244301,566243881,3670026,-0.05161206,0.032330777,0.022743396,55.16891,0,0,0,0,10
566247995,566247638,3670026,-0.048522796,-0.02844256,-0.005965481,55.183598,0,0,0,0,10
566251854,566251395,3670026,-0.04000068,-0.026791401,-0.0068709557,55.237453,0,0,0,0,10
566255515,566255152,3670026,-0.05438175,-0.02844256,-0.00085221155,55.306,0,0,0,0,10
566258035,566257657,3670026,-0.0058589545,0.022370553,0.023276027,55.252144,0,0,0,0,10
566261828,566261414,3670026,-0.04362258,0.00031957933,0.01422128,55.19339,0,0,0,0,10
566268044,566267677,3670026,-0.015393071,-0.012623384,-0.0063915867,55.217873,0,0,0,0,10
566269312,566268929,3670026,-0.042077944,-0.02231729,0.013582122,55.173805,0,0,0,0,10
566271882,566271433,3670026,-0.0022370552,-0.0076166405,-0.016937705,55.237453,0,0,0,0,10
566275556,566275191,3670026,-0.06066681,0.024607608,0.007882956,55.25704,0,0,0,0,10
566279381,566278948,3670026,-0.058962386,0.033928674,0.024341293,55.222767,0,0,0,0,10
566283078,566282705,3670026,-0.06519418,0.013528858,0.005912218,55.198288,0,0,0,0,10
566285594,566285210,3670026,-0.016564863,-0.06519418,-0.02295645,55.217873,0,0,0,0,10
566289355,566288970,3670026,-0.021784658,0.005273059,0.019068234,55.217873,0,0,0,0,10
566293091,566292724,3670026,-0.042397525,0.027057717,0.04165184,55.20808,0,0,0,0,10
566296857,566296481,3670026,-0.04580637,0.02396845,0.021465078,55.212975,0,0,0,0,10
566300597,566300238,3670026,-0.026418557,0.014860439,0.0043675844,55.217873,0,0,0,0,10
566304370,566303996,3670026,0.008202536,-0.01981392,-0.0040480047,55.217873,0,0,0,0,10
566308199,566307755,3670026,-0.019121496,-0.050333746,-0.008255799,55.227665,0,0,0,0,10
566310714,566310258,3670026,-0.034461305,0.02631203,0.016138757,55.276623,0,0,0,0,10
566314415,566314016,3670026,-0.02231729,0.006711166,-0.0037816889,55.237453,0,0,0,0,10
566318158,566317780,3670026,-0.024927188,0.019387813,0.013848438,55.29131,0,0,0,0,10
566320653,566320277,3670026,-0.042770367,-0.023861924,0.009001484,55.24235,0,0,0,0,10
566324415,566324034,3670026,-0.041758366,-0.02860235,-0.00063915865,55.23256,0,0,0,0,10
566328189,566327791,3670026,-0.014700649,-0.006231797,0.010492855,55.261932,0,0,0,0,10
566331929,566331555,3670026,-0.062531024,0.0075633777,0.028655613,55.26683,0,0,0,0,10
566335663,566335306,3670026,-0.056459017,0.02130529,0.024927188,55.203182,0,0,0,0,10
566339426,566339063,3670026,-0.07424893,-0.013209279,0.009960223,55.261932,0,0,0,0,10
566341946,566341568,3670026,-0.001917476,-0.030040458,-0.016618125,55.28641,0,0,0,0,10
566345771,566345325,3670026,-0.011451593,-0.0053795855,-0.00793622,55.252144,0,0,0,0,10
566349515,566349082,3670026,0.0028229507,0.020719394,0.02130529,55.29131,0,0,0,0,10
566353291,566352839,3670026,-0.05965481,0.007829694,0.011717909,55.23256,0,0,0,0,10
566355720,566355344,3670026,-0.0304133,-0.033182986,-0.014434333,55.23256,0,0,0,0,10
566359462,566359101,3670026,0.004261058,-0.010120012,-0.0022370552,55.276623,0,0,0,0,10
566363229,566362859,3670026,-0.05587312,-0.013262542,0.00495348,55.26683,0,0,0,0,10
566368304,566367869,3670026,-0.021891184,-0.021571605,-0.012676647,55.276623,0,0,0,0,10
566370752,566370373,3670026,-0.038083203,-0.0016511598,0.001917476,55.261932,0,0,0,0,10
566373246,566372878,3670026,-0.040266994,-0.011771172,0.0025566346,55.25704,0,0,0,0,10
566377061,566376635,3670026,-0.060720075,-0.018269286,0.028122982,55.222767,0,0,0,0,10
566380771,566380392,3670026,-0.041918155,0.0104395915,0.026152242,55.310894,0,0,0,0,10
566384505,566384149,3670026,-0.013528858,0.00069242186,0.008415589,55.237453,0,0,0,0,10
566388323,566387907,3670026,-0.013102753,0.022210764,0.0048469533,55.24235,0,0,0,0,10
566390791,566390411,3670026,-0.054594804,-0.0028229507,0.0075633777,55.227665,0,0,0,0,10
566394531,566394169,3670026,-0.029827405,-0.043409526,-0.012303804,55.252144,0,0,0,0,10
566398337,566397926,3670026,0.00063915865,-0.029507825,-0.01587244,55.281517,0,0,0,0,10
566402138,566401692,3670026,-0.027217507,-0.028655613,-0.0025566346,55.26683,0,0,0,0,10
566405843,566405442,3670026,0.000479369,0.0038882152,0.011451593,55.276623,0,0,0,0,10
566408385,566407945,3670026,-0.0110254865,0.005273059,-0.025726136,55.222767,0,0,0,0,10
566412159,566411702,3670026,-0.047191214,-0.029614352,-0.0127831735,55.25704,0,0,0,0,10
566415851,566415459,3670026,-0.0231695,-0.0051665325,0.019600866,55.281517,0,0,0,0,10
566419602,566419217,3670026,-0.015552861,0.009054747,0.014753913,55.271725,0,0,0,0,10
566423352,566422974,3670026,-0.037124466,0.010599381,-0.000479369,55.28641,0,0,0,0,10
566425855,566425479,3670026,-0.021678131,-0.025086978,0.0064981133,55.28641,0,0,0,0,10
566429598,566429236,3670026,-0.029667614,-0.0104395915,0.01272991,55.26683,0,0,0,0,10
566433380,566432993,3670026,-0.022370553,-0.02711098,0.010599381,55.3011,0,0,0,0,10
566438358,566438003,3670026,-0.08495484,0.00031957933,0.010279802,55.247246,0,0,0,0,10
566439618,566439255,3670026,-0.004101268,-0.001438107,0.015073492,55.23256,0,0,0,0,10
566443422,566443012,3670026,-0.039201733,0.016937705,0.01422128,55.247246,0,0,0,0,10
566448461,566448022,3670026,-0.039414786,0.01901497,0.014487596,55.203182,0,0,0,0,10
566450902,566450527,3670026,-0.045380265,-0.045859635,-0.0070840083,55.28641,0,0,0,0,10
566454680,566454284,3670026,-0.005752428,-0.030519826,-0.022849923,55.261932,0,0,0,0,10
566458400,566458041,3670026,-0.02295645,-0.009534117,0.011398329,55.310894,0,0,0,0,10
566460933,566460546,3670026,-0.06823019,0.011451593,-0.003941478,55.335373,0,0,0,0,10
566464672,566464303,3670026,-0.020399814,0.018322548,0.0066579026,55.350063,0,0,0,0,10
566468486,566468062,3670026,-0.036804885,-0.0046871635,-0.008735169,55.26683,0,0,0,0,10
566473492,566473070,3670026,-0.030573089,0.009321064,-0.0024501083,55.271725,0,0,0,0,10
566474697,566474322,3670026,-0.027856665,0.010013485,0.00628506,55.306,0,0,0,0,10
566478475,566478080,3670026,-0.04378237,-0.0031957934,-0.008255799,55.28641,0,0,0,0,10
566483495,566483089,3670026,-0.025193503,0.012623384,0.0022370552,55.261932,0,0,0,0,10
566485977,566485594,3670026,-0.04974785,-0.015339808,0.0040480047,55.237453,0,0,0,0,10
566489809,566489353,3670026,-0.04032026,-0.037017938,-0.0038882152,55.25704,0,0,0,0,10
566492238,566491856,3670026,-0.03440804,0.0015978967,0.0046871635,55.20808,0,0,0,0,10
566495997,566495613,3670026,-0.016245283,0.03669836,0.017736653,55.237453,0,0,0,0,10
566499755,566499370,3670026,-0.04761732,0.009054747,0.014807176,55.227665,0,0,0,0,10
566503549,566503129,3670026,-0.019441076,0.0045273737,0.031052459,55.335373,0,0,0,0,10
566508566,566508137,3670026,-0.060400493,0.0029294773,0.030626353,55.252144,0,0,0,0,10
566509852,566509390,3670026,-0.030146984,0.014966966,0.0049002166,55.3011,0,0,0,0,10
566513567,566513148,3670026,-0.05848302,0.041545313,0.032810144,55.25704,0,0,0,0,10
566517266,566516904,3670026,-0.07515441,0.03568636,0.013156015,55.3011,0,0,0,0,10
566521069,566520678,3670026,-0.07536746,-0.027004454,0.005113269,55.29131,0,0,0,0,10
566524789,566524418,3670026,-0.049375005,-0.007989483,-0.003621899,55.34027,0,0,0,0,10
566527317,566526923,3670026,-0.009640643,0.00644485,0.0080960095,55.276623,0,0,0,0,10
566531057,566530683,3670026,-0.024554346,0.005060006,0.010759171,55.296207,0,0,0,0,10
566534811,566534438,3670026,-0.034141727,-0.011291803,-0.01438107,55.354958,0,0,0,0,10
566538559,566538195,3670026,-0.058110174,-0.022530343,0.0050067427,55.38923,0,0,0,0,10
566542388,566541953,3670026,-0.034993935,-0.02727077,0.009853696,55.335373,0,0,0,0,10
566544880,566544457,3670026,-0.010599381,-0.011771172,-0.011291803,55.315792,0,0,0,0,10
566548638,566548214,3670026,-0.048043426,0.019547602,-0.0056991647,55.310894,0,0,0,0,10
566552397,566551973,3670026,-0.048416268,0.026152242,0.033023197,55.227665,0,0,0,0,10
566556111,566555729,3670026,-0.08511463,-0.0060187443,0.027856665,55.3011,0,0,0,0,10
566558600,566558234,3670026,-0.007669904,-0.031638354,-0.02231729,55.23256,0,0,0,0,10
566562417,566561991,3670026,0.001970739,0.013848438,0.025672873,55.310894,0,0,0,0,10
566566113,566565748,3670026,-0.045699846,0.027430559,0.02844256,55.3011,0,0,0,0,10
566569900,566569505,3670026,-0.04426174,0.033662356,0.024288028,55.335373,0,0,0,0,10
566573621,566573262,3670026,-0.041598577,0.013262542,0.005432849,55.345165,0,0,0,0,10
566578713,566578273,3670026,-0.04644553,0.03174488,0.01438107,55.335373,0,0,0,0,10
566579931,566579540,3670026,0.00085221155,0.0028229507,-0.004740427,55.325584,0,0,0,0,10
566583665,566583281,3670026,-0.0060187443,0.0049002166,0.008735169,55.320686,0,0,0,0,10
566588722,566588291,3670026,0.018642128,0.010918961,-0.0072970614,55.33048,0,0,0,0,10
566592430,566592048,3670026,-0.017576864,0.004261058,-0.0015978967,55.345165,0,0,0,0,10
566593666,566593301,3670026,-0.033928674,0.019707393,-0.0031957934,55.354958,0,0,0,0,10
566598689,566598310,3670026,-0.037550572,0.0023435818,-0.0020240024,55.25704,0,0,0,0,10
566603708,566603321,3670026,-0.01422128,-0.013528858,-0.012090751,55.28641,0,0,0,0,10
566604943,566604572,3670026,-0.04926848,0.0072970614,0.013741911,55.320686,0,0,0,0,10
566608755,566608331,3670026,-0.044048686,0.019600866,0.015978966,55.3011,0,0,0,0,10
566611248,566610834,3670026,-0.002396845,-0.019121496,-0.016138757,55.310894,0,0,0,0,10
566615008,566614592,3670026,-0.01272991,-0.035952676,-0.03025351,55.271725,0,0,0,0,10
566618717,566618351,3670026,0.0070307455,0.011451593,0.02082592,55.25704,0,0,0,0,10
566622477,566622106,3670026,-0.001438107,0.023542345,0.0121972775,55.310894,0,0,0,0,10
566626220,566625863,3670026,-0.0525708,0.005486112,0.014168017,55.217873,0,0,0,0,10
566628774,566628374,3670026,-0.030466562,-0.027324032,-0.009374327,55.296207,0,0,0,0,10
566632547,566632135,3670026,-0.011291803,0.0139549645,-0.009161274,55.25704,0,0,0,0,10
566636306,566635883,3670026,-0.024554346,0.006231797,0.020719394,55.33048,0,0,0,0,10
566640035,566639640,3670026,-0.016564863,0.035846148,0.032543827,55.28641,0,0,0,0,10
566643821,566643397,3670026,-0.05752428,-0.024767399,0.0017044231,55.227665,0,0,0,0,10
566646312,566645902,3670026,-0.0038882152,0.009161274,0.0010652645,55.271725,0,0,0,0,10
566651335,566650911,3670026,-0.045486793,-0.027643612,0.0018109495,55.247246,0,0,0,0,10
566653784,566653416,3670026,-0.009534117,0.04543353,0.01272991,55.26683,0,0,0,0,10
566657557,566657173,3670026,-0.018269286,-0.0069774822,-0.0037284256,55.315792,0,0,0,0,10
566661301,566660931,3670026,-0.040373523,-0.01603223,-0.0068709557,55.320686,0,0,0,0,10
566663811,566663435,3670026,-0.045327,-0.010705908,0.0011717909,55.369644,0,0,0,0,10
566668876,566668445,3670026,-0.062531024,-0.02860235,0.014966966,55.335373,0,0,0,0,10
566671312,566670950,3670026,-0.0023435818,-0.0034088462,-0.022264026,55.296207,0,0,0,0,10
566675137,566674708,3670026,-0.042237736,-0.0037284256,0.016298546,55.296207,0,0,0,0,10
566677672,566677212,3670026,-0.052144695,-0.0075633777,0.011291803,55.247246,0,0,0,0,10
566681363,566680969,3670026,-0.02828277,-0.018216021,-0.018162759,55.3011,0,0,0,0,10
566685110,566684727,3670026,-0.030786142,-0.018002968,-0.0058589545,55.34027,0,0,0,0,10
566688867,566688484,3670026,-0.0071372716,0.027430559,0.01949434,55.306,0,0,0,0,10
566692618,566692241,3670026,-0.04580637,0.019654129,0.029561087,55.276623,0,0,0,0,10
566695127,566694746,3670026,-0.016085492,-0.038615838,-0.035153728,55.261932,0,0,0,0,10
566698885,566698503,3670026,-0.018748654,-0.012303804,0.007456851,55.320686,0,0,0,0,10
566702624,566702260,3670026,-0.025672873,0.0026631611,0.00644485,55.335373,0,0,0,0,10
566706433,566706017,3670026,-0.04234426,0.013102753,0.00958738,55.315792,0,0,0,0,10
566710143,566709774,3670026,-0.0076166405,0.0121972775,0.005752428,55.271725,0,0,0,0,10
566712709,566712279,3670026,-0.028868666,-0.034780882,-0.01107875,55.227665,0,0,0,0,10
566716471,566716037,3670026,-0.035792883,-0.011398329,0.014807176,55.306,0,0,0,0,10
566720201,566719794,3670026,-0.038242992,0.009214537,-0.00090547476,55.261932,0,0,0,0,10
566723944,566723551,3670026,-0.02977414,0.0133690685,0.0016511598,55.306,0,0,0,0,10
566730255,566729815,3670026,-0.046498794,-0.027164243,0.0033023197,55.276623,0,0,0,0,10
566731462,566731066,3670026,-0.026045715,-0.011291803,0.0050067427,55.24235,0,0,0,0,10
566733956,566733570,3670026,-0.03771036,-0.0133690685,-0.00079894834,55.276623,0,0,0,0,10
566737701,566737327,3670026,-0.029720878,0.004314321,0.0027164244,55.24235,0,0,0,0,10
566741521,566741091,3670026,-0.034940675,0.0013848437,0.0039947415,55.247246,0,0,0,0,10
566745208,566744842,3670026,-0.005486112,0.026365295,0.012942963,55.34027,0,0,0,0,10
566748984,566748599,3670026,-0.054807857,0.02924151,0.012357067,55.26683,0,0,0,0,10
566751534,566751104,3670026,-0.023702133,-0.02924151,-0.018162759,55.19339,0,0,0,0,10
566755224,566754861,3670026,-0.029028457,-0.027377296,0.0073503247,55.23256,0,0,0,0,10
566759017,566758618,3670026,-0.035633095,0.010599381,0.008522116,55.29131,0,0,0,0,10
566762755,566762375,3670026,-0.041119207,0.0072970614,0.008948221,55.320686,0,0,0,0,10
566765257,566764880,3670026,-0.03169162,-0.040266994,-0.018056232,55.320686,0,0,0,0,10
566770318,566769890,3670026,-0.01257012,-0.028389297,-0.01688444,55.222767,0,0,0,0,10
566772789,566772395,3670026,-0.049161956,-0.011345066,0.012037489,55.281517,0,0,0,0,10
566776589,566776152,3670026,-0.042663842,0.021145498,0.03376888,55.26683,0,0,0,0,10
566780279,566779909,3670026,-0.035313517,0.031478565,-0.0020772656,55.276623,0,0,0,0,10
566782830,566782414,3670026,-0.00037284257,-0.037124466,-0.005912218,55.29131,0,0,0,0,10
566786576,566786173,3670026,-0.03787015,-0.0133690685,-0.0010652645,55.237453,0,0,0,0,10
566790373,566789932,3670026,-0.044847634,0.000958738,0.012623384,55.198288,0,0,0,0,10
566794039,566793685,3670026,-0.025193503,-0.0060187443,0.0043675844,55.24235,0,0,0,0,10
566796566,566796190,3670026,-0.04426174,-0.01784318,0.018642128,55.23256,0,0,0,0,10
566800311,566799947,3670026,-0.05736449,-0.00974717,0.008628642,55.237453,0,0,0,0,10
566804066,566803705,3670026,-0.04942827,-0.0127831735,-0.0044208476,55.26683,0,0,0,0,10
566810400,566809970,3670026,-0.03009372,0.022423817,0.014434333,55.252144,0,0,0,0,10
566811638,566811219,3670026,-0.047404267,-0.029720878,0.008841695,55.19339,0,0,0,0,10
566814146,566813724,3670026,-0.05225122,0.014860439,0.018162759,55.296207,0,0,0,0,10
566819122,566818733,3670026,-0.07637946,0.03568636,0.031212248,55.217873,0,0,0,0,10
566821612,566821238,3670026,-0.00058589544,-0.036112465,-0.025726136,55.26683,0,0,0,0,10
566825361,566824996,3670026,0.009693907,-0.026897928,0.0044741104,55.212975,0,0,0,0,10
566829160,566828753,3670026,-0.016298546,0.007403588,0.010226538,55.203182,0,0,0,0,10
566831678,566831257,3670026,-0.042397525,0.001917476,-0.014913702,55.252144,0,0,0,0,10
566835385,566835014,3670026,-0.0063383235,-0.016138757,-0.013795175,55.252144,0,0,0,0,10
566839184,566838773,3670026,-0.010865698,-0.015393071,0.00314253,55.3011,0,0,0,0,10
566842975,566842531,3670026,-0.030466562,-0.0053263223,0.010865698,55.25704,0,0,0,0,10
566846692,566846286,3670026,-0.037923414,0.006711166,0.014327806,55.23256,0,0,0,0,10
566850420,566850043,3670026,-0.04053331,0.0116113825,0.015073492,55.183598,0,0,0,0,10
566854269,566853802,3670026,-0.032437302,-0.004740427,0.0030892668,55.237453,0,0,0,0,10
566856704,566856306,3670026,-0.023648871,-0.015925704,-0.0038882152,55.222767,0,0,0,0,10
566860447,566860063,3670026,-0.036432043,-0.02396845,0.00058589544,55.252144,0,0,0,0,10
566864203,566863820,3670026,-0.04543353,-0.008735169,0.021252025,55.203182,0,0,0,0,10
566866712,566866325,3670026,-0.020133497,0.025939189,-0.0002663161,55.198288,0,0,0,0,10
566870509,566870082,3670026,-0.05502091,0.0080960095,0.0020772656,55.198288,0,0,0,0,10
566874208,566873840,3670026,-0.034780882,0.0018109495,-0.016724652,55.178703,0,0,0,0,10
566879307,566878849,3670026,-0.042717103,0.007403588,-0.009054747,55.188496,0,0,0,0,10
566881781,566881354,3670026,-0.015020229,-0.00495348,0.01720402,55.203182,0,0,0,0,10
566884229,566883868,3670026,-0.053156696,0.00974717,0.0021837922,55.13464,0,0,0,0,10
566889238,566888868,3670026,-0.019281287,0.053103432,0.021891184,55.19339,0,0,0,0,10
566891732,566891373,3670026,-0.0068176924,-0.034993935,-0.025513083,55.203182,0,0,0,0,10
566895489,566895130,3670026,0.00085221155,-0.046765108,-0.017949706,55.198288,0,0,0,0,10
566899260,566898887,3670026,-0.039734364,-0.032011196,0.01784318,55.26683,0,0,0,0,10
566901758,566901392,3670026,-0.025193503,0.0231695,-0.00015978966,55.198288,0,0,0,0,10
566905530,566905149,3670026,0.006924219,-0.0041545313,-0.0052197957,55.144432,0,0,0,0,10
566909306,566908907,3670026,-0.0048469533,-0.009800433,-0.012516857,55.188496,0,0,0,0,10
566913127,566912665,3670026,0.0032490566,-0.004101268,0.018056232,55.173805,0,0,0,0,10
566915590,566915169,3670026,-0.027057717,0.00058589544,-0.003834952,55.26683,0,0,0,0,10
566919303,566918926,3670026,-0.025353294,-0.0005326322,0.017630126,55.23256,0,0,0,0,10
566923071,566922683,3670026,-0.0360592,0.027483823,0.010972224,55.149326,0,0,0,0,10
566929363,566928945,3670026,-0.03536678,-0.0618386,0.0088949585,55.20808,0,0,0,0,10
566930640,566930197,3670026,-0.027696876,-0.025086978,0.007243798,55.19339,0,0,0,0,10
566934313,566933954,3670026,-0.029028457,-0.044687845,-0.0070307455,55.198288,0,0,0,0,10
566939337,566938964,3670026,-0.03339604,-0.0018642128,-0.017150758,55.129745,0,0,0,0,10
566940586,566940217,3670026,-0.055606805,0.026844664,0.0066579026,55.28641,0,0,0,0,10
566944380,566943973,3670026,-0.032011196,0.0060187443,-0.010279802,55.237453,0,0,0,0,10
566949457,566948989,3670026,-0.042557314,0.018801918,-0.00793622,55.203182,0,0,0,0,10
566950645,566950236,3670026,-0.057257965,-0.0069774822,0.010333065,55.144432,0,0,0,0,10
566954380,566953993,3670026,-0.021145498,0.0058056912,-0.018482339,55.164013,0,0,0,0,10
566958141,566957750,3670026,-0.02263687,-0.0002663161,-0.018109495,55.188496,0,0,0,0,10
566961882,566961507,3670026,-0.0021837922,0.017576864,0.016192019,55.237453,0,0,0,0,10
566965638,566965264,3670026,-0.020240024,0.0036751623,-0.00063915865,55.203182,0,0,0,0,10
566970652,566970274,3670026,-0.013582122,0.014753913,0.0028229507,55.154224,0,0,0,0,10
566971911,566971526,3670026,-0.043729104,-0.008628642,0.0104395915,55.183598,0,0,0,0,10
566975733,566975283,3670026,-0.0022370552,0.0053263223,0.016777916,55.178703,0,0,0,0,10
566979398,566979041,3670026,-0.02631203,0.04516721,0.019281287,55.188496,0,0,0,0,10
566983169,566982798,3670026,-0.028975192,0.015073492,0.0128897,55.222767,0,0,0,0,10
566986934,566986556,3670026,-0.0032490566,-0.007829694,0.0060187443,55.164013,0,0,0,0,10
566989489,566989060,3670026,-0.11206582,-0.010705908,0.010918961,55.115055,0,0,0,0,10
566993198,566992817,3670026,-0.075793564,-0.011558119,0.01949434,55.173805,0,0,0,0,10
566997028,566996574,3670026,-0.026525084,0.077231675,0.0221575,55.173805,0,0,0,0,10
567000711,567000332,3670026,-0.03888215,-0.0031957934,-0.0063915867,55.129745,0,0,0,0,10
567003273,567002836,3670026,-0.08111989,0.015339808,0.012676647,55.178703,0,0,0,0,10
567006959,567006593,3670026,-0.033129726,-0.003834952,-0.043302998,55.129745,0,0,0,0,10
567010725,567010351,3670026,0.042557314,0.09289106,-0.019600866,55.198288,0,0,0,0,10
567014569,567014108,3670026,-0.019920446,0.0110254865,0.0011185276,55.212975,0,0,0,0,10
567019512,567019118,3670026,-0.04926848,-0.0024501083,-0.027803402,55.252144,0,0,0,0,10
567020831,567020370,3670026,-0.03850931,0.06434197,0.013635385,55.105267,0,0,0,0,10
567024493,567024127,3670026,0.06135923,0.17944379,-0.0036751623,55.129745,0,0,0,0,10
567028292,567027884,3670026,-0.04644553,0.040586576,0.04980111,55.149326,0,0,0,0,10
567032009,567031641,3670026,-0.0017044231,0.08639295,0.042770367,55.164013,0,0,0,0,10
567035769,567035398,3670026,-0.13832459,0.06524745,-0.042717103,55.183598,0,0,0,0,10
567039521,567039156,3670026,0.01784318,0.08293083,0.03723099,55.20808,0,0,0,0,10
567042033,567041661,3670026,-0.047031425,0.106579706,-0.005592638,55.173805,0,0,0,0,10
567045856,567045418,3670026,0.0066046393,0.042131208,-0.05747102,55.15912,0,0,0,0,10
567049548,567049175,3670026,-0.11355719,0.038402785,0.031052459,55.154224,0,0,0,0,10
567052055,567051680,3670026,0.004740427,0.10684603,-0.037763625,55.15912,0,0,0,0,10
567055826,567055437,3670026,-0.037124466,0.1087635,-0.004101268,55.227665,0,0,0,0,10
567059571,567059194,3670026,-0.03802994,0.10988203,0.041864894,55.212975,0,0,0,0,10
567063337,567062955,3670026,0.044048686,0.056618806,-0.011291803,55.139534,0,0,0,0,10
567067124,567066709,3670026,-0.007403588,0.0064981133,-0.0049002166,55.115055,0,0,0,0,10
567070837,567070466,3670026,0.02759035,0.098590225,0.034780882,55.115055,0,0,0,0,10
567073405,567072971,3670026,-0.0743022,-0.033182986,-0.033449303,55.149326,0,0,0,0,10
567077207,567076729,3670026,-0.03717773,-0.0073503247,-0.0050067427,55.066093,0,0,0,0,10
567080861,567080485,3670026,-0.08687232,0.08607337,0.009853696,55.19339,0,0,0,0,10
567084605,567084242,3670026,0.17235978,0.021465078,-0.0063915867,55.090576,0,0,0,0,10
567087113,567086747,3670026,-0.08681905,0.19947077,-0.019121496,55.154224,0,0,0,0,10
567090993,567090505,3670026,0.0063915867,0.03904194,0.00942759,55.178703,0,0,0,0,10
567094653,567094262,3670026,0.064395234,0.051825114,-0.01571265,55.178703,0,0,0,0,10
567099688,567099277,3670026,-0.029561087,0.030519826,-0.005486112,55.16891,0,0,0,0,10
567102228,567101776,3670026,0.010066749,0.085434206,-0.017044231,55.164013,0,0,0,0,10
567105935,567105533,3670026,-0.11313108,0.17779264,0.047031425,55.154224,0,0,0,0,10
567109662,567109290,3670026,-0.054967646,0.10450244,-0.007882956,55.139534,0,0,0,0,10
567112155,567111795,3670026,-0.060400493,0.09464875,-0.025513083,55.164013,0,0,0,0,10
567116004,567115552,3670026,0.09629991,0.030146984,-0.013901701,55.178703,0,0,0,0,10
567119748,567119309,3670026,0.03334278,0.10428939,-0.07771104,55.13464,0,0,0,0,10
567122178,567121815,3670026,-0.06775082,0.093530215,0.01949434,55.11016,0,0,0,0,10
567125955,567125571,3670026,0.026738137,0.040906154,0.01571265,55.183598,0,0,0,0,10
567129709,567129329,3670026,0.046765108,0.027643612,-0.010386328,55.16891,0,0,0,0,10
567133463,567133086,3670026,-0.10647318,-0.1252751,0.0231695,55.144432,0,0,0,0,10
567137207,567136843,3670026,-0.10439592,0.056991648,-0.037071202,55.13464,0,0,0,0,10
567139734,567139348,3670026,0.06854977,0.2794721,0.01304949,55.154224,0,0,0,0,10
567143541,567143105,3670026,-0.11393003,-0.0037816889,0.02247708,55.198288,0,0,0,0,10
567147291,567146862,3670026,0.0010120012,0.12399678,-0.032543827,55.16891,0,0,0,0,10
567151070,567150619,3670026,0.11888351,0.024341293,-0.0018642128,55.164013,0,0,0,0,10
567154816,567154377,3670026,-0.13347763,0.25768748,-0.028708877,55.090576,0,0,0,0,10
567157253,567156881,3670026,0.05555354,0.22434469,-0.005912218,55.129745,0,0,0,0,10
567161020,567160639,3670026,0.17070863,-0.0773382,0.000958738,55.13464,0,0,0,0,10
567164768,567164396,3670026,-0.10322412,-0.16458336,-0.040852893,55.222767,0,0,0,0,10
567169832,567169405,3670026,-0.27324033,0.10753845,0.056405753,55.080784,0,0,0,0,10
567172316,567171913,3670026,-0.2918292,0.3055711,-0.017257284,55.075886,0,0,0,0,10
567174786,567174417,3670026,0.09667275,0.23851271,-0.04181163,55.15912,0,0,0,0,10
567179858,567179424,3670026,-0.113024555,0.030146984,0.10663297,55.119953,0,0,0,0,10
567182290,567181929,3670026,-0.05454154,-0.27840686,-0.15137407,55.066093,0,0,0,0,10
567186061,567185686,3670026,0.123730466,0.07914915,0.07302388,55.115055,0,0,0,0,10
567189887,567189444,3670026,-0.33854103,-0.07600662,-0.012676647,55.129745,0,0,0,0,10
567192318,567191949,3670026,0.37790257,0.27116308,-0.06551376,55.080784,0,0,0,0,10
567196069,567195705,3670026,0.23654197,0.056938384,0.010599381,55.075886,0,0,0,0,10
567199830,567199463,3670026,-0.2561961,0.092358425,-0.09150621,55.07099,0,0,0,0,10
567203610,567203220,3670026,-0.0046339002,0.34296188,0.094009586,55.15912,0,0,0,0,10
567207412,567206977,3670026,0.2794721,0.27973846,-0.03717773,55.124847,0,0,0,0,10
567209888,567209482,3670026,-0.06977482,0.26929885,-0.025672873,55.046513,0,0,0,0,10
567214922,567214491,3670026,-0.24900556,0.360592,0.033502568,55.051407,0,0,0,0,10
567217373,567216996,3670026,-0.026578348,0.19297266,-0.025939189,55.01224,0,0,0,0,10
567221133,567220753,3670026,0.085594,-0.13518205,-0.054967646,55.026928,0,0,0,0,10
567223636,567223259,3670026,0.18524949,-0.04543353,-0.023222765,55.13464,0,0,0,0,10
567227418,567227030,3670026,-0.293001,-0.062104918,0.09464875,55.115055,0,0,0,0,10
567231213,567230773,3670026,-0.04772385,0.13928333,-0.0022370552,55.09547,0,0,0,0,10
567234903,567234530,3670026,0.20090887,-0.023222765,-0.054168697,55.08568,0,0,0,0,10
567239906,567239539,3670026,-0.27760792,-0.09422264,0.095287904,54.9388,0,0,0,0,10
567241172,567240792,3670026,0.07728493,0.2951315,0.05507417,55.056305,0,0,0,0,10
567244997,567244549,3670026,-0.28426582,0.2680738,-0.028708877,55.066093,0,0,0,0,10
567249979,567249560,3670026,-0.05044027,0.0757403,0.02380866,55.075886,0,0,0,0,10
567252451,567252064,3670026,-0.17475663,0.016085492,0.06785735,55.03672,0,0,0,0,10
567256198,567255820,3670026,-0.36490634,-0.03568636,0.059388492,55.115055,0,0,0,0,10
567259962,567259578,3670026,0.17939053,0.28367993,-0.1087635,55.090576,0,0,0,0,10
567262471,567262083,3670026,-0.12197278,0.1756621,0.09821738,55.026928,0,0,0,0,10
567266208,567265840,3670026,0.10391655,0.49337724,-0.07084008,54.992657,0,0,0,0,10
567269991,567269597,3670026,-0.30956584,0.2469283,-0.1236772,55.056305,0,0,0,0,10
567273732,567273354,3670026,0.38338867,0.060879864,0.079308935,55.031826,0,0,0,0,10
567276281,567275859,3670026,-0.21278657,0.07707188,0.020133497,55.01224,0,0,0,0,10
567279993,567279619,3670026,0.3681554,0.2593919,0.040373523,55.07099,0,0,0,0,10
567283785,567283373,3670026,-0.26897928,0.4564658,0.02082592,55.031826,0,0,0,0,10
567287506,567287130,3670026,0.8637164,0.0799481,0.043196473,54.977966,0,0,0,0,10
567291320,567290887,3670026,-0.11158645,0.38386804,-0.07046724,54.992657,0,0,0,0,10
567293831,567293394,3670026,1.0279802,0.09464875,-0.010652645,54.997555,0,0,0,0,10
567297508,567297149,3670026,0.20458403,0.41156492,0.024021713,54.997555,0,0,0,0,10
