timestamp,timestamp_sample,position[0],position[1],position[2],q[0],q[1],q[2],q[3],velocity[0],velocity[1],velocity[2],angular_velocity[0],angular_velocity[1],angular_velocity[2],position_variance[0],position_variance[1],position_variance[2],orientation_variance[0],orientation_variance[1],orientation_variance[2],velocity_variance[0],velocity_variance[1],velocity_variance[2],pose_frame,velocity_frame,reset_counter,quality
564924807,564899199,-0.00071775366,-0.0002425494,-0.10082687,0.9986953,-0.044687975,-0.024694098,0.0009100664,-0.002064829,-0.0021488746,-0.0034225013,-0.00032363608,0.00048878934,-4.264356e-05,1.2230214e-07,1.76463e-07,1.0147418e-07,1.07139996e-07,1.17011865e-07,1.5501442e-07,1.1284585e-05,1.42851295e-05,6.55109e-06,2,3,1,100
564960574,564928818,-0.0007176208,-0.00020343291,-0.100847825,0.9986949,-0.044696942,-0.024696881,0.0009103671,-0.002025945,-0.0016430517,-0.0035783611,0.00011392736,-0.0012278998,-7.115529e-05,1.223719e-07,1.7654024e-07,1.01542966e-07,1.0810183e-07,1.2016926e-07,1.5459196e-07,1.1326393e-05,1.4487629e-05,6.5228696e-06,2,3,1,100
564985625,564958451,-0.0007073282,-0.0002044442,-0.100875124,0.99869436,-0.044700757,-0.024710463,0.00089217664,-0.0016395871,-0.001785753,-0.0038403436,0.0020594492,-0.007964055,-0.014152158,1.2237095e-07,1.7660246e-07,1.016036e-07,1.08064235e-07,1.1777528e-07,1.553558e-07,1.1343332e-05,1.4349943e-05,6.5503673e-06,2,3,1,100
565024561,564998100,-0.00079134846,-0.000103726205,-0.10088329,0.99869484,-0.044711273,-0.024668247,0.001042544,-0.0031767818,-0.002071301,-0.004011059,0.010364812,-0.015929228,-0.039530005,1.2266554e-07,1.767888e-07,1.0172388e-07,1.0821714e-07,1.2062922e-07,1.5672298e-07,1.137812e-05,1.4597286e-05,6.572146e-06,2,3,1,100
565055297,565027722,-0.0007017821,-0.00015426088,-0.10092207,0.99869376,-0.044713147,-0.024712628,0.000867303,-0.00096501154,-0.0019643018,-0.0039234753,0.006175698,0.009289988,0.041181665,1.2186116e-07,1.7597111e-07,1.01614155e-07,8.80662e-08,9.096203e-08,1.69851e-07,1.04171095e-05,1.2834949e-05,6.9157795e-06,2,3,1,100
565095459,565067238,-0.0007457776,-0.00023253485,-0.101002045,0.9986957,-0.04470997,-0.024643663,0.00079246203,-0.002577673,-0.0021090114,-0.004214247,-0.004719086,-0.00021612163,-0.006653892,1.2205642e-07,1.7623746e-07,1.01639806e-07,9.478605e-08,1.0076313e-07,1.6285574e-07,1.1059146e-05,1.4048842e-05,6.6344355e-06,2,3,1,100
565125250,565096871,-0.0007564421,-0.0002092374,-0.10094884,0.99869627,-0.044716693,-0.024600247,0.0010135114,-0.0020396768,-0.002517877,-0.0043808036,0.00558508,-0.0032164254,-0.00804495,1.2224949e-07,1.76455e-07,1.01688734e-07,9.9970535e-08,1.1036134e-07,1.5933074e-07,1.1297469e-05,1.45417625e-05,6.5393892e-06,2,3,1,100
565156005,565126526,-0.00075033196,-0.00023850205,-0.100964166,0.9986946,-0.04471169,-0.02468266,0.00084989483,-0.0022617918,-0.0026510337,-0.0039014283,-0.00078355044,0.0019650005,0.012776219,1.2237294e-07,1.7646146e-07,1.0147123e-07,1.0350579e-07,1.12559306e-07,1.588554e-07,1.1342309e-05,1.43198295e-05,6.565206e-06,2,3,1,100
565191225,565166076,-0.000753929,-0.0002213456,-0.101012275,0.99869525,-0.044714224,-0.024649747,0.0008738173,-0.0026890365,-0.0023573863,-0.0044847047,0.009352021,0.009311017,-0.0106706135,1.2260152e-07,1.7670813e-07,1.0163141e-07,1.0646403e-07,1.1928338e-07,1.5876037e-07,1.1364054e-05,1.4551417e-05,6.5627037e-06,2,3,1,100
565220818,565195735,-0.00070054975,-0.00024469467,-0.10092878,0.99869645,-0.044715386,-0.024598977,0.0009281789,-0.0019470991,-0.002635238,-0.003573042,-0.0077791666,0.0078012017,0.000225661,1.2287202e-07,1.7705119e-07,1.018088e-07,1.0959029e-07,1.2383106e-07,1.5955102e-07,1.1456434e-05,1.4674989e-05,6.5917275e-06,2,3,1,100
565251868,565225395,-0.00068491115,-0.00022565859,-0.10094029,0.9986948,-0.044736303,-0.02462947,0.0008759342,-0.0018437436,-0.0023387796,-0.0036190015,-0.00029686035,-0.0019599458,0.004837708,1.2300791e-07,1.7735015e-07,1.01947144e-07,1.1135028e-07,1.261368e-07,1.574417e-07,1.1485256e-05,1.4716317e-05,6.5476715e-06,2,3,1,100
565289135,565265050,-0.00069056044,-0.00020001731,-0.1009685,0.9986959,-0.044713926,-0.024626223,0.0008646459,-0.0023532805,-0.002315981,-0.003947034,-6.763101e-05,0.0022712846,-0.0050128787,1.2317899e-07,1.776045e-07,1.0206392e-07,1.1115583e-07,1.2709707e-07,1.5533607e-07,1.1439114e-05,1.4723412e-05,6.505918e-06,2,3,1,100
565320258,565294725,-0.00068531395,-0.00013395495,-0.10103367,0.9986948,-0.04475814,-0.0245875,0.00093807076,-0.0019252222,-0.0016460062,-0.004116872,0.0050342646,0.0006307077,0.0018728367,1.2343145e-07,1.7779743e-07,1.0225399e-07,1.10851936e-07,1.2584422e-07,1.572071e-07,1.1460869e-05,1.4699489e-05,6.5818804e-06,2,3,1,100
565350833,565324389,-0.00070572435,-0.00015124083,-0.10104886,0.9986962,-0.044720393,-0.024602968,0.0008523349,-0.002441978,-0.002051405,-0.004024876,-0.002665803,0.00057514297,0.0026841175,1.2339e-07,1.7792883e-07,1.0232511e-07,1.1210852e-07,1.2480191e-07,1.5566822e-07,1.1542948e-05,1.4741445e-05,6.5453487e-06,2,3,1,100
565395791,565363936,-0.00065223366,-0.00012581891,-0.101272404,0.99869394,-0.044754975,-0.024629723,0.00091607834,-0.002005011,-0.0018067705,-0.005140339,0.0027634138,-0.0033952189,-0.0066276765,1.2349119e-07,1.7809774e-07,1.0240022e-07,1.128203e-07,1.2462544e-07,1.5060597e-07,1.1558414e-05,1.4773433e-05,6.42577e-06,2,3,1,100
565421514,565393615,-0.0005801286,-6.103565e-05,-0.10141961,0.9986945,-0.044727422,-0.024656206,0.0008974902,-0.0015644969,-0.0013614948,-0.0055360966,-0.0034483417,0.0017565602,0.005503976,1.2343929e-07,1.7812405e-07,1.0244201e-07,1.1199846e-07,1.224262e-07,1.4889179e-07,1.1520854e-05,1.4676062e-05,6.41041e-06,2,3,1,100
565457914,565433234,-0.00051578355,-5.297928e-05,-0.10160262,0.9986943,-0.04473081,-0.024658954,0.0009218316,-0.0014601924,-0.0016925703,-0.006193702,0.0038553383,-0.0039641843,-0.007238089,1.2348751e-07,1.7815361e-07,1.0251271e-07,1.0901914e-07,1.1800103e-07,1.4882272e-07,1.140438e-05,1.4506284e-05,6.437386e-06,2,3,1,100
565491819,565462936,-0.00045287723,-7.050592e-05,-0.10165025,0.99869275,-0.044744354,-0.024697913,0.0009194169,-0.00115567,-0.0017244638,-0.0060892976,-0.004730721,-0.001213185,0.0023591993,1.2344832e-07,1.7819471e-07,1.0252568e-07,1.0761073e-07,1.1443963e-07,1.508364e-07,1.1382177e-05,1.4366953e-05,6.487814e-06,2,3,1,100
565523309,565492674,-0.00044360853,-6.4942615e-05,-0.10170192,0.9986935,-0.04472171,-0.024704829,0.000958014,-0.0011703299,-0.0020136265,-0.006313223,0.006948397,-0.0040655015,-0.0046838443,1.2355729e-07,1.782467e-07,1.0265646e-07,1.11248376e-07,1.17509046e-07,1.5076388e-07,1.1593738e-05,1.4643071e-05,6.463563e-06,2,3,1,100
565559889,565532290,-0.00039986693,-0.000103361934,-0.10178532,0.9986928,-0.044740494,-0.024699342,0.00095801876,-0.0019660338,-0.0021423858,-0.0057770563,-0.007693067,0.003437696,0.008639825,1.2354101e-07,1.7831097e-07,1.0274767e-07,1.0841044e-07,1.1626985e-07,1.4913887e-07,1.1436889e-05,1.450807e-05,6.414966e-06,2,3,1,100
565587076,565562012,-0.00031755853,-1.6532109e-05,-0.10188386,0.9986959,-0.04466407,-0.02471185,0.00095891405,-0.0018445826,-0.0016940453,-0.006399529,0.005489307,0.0015106761,-0.008443864,1.2366631e-07,1.7837088e-07,1.028157e-07,1.0626406e-07,1.17148566e-07,1.4606636e-07,1.1333531e-05,1.4516866e-05,6.339531e-06,2,3,1,100
565617191,565591725,-0.0003896338,-7.9619604e-05,-0.10183168,0.99869174,-0.04472956,-0.024760585,0.0009848422,-0.0024078826,-0.0020312835,-0.0054366835,-0.00609275,0.003429705,0.0082689095,1.2376064e-07,1.7893046e-07,1.0313201e-07,1.1402064e-07,1.2579298e-07,1.6297611e-07,1.1750411e-05,1.5038537e-05,6.7303217e-06,2,3,1,100
565661592,565631375,-0.0003722454,-0.00010769134,-0.10183461,0.9986943,-0.044691574,-0.024727913,0.0009492253,-0.002106034,-0.0029812574,-0.0052714427,-0.0023016275,-4.1512394e-05,-0.003861577,1.2388982e-07,1.7935585e-07,1.033307e-07,1.1675682e-07,1.2375921e-07,1.6682901e-07,1.1805287e-05,1.4737047e-05,6.7465735e-06,2,3,1,100
565692242,565661210,-0.00027494298,-6.9022986e-05,-0.10176766,0.9986915,-0.044744495,-0.024743436,0.0010036356,-0.0009372016,-0.0018855126,-0.004963259,0.0022070403,0.003198788,0.0015554294,1.2415808e-07,1.7973932e-07,1.0340821e-07,1.15823134e-07,1.275048e-07,1.6742163e-07,1.1688361e-05,1.493731e-05,6.662284e-06,2,3,1,100
565718475,565690978,-0.00023084618,-8.0633654e-05,-0.10167185,0.9986943,-0.04466396,-0.024776474,0.0009794708,-0.00093144743,-0.0029073774,-0.0043418957,0.0011803239,-0.007675632,0.00017595149,1.2416623e-07,1.7971047e-07,1.0341338e-07,1.0864449e-07,1.2398877e-07,1.6672348e-07,1.1337975e-05,1.4679522e-05,6.6061657e-06,2,3,1,100
565758801,565730714,-0.00025197907,-4.916989e-05,-0.1015425,0.9986911,-0.044718962,-0.024805803,0.0010186142,-0.0023778544,-0.002671835,-0.0039032062,0.012765009,0.0097965365,-0.006167232,1.2407315e-07,1.7966958e-07,1.0325749e-07,1.0378038e-07,1.210452e-07,1.6447802e-07,1.1225637e-05,1.455687e-05,6.549517e-06,2,3,1,100
565791114,565760567,-0.00027514438,-7.1997514e-05,-0.10157013,0.99869317,-0.044687964,-0.024778588,0.0010034427,-0.0019728339,-0.0024230806,-0.0038585612,0.00059341727,0.00027830043,0.0003786713,1.2395579e-07,1.7967618e-07,1.0315144e-07,1.026899e-07,1.1754731e-07,1.6186408e-07,1.1277816e-05,1.44669175e-05,6.52122e-06,2,3,1,100
565821322,565792466,-0.00030029367,-2.6691463e-05,-0.10147432,0.9986917,-0.044716746,-0.024785968,0.0010267873,-0.0019560936,-0.0021871082,-0.003700122,0.014749111,0.0039029869,-0.010021378,1.2389218e-07,1.79674e-07,1.031177e-07,1.01785496e-07,1.14715064e-07,1.5956033e-07,1.1300729e-05,1.4397582e-05,6.5108266e-06,2,3,1,100
565857399,565832134,-0.0003218935,-4.783453e-05,-0.101508334,0.9986919,-0.04470884,-0.02479033,0.0010394896,-0.0019497207,-0.0024108223,-0.003722622,-0.013839282,0.0034093265,0.0024914893,1.2388628e-07,1.7967588e-07,1.0304347e-07,1.02209874e-07,1.1502457e-07,1.5707802e-07,1.1316489e-05,1.4475417e-05,6.4920155e-06,2,3,1,100
565886802,565861878,-0.00033120782,-6.3099586e-05,-0.10156672,0.9986924,-0.044694502,-0.024795892,0.0010308882,-0.0020797735,-0.0023815187,-0.0044678412,0.013334977,-0.010021505,-0.0016194775,1.2392603e-07,1.7967523e-07,1.0309503e-07,1.03968e-07,1.1739416e-07,1.5482453e-07,1.1362388e-05,1.4597084e-05,6.471937e-06,2,3,1,100
565917661,565891629,-0.00034138496,-7.7675984e-05,-0.101655535,0.99869263,-0.044701852,-0.024773592,0.0010527854,-0.0017882123,-0.0020005459,-0.0046696127,-0.018042278,-0.0031843109,0.0021411388,1.240254e-07,1.7973818e-07,1.0312047e-07,1.046191e-07,1.1819007e-07,1.5087305e-07,1.1345885e-05,1.4584514e-05,6.4189553e-06,2,3,1,100
565960804,565931314,-0.00028609473,-6.3795596e-05,-0.101769336,0.9986933,-0.044657074,-0.024827408,0.0010398137,-0.0019266679,-0.0032438,-0.0053685084,0.0057038744,-0.007918191,-0.00040186182,1.2414016e-07,1.798255e-07,1.0323384e-07,1.13787216e-07,1.305541e-07,1.5150992e-07,1.174582e-05,1.5282374e-05,6.449898e-06,2,3,1,100
565982813,565961119,-0.000289235,-5.3040836e-05,-0.101726346,0.9986911,-0.044731114,-0.02478126,0.001078568,-0.002027369,-0.0021178452,-0.0048071286,-0.00031299714,0.005410379,0.00020880841,1.2429196e-07,1.8034092e-07,1.03549e-07,1.17380544e-07,1.3009463e-07,1.6748942e-07,1.17877335e-05,1.5031815e-05,6.8383533e-06,2,3,1,100
566024751,565990942,-0.00029988168,-0.00010615446,-0.101721115,0.99869317,-0.04467271,-0.024803247,0.0010433457,-0.001921016,-0.003045979,-0.004937679,0.0068630287,-0.006448091,-0.00046721153,1.2447795e-07,1.8072826e-07,1.0370667e-07,1.19172476e-07,1.3008676e-07,1.793575e-07,1.17767395e-05,1.4966545e-05,7.0197743e-06,2,3,1,100
566059353,566032782,-0.00019307931,-6.1668197e-06,-0.10173693,0.99868935,-0.04473059,-0.024850445,0.0011005071,-0.00093776145,-0.001791704,-0.0056298743,0.0036530972,-0.01395035,-0.002200956,1.2473635e-07,1.8126599e-07,1.03768734e-07,1.1823658e-07,1.2657736e-07,1.7514989e-07,1.1719406e-05,1.4792222e-05,6.8088852e-06,2,3,1,100
566087898,566062560,-0.00023747019,-1.4899506e-05,-0.10173374,0.9986916,-0.044663467,-0.024881745,0.0010717352,-0.001014335,-0.0016871803,-0.005471875,-0.0070117703,-0.008460787,0.00036192455,1.2479863e-07,1.8125964e-07,1.0376907e-07,1.1287863e-07,1.2198775e-07,1.6327249e-07,1.1493793e-05,1.46509665e-05,6.5192708e-06,2,3,1,100
566121043,566092324,-0.00022999002,8.844508e-06,-0.10157343,0.99869037,-0.044726364,-0.024817703,0.0011279755,-0.0008747136,-0.0015795312,-0.0047402005,-0.0029750287,-0.0075814743,-0.0022620345,1.2455223e-07,1.8106665e-07,1.0369106e-07,1.0457885e-07,1.1715829e-07,1.5985682e-07,1.1212941e-05,1.4451705e-05,6.484215e-06,2,3,1,100
566160811,566132021,-0.0002511655,-0.00020963236,-0.101634495,0.99869215,-0.044678167,-0.024831407,0.0010972379,-0.003636141,-0.004513294,-0.0048483266,-0.007568338,0.011037033,0.0036053169,1.2376083e-07,1.7983946e-07,1.0324992e-07,8.35684e-08,8.616915e-08,1.5301023e-07,1.0361482e-05,1.27903795e-05,6.4407327e-06,2,3,1,100
566188553,566161814,-0.00026965482,-0.00022858007,-0.10161043,0.9986912,-0.04470876,-0.024814658,0.0011072169,-0.0034039775,-0.0034832866,-0.005177012,0.008104066,0.010691292,-0.009841525,1.2383661e-07,1.7998764e-07,1.0325627e-07,9.338714e-08,1.0000355e-07,1.5440115e-07,1.12049765e-05,1.4305474e-05,6.4770593e-06,2,3,1,100
566218798,566191593,-0.00028043555,-0.00019839502,-0.101631716,0.9986916,-0.04468436,-0.024843106,0.0011086889,-0.0029449393,-0.002955815,-0.0050642183,-0.0039766505,0.0018857664,0.0014065636,1.239434e-07,1.801273e-07,1.0325827e-07,1.015275e-07,1.1309608e-07,1.5621414e-07,1.1541993e-05,1.48909e-05,6.5350014e-06,2,3,1,100
566254854,566231319,-0.00039373024,-0.00018645776,-0.101759054,0.9986924,-0.044682935,-0.024812136,0.001114203,-0.0030020967,-0.0026396543,-0.0058175065,0.0084635485,-0.003971275,-0.0025580819,1.2396163e-07,1.8023107e-07,1.03206965e-07,1.0773458e-07,1.199315e-07,1.5250563e-07,1.1632486e-05,1.48378e-05,6.463338e-06,2,3,1,100
566288937,566261146,-0.0002542222,-0.0001486489,-0.10192842,0.9986908,-0.044705864,-0.024834707,0.0011466176,-0.0015778593,-0.0015715213,-0.006220597,-0.007863129,0.003924105,0.0054495847,1.241445e-07,1.8044656e-07,1.0332627e-07,1.0824668e-07,1.202219e-07,1.5111975e-07,1.14735485e-05,1.4543448e-05,6.4711717e-06,2,3,1,100
566319806,566290989,-0.00038212579,-0.00018803844,-0.101886876,0.99869263,-0.044689324,-0.024790915,0.0011238016,-0.0029175102,-0.0022122364,-0.0057052295,0.004853477,0.00079312443,-0.004723403,1.2427468e-07,1.8092314e-07,1.03475436e-07,1.14519224e-07,1.2731911e-07,1.6614716e-07,1.1702489e-05,1.4925653e-05,6.801753e-06,2,3,1,100
566357612,566330864,-0.00049868005,-0.00024612353,-0.10183551,0.9986908,-0.04471842,-0.0248119,0.001155986,-0.0030606324,-0.003082368,-0.005441186,-0.0076643527,0.002401624,0.000532474,1.2467403e-07,1.8155687e-07,1.03761295e-07,1.2167628e-07,1.3548451e-07,1.8126657e-07,1.1940288e-05,1.5294621e-05,7.046062e-06,2,3,1,100
566388832,566360747,-0.00037964413,-0.00018088706,-0.10191159,0.9986922,-0.04467739,-0.024829905,0.0011140124,-0.0018101459,-0.0028513395,-0.005742567,0.002380796,-0.00024643293,-0.0012769208,1.2481723e-07,1.8188496e-07,1.0392005e-07,1.3098014e-07,1.3820603e-07,1.7861362e-07,1.2252924e-05,1.5339072e-05,6.860179e-06,2,3,1,100
566416894,566390626,-0.0003967936,-9.350517e-05,-0.10188328,0.9986905,-0.044720203,-0.024821704,0.0011641601,-0.0017427109,-0.001797569,-0.0055092736,-0.011425522,-0.007163146,0.0008816834,1.2491839e-07,1.8195577e-07,1.03995404e-07,1.3241183e-07,1.4378809e-07,1.7477647e-07,1.2162352e-05,1.5601841e-05,6.6885173e-06,2,3,1,100
566457783,566430494,-0.0004032173,-0.00012692701,-0.1019552,0.9986907,-0.04469059,-0.024865333,0.001124958,-0.0020569894,-0.0019075931,-0.0059821615,0.007021139,0.0015237248,0.0011956354,1.2485198e-07,1.8182061e-07,1.03962215e-07,1.1855632e-07,1.3150442e-07,1.6189314e-07,1.1543871e-05,1.4872692e-05,6.4352703e-06,2,3,1,100
566488565,566460380,-0.00031480214,-6.861255e-05,-0.10186341,0.9986879,-0.04474566,-0.024876412,0.0011686889,-0.00079191633,-0.0016777064,-0.0057144198,-0.010864139,-0.005376003,-0.001317925,1.2487165e-07,1.8166797e-07,1.0386492e-07,1.0917986e-07,1.2397895e-07,1.6170192e-07,1.1337872e-05,1.4648812e-05,6.507007e-06,2,3,1,100
566522357,566500270,-0.0004886449,-0.00017272888,-0.1017359,0.99869084,-0.04471871,-0.024811689,0.0011302246,-0.004783645,-0.0026513205,-0.0051351767,8.463542e-05,0.004151942,0.0050283438,1.24711e-07,1.8159294e-07,1.0378838e-07,1.170303e-07,1.3031315e-07,1.5984384e-07,1.1874327e-05,1.5273112e-05,6.482034e-06,2,3,1,100
566558016,566530189,-0.00039240925,-0.00018275101,-0.10183572,0.9986906,-0.044712476,-0.024830863,0.0011417866,-0.0035789888,-0.0027595032,-0.005928218,0.004071207,0.0059299623,-0.0006762248,1.2480139e-07,1.814653e-07,1.03869496e-07,1.1433909e-07,1.2571017e-07,1.5591571e-07,1.1713543e-05,1.49661255e-05,6.459669e-06,2,3,1,100
566583796,566560154,-0.00033188777,-0.00024436568,-0.10192007,0.99868864,-0.044738166,-0.024864692,0.001134321,-0.0029142015,-0.0030637295,-0.0063584726,-0.0006947853,0.011413636,0.0035554378,1.2469305e-07,1.8148678e-07,1.0379865e-07,1.2154132e-07,1.3077857e-07,1.5998154e-07,1.2060189e-05,1.5298252e-05,6.582239e-06,2,3,1,100
566629271,566600062,-0.00028588693,-0.000253299,-0.102114536,0.9986898,-0.044721406,-0.024849577,0.0011425886,-0.0011495777,-0.0033339774,-0.0073306756,0.003626292,-0.0009941787,-0.0024017715,1.2475103e-07,1.8140808e-07,1.03794626e-07,1.1442083e-07,1.2482491e-07,1.5433137e-07,1.1642937e-05,1.4858432e-05,6.4652563e-06,2,3,1,100
566651966,566630041,-0.0002890821,-0.00015976591,-0.10218963,0.99868834,-0.044770014,-0.024816286,0.0011619537,-0.00127675,-0.0012007693,-0.007429832,-0.0027845942,0.0059826225,0.0025120266,1.2479045e-07,1.8131584e-07,1.0379363e-07,1.11258295e-07,1.1882822e-07,1.5001422e-07,1.1533605e-05,1.4599196e-05,6.397471e-06,2,3,1,100
566679751,566659991,-0.00032978112,-0.00013352804,-0.10217035,0.99869037,-0.044713728,-0.024836905,0.0011467555,-0.0016116835,-0.0019544454,-0.007475533,0.0033094946,-0.0027047142,-0.003627708,1.2490042e-07,1.8186473e-07,1.0396101e-07,1.16362074e-07,1.2533087e-07,1.666523e-07,1.1839197e-05,1.5107065e-05,6.789299e-06,2,3,1,100
566720882,566699924,-0.00034503444,-0.00015223607,-0.10217227,0.9986876,-0.04479036,-0.024810744,0.0011695615,-0.003098838,-0.0020204105,-0.007134929,0.00094602,0.008831915,-0.00022671554,1.2518665e-07,1.8231455e-07,1.0415981e-07,1.1901051e-07,1.2804439e-07,1.6936035e-07,1.1941845e-05,1.5147229e-05,6.768905e-06,2,3,1,100
566761017,566729896,-0.00030758852,-5.4533066e-05,-0.10214041,0.9986912,-0.04470047,-0.024828095,0.0011401353,-0.002475764,-0.0021572916,-0.0068073873,-0.005173586,-0.0028212268,0.00086287543,1.252937e-07,1.8266421e-07,1.0424182e-07,1.1931321e-07,1.2687919e-07,1.6583013e-07,1.1878477e-05,1.4976721e-05,6.6158104e-06,2,3,1,100
566784257,566759865,-0.00040736742,-0.00024045308,-0.10211653,0.9986866,-0.044812396,-0.024809457,0.0011789742,-0.0029450273,-0.0029929609,-0.0065513034,0.0015400777,0.00073410926,-0.00055378507,1.2452222e-07,1.815245e-07,1.0386014e-07,9.017878e-08,8.951927e-08,1.6457258e-07,1.05594645e-05,1.2898684e-05,6.635872e-06,2,3,1,100
566823355,566799847,-0.00042032925,-0.00030212602,-0.102166705,0.9986899,-0.044727422,-0.024830585,0.0011713722,-0.00222033,-0.0036374326,-0.006934151,-0.01395646,-0.0027247004,0.00625904,1.2456316e-07,1.8164332e-07,1.0371476e-07,1.0323901e-07,1.0604536e-07,1.6229008e-07,1.1558784e-05,1.4669289e-05,6.51289e-06,2,3,1,100
566856139,566829829,-0.0004174256,-0.0002576095,-0.10216011,0.99868673,-0.044792987,-0.02484096,0.0011630551,-0.0016318972,-0.002638529,-0.006660041,0.010972355,-0.005036514,-0.0016702097,1.2463352e-07,1.8177984e-07,1.0365536e-07,1.1403822e-07,1.2255921e-07,1.659101e-07,1.19982105e-05,1.5443771e-05,6.5915488e-06,2,3,1,100
566882753,566859823,-0.0002986209,-0.00016409157,-0.102154374,0.998689,-0.04473383,-0.024856763,0.0011538949,-0.0011024821,-0.0019232311,-0.006579114,-0.011615837,-0.0010663151,0.002380903,1.2464521e-07,1.8175022e-07,1.03590715e-07,1.09463365e-07,1.194605e-07,1.6506158e-07,1.1567373e-05,1.4657505e-05,6.6060516e-06,2,3,1,100
566913822,566895604,-0.00037053344,-0.000344497,-0.102200985,0.9986866,-0.044810392,-0.024813011,0.0011667138,-0.002212397,-0.0034960415,-0.0067693195,0.009246902,0.0037736467,-0.0075907107,1.2401877e-07,1.8064786e-07,1.03258664e-07,8.73709e-08,8.9524754e-08,1.6173817e-07,1.044361e-05,1.27279745e-05,6.591129e-06,2,3,1,100
566951041,566925245,-0.00031228355,-0.0003170682,-0.10219218,0.99868774,-0.044763647,-0.02485063,0.0011901084,-0.001102823,-0.0026499233,-0.006817883,-0.004810833,0.0025796962,0.006097955,1.2407975e-07,1.8074175e-07,1.0314931e-07,9.3840086e-08,1.0167317e-07,1.65164e-07,1.1072919e-05,1.40665925e-05,6.6161124e-06,2,3,1,100
566993816,566964799,-0.00028034722,-0.000299685,-0.102321506,0.998688,-0.044765014,-0.0248416,0.0011624903,-0.0010241115,-0.0021807859,-0.0074056066,0.0052087186,-0.003067784,-0.00081258465,1.2416862e-07,1.8096353e-07,1.03206496e-07,9.8907975e-08,1.0867765e-07,1.6068859e-07,1.1304974e-05,1.4346416e-05,6.495324e-06,2,3,1,100
567018827,566994539,-0.0002788172,-0.0002529982,-0.1023729,0.9986909,-0.044762045,-0.024728116,0.001189862,-0.0060424665,-0.0023045042,-0.007364382,-0.011533192,0.03683574,0.0055259867,1.2438751e-07,1.812471e-07,1.03316054e-07,1.05849125e-07,1.18416274e-07,1.6386832e-07,1.1547872e-05,1.4739528e-05,6.570329e-06,2,3,1,100
567049982,567027196,-0.00071907026,-0.0005007783,-0.10276767,0.99871397,-0.044743925,-0.02381674,0.0010989177,-0.009917191,-0.0034990136,-0.0076841917,0.0035754626,0.09882454,-0.026292544,1.2411313e-07,1.8054189e-07,1.0318191e-07,8.641606e-08,9.358195e-08,1.7787897e-07,1.0413234e-05,1.2870511e-05,6.938448e-06,2,3,1,100
567091706,567066685,-0.0014126031,-0.00059287733,-0.10355963,0.9987565,-0.04448209,-0.022484383,0.0010841892,-0.011663199,-0.004978036,-0.01254757,-0.03757161,0.06960736,-0.009954495,1.26158e-07,1.8031851e-07,1.0432497e-07,8.0238685e-08,8.387553e-08,1.810018e-07,1.0278619e-05,1.2568349e-05,6.8738245e-06,2,3,1,100
567121212,567096244,-0.001927788,-0.00066003815,-0.10434256,0.9987704,-0.0445279,-0.021774612,0.0009240463,-0.012153934,-0.0050014798,-0.016585762,0.036642216,0.018104276,-0.013756233,1.3006553e-07,1.8314209e-07,1.0738753e-07,1.0503603e-07,1.11657876e-07,1.9689419e-07,1.1839371e-05,1.4939959e-05,7.0288083e-06,2,3,1,100
567150193,567125848,-0.00216513,-0.0008039688,-0.10534235,0.9987961,-0.044384155,-0.020871786,0.0008886559,-0.014197826,-0.0022397132,-0.020625066,0.054687753,0.110689886,0.023996823,1.35104e-07,1.8571589e-07,1.1145496e-07,9.930116e-08,1.0219902e-07,2.3026296e-07,1.1116183e-05,1.338833e-05,7.658309e-06,2,3,1,100
567189176,567165332,-0.002666812,-0.0009905486,-0.106545284,0.9988379,-0.044155665,-0.019308465,0.000644743,-0.016640069,-0.0066833217,-0.026235668,-0.00011504661,-0.10223282,-0.012549164,1.4483442e-07,1.9088095e-07,1.18059994e-07,1.3406934e-07,1.3983853e-07,2.7460558e-07,1.2854176e-05,1.5849912e-05,8.2095585e-06,2,3,1,75
567219570,567194957,-0.0030844698,-0.0012402636,-0.107559964,0.9988604,-0.044335417,-0.0176692,0.00022126995,-0.01856421,-0.007651916,-0.028184082,0.107140005,0.12146708,-0.011737647,1.5941022e-07,1.9763502e-07,1.2746153e-07,1.7287304e-07,1.9958276e-07,3.4818797e-07,1.41743585e-05,1.8656625e-05,9.13869e-06,2,3,1,86
567251700,567224594,-0.0036600733,-0.0013493054,-0.1088733,0.9988905,-0.04412784,-0.016445342,-0.00017476364,-0.013954039,-0.00936589,-0.038964223,0.15261497,0.068614975,-0.027616339,1.7614836e-07,2.0519116e-07,1.373022e-07,2.3884715e-07,2.9018526e-07,4.275936e-07,1.6073433e-05,2.175743e-05,9.850502e-06,2,3,1,95
567290062,567264167,-0.005264238,-0.0008001468,-0.11118117,0.99897754,-0.043276798,-0.013055299,-0.0007634089,-0.021078294,0.006487996,-0.054177172,0.117356636,0.2049494,0.01586844,2.0956337e-07,2.1857151e-07,1.5829758e-07,2.415376e-07,3.322422e-07,5.3488986e-07,1.5331289e-05,2.1668953e-05,1.0887028e-05,2,3,1,43
567314826,567293863,-0.006223475,-0.0006464246,-0.11316492,0.999067,-0.042071696,-0.009716526,-0.000791552,-0.020161245,0.010754861,-0.07685732,0.27214128,0.13825834,-0.00729899,2.7412904e-07,2.4275468e-07,1.9903283e-07,2.786482e-07,4.0831517e-07,6.3769323e-07,1.603405e-05,2.326348e-05,1.147628e-05,2,3,1,100
567349538,567323576,-0.0069857533,-0.0008426462,-0.11584501,0.9991105,-0.041765228,-0.0057594995,-0.00083226414,-0.016561592,0.009001193,-0.096204795,-0.0089909425,0.38326013,0.04402685,3.6321615e-07,2.759374e-07,2.5286852e-07,3.9923498e-07,5.826023e-07,7.9272644e-07,1.9305267e-05,2.7875178e-05,1.2564806e-05,2,3,1,10
567388626,567363290,-0.007496027,-0.0010263385,-0.120696306,0.99908423,-0.042711932,0.0019275185,-0.0016438937,-0.011663299,0.0011923255,-0.14672066,-0.06334461,0.44720966,-0.052763846,5.394447e-07,3.3616251e-07,3.5535615e-07,5.66542e-07,8.2692975e-07,9.756075e-07,2.2982375e-05,3.3274566e-05,1.3683979e-05,2,3,1,9
567417230,567393077,-0.0080139525,-0.0008491774,-0.12588517,0.9990106,-0.0436272,0.008334013,-0.0022243147,-0.006298866,-0.0021747595,-0.20674378,-0.05318384,0.49713358,-0.086899556,7.8504235e-07,4.219822e-07,4.968463e-07,5.4421747e-07,6.4606263e-07,1.0617664e-06,2.1344129e-05,2.6984026e-05,1.3559659e-05,2,3,1,27
567456810,567432738,-0.0093434565,-0.001131104,-0.13527413,0.998907,-0.043797415,0.016060669,-0.0029383933,-0.007778797,-0.010500917,-0.28628552,0.0945579,0.29023463,-0.014878685,9.973612e-07,5.2473695e-07,6.530838e-07,5.3029174e-07,6.4001745e-07,1.2531791e-06,2.1086149e-05,2.7682006e-05,1.4548155e-05,2,3,1,52
567483505,567462510,-0.010246852,-0.0024759409,-0.14446434,0.9989591,-0.041266523,0.01926145,-0.0026011649,-0.008490737,-0.021553736,-0.34968263,0.22309947,0.057832878,0.061056674,1.1733381e-06,5.9832496e-07,7.65274e-07,5.3446496e-07,7.546728e-07,1.4564462e-06,2.2323122e-05,3.25929e-05,1.5236168e-05,2,3,1,20
567515927,567492356,-0.010713395,-0.0037356783,-0.15572712,0.999104,-0.036618613,0.02112167,-0.0020322348,-0.009588379,-0.024617687,-0.41092274,0.48001933,0.20632978,0.1191725,1.2231588e-06,6.4678255e-07,8.3249887e-07,6.213893e-07,7.7696404e-07,1.7402239e-06,2.517665e-05,3.3594926e-05,1.7015813e-05,2,3,1,16
567564897,567542020,-0.013090264,-0.0063231313,-0.17817377,0.9992454,-0.02988414,0.024759384,-0.0015936833,-0.016516382,-0.025558993,-0.4966686,0.2790394,0.13781089,0.032493457,1.3115617e-06,7.229839e-07,9.2425506e-07,5.952353e-07,7.853759e-07,2.0636894e-06,2.4780697e-05,3.3327917e-05,1.8779861e-05,2,3,1,17
567583845,567561894,-0.013891305,-0.0072899796,-0.18820336,0.99928445,-0.028203625,0.025155105,-0.0015421051,-0.019323746,-0.023804527,-0.5168134,0.17021182,-0.011153723,-0.00057930464,1.3549026e-06,7.759315e-07,9.461656e-07,7.841081e-07,1.0466866e-06,2.423544e-06,2.9365885e-05,4.0784795e-05,2.014144e-05,2,3,1,10
567640776,567611754,-0.015860762,-0.008235478,-0.21485248,0.9994227,-0.026661146,0.021048438,-0.00066068606,-0.025393112,-0.019454813,-0.55657315,-0.06030448,-0.3743164,0.05525911,1.2065232e-06,7.4825624e-07,8.95815e-07,7.7626254e-07,9.328889e-07,2.842536e-06,2.7605765e-05,3.2764277e-05,2.2348466e-05,2,3,1,16
567654813,567631650,-0.015959406,-0.008693531,-0.22587818,0.99946654,-0.027252441,0.017997166,-3.892808e-05,-0.023961566,-0.014989008,-0.5583039,-0.037017066,-0.3355606,0.052366484,1.0259787e-06,6.649109e-07,7.6158733e-07,7.2216704e-07,1.1417131e-06,3.2911876e-06,2.481551e-05,3.5600675e-05,2.336816e-05,2,3,1,29
567685163,567661489,-0.016861243,-0.010100736,-0.24250562,0.99950856,-0.027777612,0.014502962,0.00082167244,-0.02521152,-0.00964791,-0.5561804,-0.12925884,-0.12849107,0.060561955,8.6149794e-07,5.945533e-07,6.5120395e-07,8.7164585e-07,1.4725553e-06,3.7543618e-06,2.6656518e-05,4.0265215e-05,2.4372725e-05,2,3,1,10
567720031,567692371,-0.018093064,-0.011355209,-0.25943646,0.99950874,-0.028011164,0.013985807,0.0014552991,-0.025316294,-0.013761417,-0.54639953,0.030628966,0.04919657,0.031837903,8.119685e-07,5.7513694e-07,6.2273233e-07,1.0619418e-06,1.7243797e-06,4.3198547e-06,2.7354943e-05,3.949253e-05,2.5703974e-05,2,3,1,9
567756957,567732136,-0.020048868,-0.013315687,-0.28087983,0.99945855,-0.028219044,0.016801758,0.002004659,-0.024937961,-0.016899291,-0.53489083,0.0573842,0.070161276,0.023263603,8.291764e-07,5.978866e-07,6.650752e-07,1.2744198e-06,1.8147787e-06,4.9456626e-06,2.7248354e-05,3.125279e-05,2.7425194e-05,2,3,1,8
567786924,567761952,-0.02225166,-0.014612574,-0.29720742,0.99944776,-0.02756357,0.018413734,0.002313702,-0.026160343,-0.013585628,-0.52062523,0.05871914,0.12969807,0.056497023,8.82776e-07,6.245443e-07,7.067889e-07,1.3590136e-06,2.0449381e-06,5.517964e-06,2.497134e-05,3.1112806e-05,2.8395734e-05,2,3,1,71
567825131,567798554,-0.02492449,-0.016814558,-0.31572002,0.9994999,-0.026134552,0.017575286,0.0028298958,-0.034087628,-0.022896757,-0.5139695,0.11054192,-0.1487754,0.05566082,8.562912e-07,6.1847663e-07,7.1436045e-07,1.4695789e-06,2.201507e-06,6.083488e-06,1.9592228e-05,2.5536585e-05,2.865088e-05,2,3,1,10
567861742,567828026,-0.02723118,-0.01907877,-0.3306919,0.99951386,-0.026438354,0.016125498,0.0036092747,-0.04121088,-0.023785993,-0.5054705,-0.10925683,-0.09761215,0.043911107,7.986886e-07,5.954528e-07,6.59206e-07,1.6534653e-06,2.4785338e-06,6.8412605e-06,1.972851e-05,2.6134874e-05,2.9725617e-05,2,3,1,62
567882954,567857477,-0.029754095,-0.020466447,-0.3449983,0.99950963,-0.02705133,0.015198315,0.004208983,-0.04629437,-0.024685387,-0.50246507,0.040351506,-0.018169694,0.055789154,7.457638e-07,5.6669586e-07,6.187607e-07,1.7911763e-06,2.7185554e-06,7.668628e-06,1.8523619e-05,2.4954714e-05,3.0852945e-05,2,3,1,59
567922805,567896906,-0.03214509,-0.022991031,-0.36471534,0.9995161,-0.0270732,0.014331507,0.0054062516,-0.043744817,-0.029374875,-0.5055568,0.053144597,-0.13240936,0.088638276,7.218115e-07,5.5846334e-07,6.0936475e-07,1.961432e-06,2.9499618e-06,8.567255e-06,1.7589866e-05,2.3658225e-05,3.1994543e-05,2,3,1,38
567950538,567926417,-0.033800438,-0.024351586,-0.37955227,0.9995473,-0.026229383,0.013346446,0.006255693,-0.04357897,-0.02392344,-0.5021055,0.034102112,-0.06892192,0.035430282,6.967979e-07,5.605749e-07,6.0240353e-07,2.1380988e-06,3.1977233e-06,9.53926e-06,1.7530647e-05,2.347098e-05,3.3089764e-05,2,3,1,50
567990636,567965793,-0.03625428,-0.026791029,-0.39932394,0.9995675,-0.026304552,0.011015231,0.0071822437,-0.044706695,-0.029528221,-0.50312936,-0.06628216,-0.10447595,0.03313547,6.511042e-07,5.450408e-07,5.741341e-07,2.3279367e-06,3.5248643e-06,1.05824665e-05,1.7203165e-05,2.4182375e-05,3.4014727e-05,2,3,1,32
568022879,567995395,-0.037403133,-0.028279642,-0.4140198,0.99954516,-0.027428873,0.009814615,0.007801245,-0.038862366,-0.025738047,-0.49906147,-0.21815164,-0.017260095,0.058296543,6.0570596e-07,5.1980624e-07,5.3929045e-07,2.4857231e-06,3.7524483e-06,1.1595388e-05,1.5908445e-05,2.1712043e-05,3.4772253e-05,2,3,1,28
568054547,568024981,-0.0387017,-0.029652905,-0.42856687,0.999504,-0.028147107,0.011455625,0.008262267,-0.03244007,-0.025787935,-0.49453437,-0.0124947,0.20019771,-0.0081386035,6.3556246e-07,5.3287886e-07,5.5704226e-07,2.7185004e-06,4.1225694e-06,1.2778442e-05,1.701506e-05,2.3203978e-05,3.5821857e-05,2,3,1,28
568095813,568064472,-0.03994413,-0.03175611,-0.44776294,0.999473,-0.027017647,0.015625998,0.008927782,-0.025178608,-0.030128138,-0.49590176,0.15777381,0.09664843,0.059243552,7.240445e-07,5.8378794e-07,6.3182733e-07,2.971511e-06,4.5181323e-06,1.4046291e-05,1.7792006e-05,2.4375071e-05,3.688412e-05,2,3,1,25
568125954,568104007,-0.04115328,-0.033804182,-0.4670118,0.9994833,-0.024121705,0.018942019,0.009619082,-0.015748518,-0.03247961,-0.49126187,0.14990148,0.18577307,0.033114992,8.2398594e-07,6.5041394e-07,7.107438e-07,3.2346968e-06,4.9365544e-06,1.5397856e-05,1.8185438e-05,2.5351987e-05,3.792384e-05,2,3,1,37
568160202,568125857,-0.0421889,-0.034579784,-0.47748998,0.9994933,-0.022617048,0.020211034,0.009649409,-0.01959991,-0.033534996,-0.4850821,0.22846615,0.09522444,-0.012169423,8.981485e-07,7.0496077e-07,7.784289e-07,3.4758834e-06,5.372732e-06,1.6775224e-05,1.808515e-05,2.6242951e-05,3.8688828e-05,2,3,1,38
568186043,568165246,-0.043769106,-0.035934627,-0.49608588,0.9994514,-0.02292858,0.021845607,0.009689633,-0.020711461,-0.019758392,-0.48194462,-0.23472704,0.079972826,0.02980032,9.358932e-07,7.264624e-07,8.154497e-07,3.7574223e-06,5.835041e-06,1.8275492e-05,1.867536e-05,2.6839445e-05,3.9789727e-05,2,3,1,22
568227045,568194818,-0.044140816,-0.036415935,-0.5101425,0.99938434,-0.024651377,0.022876779,0.009995302,-0.01781173,-0.016809009,-0.49129668,-0.11436328,0.059489,-0.009787931,9.557255e-07,7.2424376e-07,8.214163e-07,4.030573e-06,6.2924196e-06,1.9864514e-05,1.8514118e-05,2.6986854e-05,4.0788862e-05,2,3,1,26
568246403,568224423,-0.045006637,-0.037083574,-0.52444077,0.9993186,-0.02654744,0.023495883,0.010273985,-0.020923503,-0.0061848466,-0.50203705,-0.13741878,-0.04232231,0.050020855,9.643816e-07,7.152839e-07,8.105974e-07,4.3080786e-06,6.7599017e-06,2.1511141e-05,1.8741941e-05,2.74271e-05,4.168007e-05,2,3,1,19
568293948,568263899,-0.046296164,-0.03819803,-0.54462916,0.9992861,-0.0274126,0.02373962,0.010593531,-0.023430223,-0.0044929916,-0.53295004,0.0076051904,0.057480685,-0.0045741363,9.477112e-07,7.010188e-07,7.8621133e-07,4.602481e-06,7.249979e-06,2.3249491e-05,1.9290552e-05,2.7906675e-05,4.2771342e-05,2,3,1,19
568316620,568293641,-0.047617387,-0.03906055,-0.56109315,0.9993201,-0.025256759,0.024840292,0.010218975,-0.025205923,-0.0068634204,-0.58137196,0.023333237,0.113226354,0.004742199,9.657575e-07,7.206046e-07,8.304308e-07,4.9265e-06,7.794009e-06,2.5117273e-05,1.9803085e-05,2.8940942e-05,4.4361303e-05,2,3,1,15
568352590,568323300,-0.049258158,-0.039712474,-0.5787709,0.9993207,-0.023055753,0.027157815,0.00943611,-0.03147535,-0.007629196,-0.63868076,0.048038792,0.07598979,0.0127364285,1.016303e-06,7.5589367e-07,9.0559064e-07,5.239921e-06,8.347953e-06,2.692013e-05,1.9305418e-05,2.89049e-05,4.579913e-05,2,3,1,14
568391188,568362877,-0.052084364,-0.040515393,-0.60526586,0.9992835,-0.023078568,0.028469782,0.009452099,-0.036895365,-9.323377e-05,-0.724497,-0.041065577,-0.13394739,0.06537835,1.0415292e-06,7.6613344e-07,9.2345834e-07,5.6695626e-06,9.007534e-06,2.8991997e-05,2.1414407e-05,3.1459014e-05,4.778267e-05,2,3,1,20
568422801,568392582,-0.0546827,-0.04146062,-0.6275816,0.99926573,-0.025435198,0.026873035,0.009947696,-0.045434244,0.008107359,-0.77664876,-0.091751695,-0.2067543,0.08854998,9.825418e-07,7.2798827e-07,8.6934676e-07,6.164266e-06,9.7577185e-06,3.1179847e-05,2.3482324e-05,3.3715012e-05,4.954096e-05,2,3,1,12
568461421,568433261,-0.05869724,-0.04288118,-0.6600891,0.99921894,-0.030224387,0.02315141,0.010583197,-0.05907647,0.01846664,-0.8274086,-0.2905563,-0.17193605,0.12944017,8.784565e-07,6.6273515e-07,7.737079e-07,6.715989e-06,1.0565837e-05,3.3469092e-05,2.4810124e-05,3.5619538e-05,5.136557e-05,2,3,1,11
568491994,568462955,-0.061743446,-0.043992195,-0.6848909,0.9991589,-0.033256084,0.0213033,0.011030865,-0.06912809,0.021756813,-0.84038585,-0.16923946,-0.09841743,0.0022106336,7.965656e-07,6.1734244e-07,7.028363e-07,7.3249616e-06,1.1403827e-05,3.565732e-05,2.539632e-05,3.5443914e-05,5.2711515e-05,2,3,1,23
568514066,568492705,-0.06490085,-0.045339745,-0.71000236,0.99912107,-0.034583643,0.020674013,0.011559391,-0.069481894,0.014369675,-0.84286696,-0.10388931,0.12278362,0.00075131626,7.7358226e-07,6.069733e-07,6.8010837e-07,8.005495e-06,1.23593245e-05,3.8175e-05,2.7125438e-05,3.758412e-05,5.4009965e-05,2,3,1,35
568548076,568523605,-0.068131536,-0.047520597,-0.73574394,0.99910915,-0.03468714,0.02085116,0.011954488,-0.07279301,0.0048378436,-0.8398954,0.18702401,0.019580515,0.04082125,7.761522e-07,6.130609e-07,6.804404e-07,8.75085e-06,1.33620215e-05,4.081557e-05,2.8662173e-05,3.8376187e-05,5.504422e-05,2,3,1,31
568587257,568563168,-0.072466865,-0.050109275,-0.76852345,0.999136,-0.033118162,0.02195093,0.0121912,-0.07405555,-0.012291249,-0.82413596,0.11826361,0.063358836,-0.012342171,7.9585084e-07,6.288809e-07,7.059456e-07,9.560311e-06,1.4463924e-05,4.3573684e-05,2.989194e-05,3.9970488e-05,5.6077595e-05,2,3,1,15
568614128,568592899,-0.07552649,-0.051995687,-0.7922059,0.99915045,-0.03184079,0.023099044,0.012287153,-0.07379793,-0.013700111,-0.81119066,0.16161908,0.06340626,0.04016264,8.204493e-07,6.4650004e-07,7.2547545e-07,1.0404399e-05,1.5537606e-05,4.617637e-05,3.028455e-05,4.0327028e-05,5.698826e-05,2,3,1,28
568652307,568623677,-0.078702115,-0.05399719,-0.81703115,0.9991725,-0.030259322,0.024100743,0.012561714,-0.07461867,-0.024673378,-0.8001674,0.12619542,0.03292067,0.024443772,8.520104e-07,6.710241e-07,7.556205e-07,1.130908e-05,1.6737584e-05,4.9107966e-05,3.1737636e-05,4.2308006e-05,5.793246e-05,2,3,1,32
568684842,568663221,-0.08295823,-0.056033965,-0.84885776,0.99920654,-0.029217483,0.023820033,0.012856787,-0.077008314,-0.026988909,-0.79745454,0.015065808,-0.12734641,0.023217127,8.5650476e-07,6.7702587e-07,7.406694e-07,1.2234982e-05,1.7934597e-05,5.2181298e-05,3.2618653e-05,4.360563e-05,5.9030757e-05,2,3,1,31
568719557,568692923,-0.08599759,-0.057852093,-0.8722919,0.9991806,-0.030568507,0.023149716,0.012955348,-0.080236286,-0.022954185,-0.7923073,-0.16056126,-0.06638268,-0.004747836,8.300469e-07,6.609139e-07,7.1612675e-07,1.3211054e-05,1.9214787e-05,5.5414057e-05,3.4047745e-05,4.5037406e-05,6.0289996e-05,2,3,1,17
568752854,568732573,-0.09037728,-0.059851345,-0.90398365,0.9990944,-0.03319959,0.023226446,0.0129903555,-0.08420503,-0.025729131,-0.797192,-0.035286874,0.11682504,-0.029755345,8.147371e-07,6.4826156e-07,7.02452e-07,1.4186987e-05,2.044543e-05,5.8715294e-05,3.4474593e-05,4.4608507e-05,6.165231e-05,2,3,1,14
568798802,568772245,-0.0943858,-0.06264195,-0.9360497,0.99903554,-0.033950906,0.024551004,0.013138347,-0.083422534,-0.02822701,-0.80852234,0.05813719,-0.008469218,0.05293277,8.3815337e-07,6.587678e-07,7.244064e-07,1.5243951e-05,2.1868991e-05,6.2255305e-05,3.5850364e-05,4.6950187e-05,6.293941e-05,2,3,1,14
568813752,568792115,-0.09629972,-0.063964345,-0.9523931,0.99906147,-0.032935206,0.024778359,0.013325399,-0.08466337,-0.027316611,-0.8108252,0.18132985,-0.030002622,0.04452716,8.5006764e-07,6.7100706e-07,7.4492027e-07,1.632115e-05,2.3246257e-05,6.592985e-05,3.6909172e-05,4.7374553e-05,6.435916e-05,2,3,1,14
568852245,568831793,-0.10035757,-0.06723464,-0.98472136,0.99921393,-0.02950164,0.022947954,0.013213115,-0.093339734,-0.04460099,-0.81905365,0.14744326,-0.15493624,-0.092903495,8.1294826e-07,6.608486e-07,7.353157e-07,1.7408049e-05,2.4640587e-05,6.9754984e-05,3.7692513e-05,4.766998e-05,6.571466e-05,2,3,1,14
568880083,568861628,-0.1038168,-0.06819149,-1.0094026,0.9992879,-0.028453737,0.021067351,0.013045818,-0.09846216,-0.040544756,-0.82192206,0.04676261,-0.11302403,0.0051673003,7.50326e-07,6.329762e-07,7.046989e-07,1.8427112e-05,2.5973115e-05,7.3728064e-05,3.7035432e-05,4.6810816e-05,6.712108e-05,2,3,1,12
568915117,568891417,-0.1067453,-0.06998369,-1.0339553,0.99930966,-0.02856835,0.020086508,0.0126726935,-0.102912694,-0.03806406,-0.82528645,0.017287303,-0.07897303,-0.024707114,7.152091e-07,6.1403193e-07,6.849162e-07,1.9559859e-05,2.7463038e-05,7.7914156e-05,3.780054e-05,4.7820482e-05,6.8491216e-05,2,3,1,12
568953819,568931192,-0.111220926,-0.07279123,-1.0668889,0.9992982,-0.028366514,0.021156231,0.012281103,-0.09845951,-0.043907676,-0.8334998,-0.0672305,0.17194873,-0.009591589,7.183777e-07,6.156595e-07,7.010609e-07,2.0756159e-05,2.9029792e-05,8.2266575e-05,3.8842405e-05,4.914516e-05,6.993643e-05,2,3,1,10
568983818,568961012,-0.114070624,-0.075100236,-1.0919443,0.9993317,-0.026647987,0.021975042,0.011960789,-0.10092523,-0.04657455,-0.8421527,0.15186621,-0.015363213,-0.05050196,7.320332e-07,6.288732e-07,7.353299e-07,2.1953534e-05,3.0643514e-05,8.6783904e-05,3.9087954e-05,4.984728e-05,7.123015e-05,2,3,1,10
569013659,568990840,-0.11729159,-0.077197,-1.1171324,0.99941826,-0.023525821,0.021975677,0.011258789,-0.09802707,-0.05239965,-0.8459371,0.16613351,-0.05660454,-0.003670004,7.272406e-07,6.4087374e-07,7.658071e-07,2.3237722e-05,3.2350028e-05,9.144168e-05,4.003232e-05,5.0995877e-05,7.260104e-05,2,3,1,10
569047772,569026532,-0.12144211,-0.0794049,-1.1473967,0.99950814,-0.0205623,0.02126452,0.010417649,-0.1036616,-0.05621118,-0.8554942,0.08453203,-0.080255434,-0.008816769,7.1357994e-07,6.485777e-07,7.856562e-07,2.4576202e-05,3.4085024e-05,9.629543e-05,4.1026113e-05,5.1569223e-05,7.4017196e-05,2,3,1,12
569097806,569075732,-0.12685135,-0.08260526,-1.189401,0.9995427,-0.020543158,0.01981834,0.00997901,-0.10912565,-0.044242166,-0.8606246,-0.15758733,0.00012417618,-0.021764208,6.898367e-07,6.3963427e-07,7.7637606e-07,2.588742e-05,3.5847537e-05,0.00010131535,4.130571e-05,5.2046238e-05,7.5453165e-05,2,3,1,12
569118818,569095447,-0.1284963,-0.08293906,-1.2063255,0.9995504,-0.02089787,0.0191219,0.009832983,-0.10784204,-0.04586373,-0.8658718,-0.0959312,-0.0024142351,-0.058691088,6.611323e-07,6.2023025e-07,7.524451e-07,2.728076e-05,3.76488e-05,0.0001065248,4.2103216e-05,5.2372747e-05,7.692326e-05,2,3,1,12
569146816,569125072,-0.13166939,-0.084318236,-1.2318703,0.9995605,-0.021099402,0.018518865,0.009527074,-0.11005405,-0.039077803,-0.8724725,0.10327363,-0.06464736,-0.038288783,6.382953e-07,6.047388e-07,7.378593e-07,2.8671533e-05,3.9483504e-05,0.000111903384,4.232405e-05,5.232302e-05,7.829746e-05,2,3,1,11
569188825,569164508,-0.13624518,-0.086701,-1.2659116,0.9996003,-0.019685667,0.01825176,0.008868714,-0.112272866,-0.041472793,-0.8710156,0.16854927,-0.055101242,-0.0015669795,6.302911e-07,6.0683783e-07,7.472756e-07,3.0206093e-05,4.1462095e-05,0.00011746971,4.3745706e-05,5.3640142e-05,7.967748e-05,2,3,1,10
569213239,569194112,-0.13957852,-0.088035524,-1.2915721,0.9996285,-0.018202456,0.018235095,0.008891096,-0.11043122,-0.03501813,-0.87383443,0.093827,0.09649324,-0.010837214,6.319818e-07,6.2061656e-07,7.7187303e-07,3.1660285e-05,4.3385568e-05,0.0001232073,4.3648663e-05,5.321659e-05,8.107854e-05,2,3,1,11
569255494,569233610,-0.14468731,-0.090361014,-1.3258576,0.99964,-0.017407188,0.018298116,0.009064406,-0.114410214,-0.039894756,-0.87726504,0.017375482,-0.022625415,0.00071577035,6.377509e-07,6.321126e-07,7.916933e-07,3.3216562e-05,4.5456727e-05,0.00012912847,4.4294775e-05,5.414759e-05,8.233578e-05,2,3,1,10
569283987,569263263,-0.14778839,-0.09158771,-1.3517983,0.9996144,-0.01895707,0.018141389,0.009083873,-0.111808084,-0.024810635,-0.87747073,-0.07311823,-0.026469108,0.04110158,6.271435e-07,6.170009e-07,7.759162e-07,3.4785426e-05,4.7595764e-05,0.00013522734,4.4615666e-05,5.496144e-05,8.349381e-05,2,3,1,12
569320815,569292955,-0.15146172,-0.09280533,-1.3775764,0.999601,-0.020451237,0.017175928,0.009199057,-0.11361547,-0.028175043,-0.8803575,-0.05578674,-0.021424532,-0.040128507,6.0216365e-07,5.903076e-07,7.402323e-07,3.6384838e-05,4.976993e-05,0.00014151756,4.4934066e-05,5.5761666e-05,8.482126e-05,2,3,1,10
569354298,569332583,-0.15618616,-0.095087714,-1.4124802,0.9996177,-0.021700272,0.014373849,0.0093243355,-0.114235215,-0.023237955,-0.8883104,-0.13590577,-0.13923164,0.014375896,5.6557957e-07,5.639554e-07,6.985184e-07,3.8050726e-05,5.196876e-05,0.00014801334,4.5509856e-05,5.628536e-05,8.618326e-05,2,3,1,9
569384220,569362402,-0.1588095,-0.0964849,-1.4386407,0.9996214,-0.022503836,0.012817825,0.009293448,-0.1120721,-0.02245337,-0.89062285,0.022831963,-0.0795911,0.006265316,5.28374e-07,5.379514e-07,6.5923933e-07,3.963496e-05,5.404291e-05,0.00015470441,4.5389956e-05,5.531666e-05,8.7618944e-05,2,3,1,8
569413148,569392126,-0.16179363,-0.097642794,-1.4648005,0.99961394,-0.022598762,0.013442223,0.008982427,-0.10719382,-0.017589323,-0.89286643,-0.0691713,0.14335562,0.010773273,5.2629e-07,5.3432893e-07,6.6667707e-07,4.1219133e-05,5.625396e-05,0.0001616184,4.478856e-05,5.498024e-05,8.8974775e-05,2,3,1,7
569455852,569432954,-0.16527924,-0.10010884,-1.5009074,0.999598,-0.02099779,0.017039536,0.008520348,-0.09563813,-0.028819194,-0.90199643,0.049034886,0.17210655,-0.042995553,5.622503e-07,5.5853934e-07,7.256893e-07,4.2952597e-05,5.866952e-05,0.00016875987,4.521068e-05,5.591496e-05,9.032138e-05,2,3,1,7
569493802,569472568,-0.1702516,-0.10263137,-1.536752,0.9996239,-0.01795635,0.019035788,0.008205486,-0.098343164,-0.034910716,-0.911329,0.22698337,-0.04498284,-0.039741985,6.018091e-07,5.9365897e-07,7.949589e-07,4.4834644e-05,6.123414e-05,0.00017614849,4.6035144e-05,5.7023975e-05,9.161486e-05,2,3,1,9
569513425,569492391,-0.17203632,-0.10364478,-1.5545686,0.99965394,-0.016486606,0.018883267,0.007974892,-0.094127595,-0.03424888,-0.91640955,0.24108079,-0.08442681,-0.026211787,6.1492443e-07,6.175256e-07,8.3646415e-07,4.6745998e-05,6.385754e-05,0.00018371288,4.6660447e-05,5.8094953e-05,9.290948e-05,2,3,1,9
569551198,569532063,-0.17745763,-0.10536765,-1.5904632,0.99969715,-0.015532064,0.017595127,0.007406422,-0.100624435,-0.03206559,-0.9202552,0.0592892,0.0026558968,-0.017627742,6.025674e-07,6.183364e-07,8.359104e-07,4.8720103e-05,6.6542176e-05,0.00019148712,4.763624e-05,5.9051537e-05,9.436945e-05,2,3,1,9
569583845,569561819,-0.18076886,-0.10671746,-1.6177597,0.9996928,-0.016145777,0.017347591,0.0072574387,-0.09923914,-0.029341724,-0.9291266,-0.096819416,0.07685941,-0.011886143,5.9247174e-07,6.0921315e-07,8.237603e-07,5.0780087e-05,6.933893e-05,0.00019951447,4.8799917e-05,6.0775114e-05,9.585261e-05,2,3,1,9
569611330,569591610,-0.18283534,-0.10767699,-1.644965,0.9996712,-0.01702925,0.017839503,0.0070200507,-0.09739171,-0.024194896,-0.9391059,0.051726434,0.047446486,-0.0050139385,5.9237925e-07,6.0130293e-07,8.2044727e-07,5.2834115e-05,7.217543e-05,0.00020774358,4.938806e-05,6.16185e-05,9.728826e-05,2,3,1,9
569653418,569631335,-0.18784073,-0.109369576,-1.6820284,0.9996316,-0.018295389,0.01876409,0.007065659,-0.09367852,-0.013920009,-0.9487093,-0.1147541,0.07458914,0.02136663,5.9621266e-07,5.965748e-07,8.227283e-07,5.486793e-05,7.5055155e-05,0.00021618986,4.941175e-05,6.212603e-05,9.871365e-05,2,3,1,8
569679694,569661141,-0.19073503,-0.11036114,-1.7098594,0.9996153,-0.018502016,0.019407421,0.0070921266,-0.09493297,-0.013350696,-0.9551947,-0.03892054,0.044647593,0.005856791,6.035202e-07,5.9778364e-07,8.3200814e-07,5.700906e-05,7.808933e-05,0.00022484119,4.9965605e-05,6.349983e-05,0.00010007418,2,3,1,7
569720210,569691062,-0.1943667,-0.11162408,-1.7381234,0.9996182,-0.01793193,0.019758359,0.007182993,-0.09566429,-0.01514242,-0.9647196,-0.019039016,-0.021773005,0.037937872,6.1069113e-07,6.053127e-07,8.5043087e-07,5.918024e-05,8.1175036e-05,0.00023373718,5.0041603e-05,6.437293e-05,0.00010148701,2,3,1,16
569751894,569730846,-0.19910069,-0.11397625,-1.7762274,0.9996548,-0.016327413,0.019005561,0.00790146,-0.09924172,-0.012635591,-0.96837914,0.20038112,-0.04725233,0.035772853,6.1164036e-07,6.154487e-07,8.650901e-07,6.147755e-05,8.439141e-05,0.0002429051,5.059053e-05,6.605031e-05,0.000102675425,2,3,1,16
569779383,569760685,-0.2026475,-0.115436286,-1.8049024,0.99970436,-0.014826816,0.017334344,0.008418858,-0.10642444,-0.018932229,-0.97170305,0.04747342,-0.1824172,0.027189903,5.997549e-07,6.2137406e-07,8.661135e-07,6.377687e-05,8.761047e-05,0.00025228274,5.0833904e-05,6.702397e-05,0.00010395849,2,3,1,16
569831811,569810460,-0.20984195,-0.11691521,-1.8526082,0.99972934,-0.014580879,0.015510361,0.00938951,-0.10880555,-0.00604998,-0.97373056,-0.01948085,0.07276278,0.043992035,5.8501394e-07,6.194415e-07,8.5413e-07,6.6165034e-05,9.0782945e-05,0.00026187958,5.161989e-05,6.707545e-05,0.00010539597,2,3,1,16
569851843,569830376,-0.21193627,-0.11789658,-1.8719953,0.9997228,-0.014482212,0.015734348,0.009851888,-0.11170566,-0.009687413,-0.98102,0.014061747,0.059203163,-0.0077142697,5.8446125e-07,6.2045166e-07,8.518855e-07,6.864052e-05,9.413704e-05,0.00027175722,5.2372816e-05,6.8377376e-05,0.000106758474,2,3,1,16
569885042,569860257,-0.21470162,-0.11906199,-1.9011197,0.99969757,-0.01409847,0.017165791,0.01055573,-0.10421906,-0.0031626562,-0.98565674,0.09057735,0.068004705,0.09374831,6.077491e-07,6.384569e-07,8.850932e-07,7.114137e-05,9.768957e-05,0.00028186585,5.275288e-05,7.0437185e-05,0.000108013264,2,3,1,16
569914161,569891220,-0.21897772,-0.11998528,-1.9315066,0.9996785,-0.013156975,0.018432593,0.011405799,-0.10192727,0.0025602144,-0.9892512,0.06410372,-0.0014049055,0.102511324,6.3829236e-07,6.6734543e-07,9.2998505e-07,7.386314e-05,0.000101342055,0.00029223796,5.423527e-05,7.1984716e-05,0.0001093325,2,3,1,16
569954387,569931029,-0.22429356,-0.121241495,-1.9707717,0.9996899,-0.0121260155,0.017788008,0.012514751,-0.10370402,0.000718727,-0.99207777,-0.007929389,-0.051482357,0.027328404,6.4923614e-07,6.8463453e-07,9.4704905e-07,7.651234e-05,0.00010489431,0.0003028371,5.4562428e-05,7.220356e-05,0.00011061464,2,3,1,16
569985807,569960895,-0.22879213,-0.1214344,-1.999892,0.99970555,-0.013000833,0.015946602,0.012866193,-0.11094979,0.011323354,-0.99696785,-0.052841038,-0.1074553,0.01965965,6.289399e-07,6.6998257e-07,9.0847993e-07,7.928162e-05,0.00010854744,0.00031363967,5.5528428e-05,7.333285e-05,0.0001119484,2,3,1,16
570021800,570000764,-0.234326,-0.12135614,-2.0392308,0.9996761,-0.016227769,0.014337301,0.013370798,-0.11273061,0.027966471,-1.0069798,-0.246534,-0.062126376,0.06642038,6.0080623e-07,6.3715294e-07,8.4713037e-07,8.1927545e-05,0.00011213097,0.0003246962,5.5379696e-05,7.339511e-05,0.0001133252,2,3,1,16
570055866,570033554,-0.23763336,-0.12103781,-2.0719845,0.99962425,-0.018340195,0.015040289,0.013740101,-0.10920187,0.033267207,-1.0173709,-0.012588979,0.019602003,0.053727537,5.9446995e-07,6.2012805e-07,8.1925816e-07,8.464501e-05,0.000115904615,0.00033600896,5.6011537e-05,7.453252e-05,0.00011480116,2,3,1,13
570088811,570063284,-0.24139285,-0.12073877,-2.1019964,0.9995841,-0.018952368,0.01652285,0.014127476,-0.10319886,0.04308225,-1.0238719,0.009597676,0.143089,0.043189157,6.0959263e-07,6.257859e-07,8.3487794e-07,8.7472334e-05,0.00011981641,0.00034760567,5.6712066e-05,7.55063e-05,0.000116187715,2,3,1,13
570117667,570093075,-0.2449888,-0.12098639,-2.132552,0.9995817,-0.018024385,0.017577853,0.014234346,-0.10332144,0.037157103,-1.0320941,0.0623042,0.044359885,-0.06668428,6.285694e-07,6.4313235e-07,8.71359e-07,9.060416e-05,0.00012393178,0.00035946784,5.8506103e-05,7.702231e-05,0.00011749342,2,3,1,13
570154386,570132736,-0.2502628,-0.121004164,-2.1734786,0.99957186,-0.017675204,0.018591853,0.014073458,-0.09852782,0.043499965,-1.0403544,-0.120619245,0.08266866,0.037491113,6.3563766e-07,6.496118e-07,8.9541663e-07,9.3682385e-05,0.00012808919,0.00037157483,5.9169954e-05,7.782408e-05,0.00011885451,2,3,1,13
570199472,570175345,-0.25530297,-0.12075881,-2.217653,0.9995028,-0.019490702,0.020287713,0.014238928,-0.09835268,0.0485717,-1.0513166,-0.052301615,0.12305457,0.010570336,6.444447e-07,6.5027956e-07,9.041069e-07,9.69045e-05,0.00013259113,0.00038396526,6.051895e-05,8.0648184e-05,0.00012014589,2,3,1,13
570217809,570195092,-0.25633222,-0.12053308,-2.2380915,0.9994446,-0.021039663,0.021441763,0.014425399,-0.09527521,0.0547907,-1.0582662,-0.2293113,0.08043159,0.012085721,6.619894e-07,6.515128e-07,9.1316144e-07,0.00010007073,0.00013716145,0.00039664813,6.1140905e-05,8.254837e-05,0.00012154123,2,3,1,13
570252026,570234626,-0.2602757,-0.119396426,-2.279137,0.9993148,-0.024116512,0.023962494,0.014632876,-0.09098026,0.059748724,-1.0673559,-0.096560076,0.1610477,-0.020073034,6.8525594e-07,6.575092e-07,9.2738884e-07,0.0001030485,0.00014154332,0.00040948144,6.125675e-05,8.186668e-05,0.00012289819,2,3,1,16
570295814,570274166,-0.2641991,-0.11958145,-2.3211823,0.9992205,-0.02551681,0.026337199,0.0146172205,-0.09252898,0.05758841,-1.0823301,-0.039074074,0.035342887,-0.01599598,7.1375274e-07,6.709597e-07,9.577903e-07,0.00010610722,0.00014613762,0.00042271084,6.1483224e-05,8.226605e-05,0.00012442471,2,3,1,17
570312495,570293941,-0.2661164,-0.11960679,-2.3423522,0.99917257,-0.026151003,0.027351875,0.014904962,-0.09064121,0.059367385,-1.0828508,-0.058857407,0.0011473773,0.064677656,7.4372576e-07,6.8957917e-07,9.908497e-07,0.00010951674,0.00015117059,0.00043629156,6.375112e-05,8.559481e-05,0.00012586435,2,3,1,18
570351029,570333531,-0.27047703,-0.119673856,-2.3848746,0.99909794,-0.027282273,0.028413584,0.015864467,-0.09787123,0.059177827,-1.0895606,-0.069023445,0.02633512,-0.00025357417,7.693568e-07,7.077976e-07,1.010136e-06,0.00011269279,0.00015610918,0.00045011664,6.361497e-05,8.686867e-05,0.00012719311,2,3,1,18
570382822,570364308,-0.27355614,-0.12041698,-2.4184287,0.99903446,-0.028682366,0.028751234,0.016756328,-0.10045325,0.05581333,-1.0960369,-0.12276042,0.12061576,0.036934227,7.899046e-07,7.2369e-07,1.0154514e-06,0.00011618425,0.00016134063,0.00046432167,6.573966e-05,8.965638e-05,0.00012853487,2,3,1,19
570411196,570393964,-0.27691588,-0.12136141,-2.4509525,0.9989733,-0.030173287,0.028969137,0.017398516,-0.10789242,0.055235222,-1.1065615,0.016329993,-0.040140513,0.0819259,8.076022e-07,7.3830273e-07,1.015994e-06,0.000119472934,0.00016639824,0.000478812,6.6469904e-05,9.066653e-05,0.00013003961,2,3,1,20
570455788,570433550,-0.28195003,-0.12260344,-2.4947474,0.998989,-0.029685054,0.028434463,0.018199796,-0.11859282,0.042982943,-1.118235,0.08002591,-0.021952793,-0.015736893,8.104694e-07,7.450749e-07,1.0124036e-06,0.00012297484,0.00017174374,0.00049363566,6.809883e-05,9.269496e-05,0.00013163079,2,3,1,21
570490808,570473185,-0.28902823,-0.12398277,-2.5391803,0.9990994,-0.026413927,0.02699231,0.019342404,-0.13077065,0.033105146,-1.1364479,0.17485051,-0.08295013,0.124886505,8.0288856e-07,7.4807616e-07,1.0120531e-06,0.0001269302,0.00017736452,0.0005088348,7.068739e-05,9.5762945e-05,0.00013307265,2,3,1,21
570520820,570493002,-0.2927231,-0.12546529,-2.5617888,0.9991518,-0.024477215,0.026405836,0.019981321,-0.13785256,0.03013426,-1.1335473,0.29847968,-0.09329722,0.064766794,7.9938144e-07,7.600144e-07,1.0242168e-06,0.00013105995,0.00018288332,0.0005243643,7.2539835e-05,9.716374e-05,0.00013473458,2,3,1,19
570547815,570532711,-0.3010514,-0.12711579,-2.6070235,0.9992035,-0.021346563,0.02637231,0.021004986,-0.14974535,0.015379155,-1.1486665,0.09231703,0.016926764,0.04881639,8.1087904e-07,7.820385e-07,1.0567712e-06,0.00013534138,0.00018842175,0.0005402043,7.399193e-05,9.7830314e-05,0.0001363647,2,3,1,19
570580590,570562455,-0.30701986,-0.12806709,-2.6413288,0.999184,-0.020955661,0.026859008,0.021697382,-0.15673377,0.021632988,-1.1573309,0.035304364,0.035129867,0.037819494,8.291046e-07,8.018953e-07,1.0803974e-06,0.00013986921,0.00019436494,0.00055634713,7.607061e-05,0.00010031134,0.00013790131,2,3,1,19
570625809,570602199,-0.31565547,-0.12898643,-2.6874893,0.9991931,-0.020509837,0.026168723,0.022535173,-0.17066823,0.02404436,-1.1697203,0.040720277,-0.17492957,0.024991877,8.432343e-07,8.1787164e-07,1.0866703e-06,0.0001446154,0.00020055212,0.00057286816,7.8756086e-05,0.00010345467,0.00013936406,2,3,1,19
570650805,570632001,-0.32226616,-0.13014011,-2.722421,0.999234,-0.01996004,0.024678908,0.02289074,-0.17900504,0.019748107,-1.1795361,0.008709985,-0.10391016,0.0023397156,8.331088e-07,8.172069e-07,1.0679984e-06,0.0001493968,0.0002066338,0.00058965274,8.066421e-05,0.00010536343,0.0001409596,2,3,1,20
570681815,570661804,-0.32863933,-0.13136148,-2.7576284,0.9992728,-0.019044181,0.023513023,0.023200607,-0.19051231,0.020588497,-1.185641,0.108909644,-0.0056097573,-0.0014956075,8.2133994e-07,8.161673e-07,1.0546615e-06,0.00015463638,0.00021328959,0.0006068623,8.460658e-05,0.00010955305,0.00014256411,2,3,1,19
570711822,570691618,-0.33503386,-0.13251394,-2.793207,0.99929035,-0.017483378,0.0242469,0.022919312,-0.1965089,0.021234725,-1.1884817,0.15423751,0.03711025,-0.021838512,8.240483e-07,8.249771e-07,1.0910932e-06,0.00015967048,0.00021950767,0.0006242154,8.5551e-05,0.00011053394,0.000143914,2,3,1,20
570752133,570736203,-0.34492666,-0.13418788,-2.8465114,0.99927706,-0.0153626865,0.026448347,0.022579761,-0.19808787,0.023594594,-1.199542,0.14477631,0.0076750843,0.00034017555,8.3873636e-07,8.416716e-07,1.1476841e-06,0.00016487853,0.00022590366,0.00064194424,8.6985674e-05,0.000111631656,0.0001454699,2,3,1,20
570788347,570765755,-0.35225824,-0.13516177,-2.8817294,0.9993039,-0.014884252,0.025817096,0.022442695,-0.20973016,0.017893745,-1.206376,-0.08750837,-0.08788939,-0.059115194,8.3993325e-07,8.473359e-07,1.1621964e-06,0.00017061931,0.00023304507,0.0006601447,9.103474e-05,0.000116027,0.00014690739,2,3,1,20
570812443,570795323,-0.35935745,-0.13508625,-2.9173846,0.9993243,-0.016538974,0.023988517,0.022403514,-0.2168476,0.028484754,-1.2101449,-0.2315041,-0.041166548,0.02417618,8.073103e-07,8.209708e-07,1.1064307e-06,0.00017627185,0.00023992035,0.00067861227,9.356167e-05,0.00011811131,0.00014847885,2,3,1,20
570853473,570824934,-0.36539415,-0.13515988,-2.9542372,0.9993197,-0.01866481,0.022797098,0.022184294,-0.22259314,0.039466456,-1.2242969,-0.10779481,-0.01089431,-0.014463296,7.751294e-07,7.910575e-07,1.0474741e-06,0.00018195483,0.00024662772,0.0006973241,9.537715e-05,0.00011892411,0.00015026142,2,3,1,21
570888810,570864424,-0.37481448,-0.13544275,-3.0031908,0.9992648,-0.021121487,0.02351113,0.021704456,-0.22951859,0.04226293,-1.2414861,-0.04712862,0.016189063,-0.0262386,7.6112264e-07,7.733806e-07,1.0299281e-06,0.00018775935,0.00025360507,0.00071641814,9.688892e-05,0.00012036776,0.00015193748,2,3,1,21
570917271,570894097,-0.381388,-0.13583557,-3.0408926,0.9992172,-0.022585,0.02411426,0.021756925,-0.22645961,0.05066545,-1.2484157,-0.13382937,0.08439886,0.03503855,7.600583e-07,7.6734534e-07,1.0280318e-06,0.00019380581,0.00026137658,0.0007358778,9.872497e-05,0.00012414754,0.00015348413,2,3,1,18
570950140,570933632,-0.392111,-0.13617867,-3.0906022,0.9992252,-0.023171641,0.022999061,0.021979267,-0.23804079,0.054089155,-1.2619565,-0.077853024,-0.11833126,0.005176936,7.571014e-07,7.645661e-07,1.015076e-06,0.00020033926,0.0002697424,0.00075575645,0.00010254806,0.00013006624,0.00015492455,2,3,1,18
570982959,570963333,-0.3998092,-0.13650414,-3.128518,0.9992505,-0.023732666,0.02111842,0.022118792,-0.24733034,0.04783775,-1.2757466,0.0005939311,-0.099130325,0.0026855627,7.390657e-07,7.523511e-07,9.765131e-07,0.00020708151,0.0002782459,0.0007760755,0.00010653488,0.0001352656,0.00015650944,2,3,1,16
571012821,570993108,-0.40667358,-0.13573381,-3.167574,0.9992623,-0.024414739,0.019442115,0.022379316,-0.25063536,0.054868378,-1.2879647,-0.08823479,-0.04692172,0.030113092,7.130563e-07,7.365853e-07,9.4013615e-07,0.00021301604,0.00028497656,0.00079660193,0.00010658989,0.000132827,0.00015836004,2,3,1,19
571050198,571032731,-0.4165338,-0.13552237,-3.2191272,0.99928474,-0.023636132,0.018960588,0.022625204,-0.25826874,0.052831933,-1.2963636,-0.015643723,0.0018722985,0.039812148,7.0392036e-07,7.366569e-07,9.381257e-07,0.00021968855,0.0002922534,0.0008177021,0.00010917775,0.00013257266,0.00016029461,2,3,1,16
571081803,571062510,-0.42338485,-0.1352304,-3.2586508,0.99930274,-0.022531787,0.019180736,0.022769777,-0.25526783,0.046656836,-1.3026656,0.017811952,0.07346096,0.001895656,7.018977e-07,7.388357e-07,9.581487e-07,0.00022589404,0.00029945598,0.0008388507,0.000108474414,0.00013155515,0.00016176864,2,3,1,22
571114225,571092255,-0.43217015,-0.13563262,-3.297872,0.9992875,-0.022163821,0.019579705,0.023450412,-0.26029262,0.045212008,-1.318427,-0.039557487,0.06810552,0.07585388,7.151526e-07,7.532907e-07,9.785877e-07,0.0002329335,0.00030782167,0.00086049014,0.00011067558,0.00013417419,0.00016332399,2,3,1,21
571152046,571132002,-0.4445585,-0.136523,-3.3502018,0.99918747,-0.024456616,0.020792687,0.02437092,-0.26832214,0.052531723,-1.3221116,-0.279133,0.1547537,0.060127467,7.3856876e-07,7.715046e-07,9.845409e-07,0.00024109695,0.00031771488,0.00088276644,0.000116581694,0.00014159326,0.00016480588,2,3,1,10
571181812,571161787,-0.4514365,-0.1352209,-3.3904762,0.99909586,-0.027010102,0.021397615,0.024901701,-0.26594928,0.05381164,-1.3187573,-0.16460925,-0.020216916,-0.0081316605,7.466919e-07,7.7742396e-07,9.805512e-07,0.00024743227,0.0003245282,0.000905065,0.00011538482,0.0001366188,0.0001662055,2,3,1,22
