timestamp,gyro_rad[0],gyro_rad[1],gyro_rad[2],gyro_integral_dt,accelerometer_timestamp_relative,accelerometer_m_s2[0],accelerometer_m_s2[1],accelerometer_m_s2[2],accelerometer_integral_dt,accelerometer_clipping,gyro_clipping,accel_calibration_count,gyro_calibration_count
564942637,-0.005607835,-0.00039318943,-0.00023565591,5014,0,-0.7378776,0.22790785,-9.809661,5014,0,0,1,1
564947643,-0.0067950278,-0.0013884153,0.00010763094,5006,0,-0.7481811,0.24175844,-9.8584,5006,0,0,1,1
564952652,-0.005097554,-0.0015063285,-0.0004371639,5009,0,-0.75724316,0.22476389,-9.875263,5009,0,0,1,1
564957662,-0.0047191433,0.0023566277,-0.0019977754,5010,0,-0.7351806,0.28599268,-9.882219,5010,0,0,1,1
564962672,-0.01024111,-0.0061370283,-0.011958104,5010,0,-0.66984516,0.24482839,-9.928368,5010,0,0,1,1
564967681,-0.007678173,-0.0005933805,-0.005391678,5009,0,-0.8451322,0.07530668,-9.859489,5009,0,0,1,1
564972691,-0.006285685,0.0019024896,0.0033171766,5010,0,-0.7781343,0.21474355,-9.866325,5010,0,0,1,1
564977700,0.003560442,-0.0016853623,0.018547844,5009,0,-0.5990899,0.20521896,-9.806145,5009,0,0,1,1
564982710,0.001780661,0.00222308,0.032825314,5010,0,-0.75971514,0.20941503,-9.777609,5010,0,0,1,1
564987720,0.0024822685,-0.007190867,0.042164717,5010,0,-0.6032393,0.023469815,-9.892514,5010,0,0,1,1
564992730,0.008462382,-0.0005305384,0.015932366,5010,0,-0.89388883,0.6582991,-9.79812,5010,0,0,1,1
564997739,-0.012898569,0.0073158257,-0.012834357,5009,0,-1.1754675,0.30733842,-10.08377,5009,0,0,1,1
565002749,-0.015686948,-0.0073818234,-0.037694372,5010,0,-0.629462,0.24637473,-9.6869,5010,0,0,1,1
565007758,-0.024649117,0.016245086,-0.05406462,5009,0,-0.6746263,0.24619952,-9.956561,5009,0,0,1,1
565012770,-0.013508896,-0.011151353,-0.048072144,5012,0,-0.5511076,0.11262993,-10.128734,5012,0,0,1,1
565017777,0.0033040678,-0.008241172,-0.019407412,5007,0,-0.84164065,0.12401744,-9.514247,5007,0,0,1,1
565022788,-0.02528258,0.018531831,0.003220804,5011,0,-0.97778934,0.32205784,-9.725927,5011,0,0,1,1
565027797,0.007295082,-0.013929003,0.026858011,5009,0,-0.28737906,-0.05814521,-10.216032,5009,0,0,1,1
565032807,0.016900696,-0.003862693,0.03864232,5010,0,-0.6997004,0.13200617,-9.805072,5010,0,0,1,1
565037816,-0.0041298005,0.01122898,0.03787204,5009,0,-1.1255944,0.36367577,-9.74779,5009,0,0,1,1
565042827,0.0020442007,-0.012820163,0.019173969,5011,0,-0.634027,0.21237648,-9.922925,5011,0,0,1,1
565047835,-0.007910364,-0.00061015453,0.005637359,5008,0,-0.7652038,0.36182055,-9.713032,5008,0,0,1,1
565052847,0.00017079023,0.008671378,-0.019224305,5012,0,-0.8428734,0.15224081,-10.045815,5012,0,0,1,1
565057854,-0.012475812,0.0065789134,-0.02669364,5007,0,-0.8354167,0.45388004,-10.006546,5007,0,0,1,1
565062864,-0.026412763,-0.00071540737,-0.029936424,5010,0,-0.7061087,0.32161433,-9.697344,5010,0,0,1,1
565067874,-0.0057890387,0.009713271,-0.02123694,5010,0,-0.7412521,-0.15333705,-9.750171,5010,0,0,1,1
565072883,-0.0043079555,-0.00069222436,-0.0070349495,5009,0,-0.67081934,0.24550445,-10.051539,5009,0,0,1,1
565077893,-0.003165567,-0.0017652625,0.007397171,5010,0,-0.59828925,0.25605586,-9.932241,5010,0,0,1,1
565082905,0.003120826,-0.0030075903,0.027354894,5012,0,-0.7293209,0.21355009,-9.761159,5012,0,0,1,1
565087913,0.001792861,-0.0009966103,0.030436635,5008,0,-0.7497557,0.03259466,-9.566811,5008,0,0,1,1
565092922,0.003574161,-0.007286121,0.021654272,5009,0,-0.8802505,0.27175826,-9.836995,5009,0,0,1,1
565097932,0.0028203172,0.0006702301,0.010556077,5010,0,-0.680954,0.52810854,-10.097154,5010,0,0,1,1
565102941,-0.0056663244,-0.00555764,-0.010099943,5009,0,-0.78089833,0.096091345,-10.050959,5009,0,0,1,1
565107951,-0.015850946,-0.0075320723,-0.016900714,5010,0,-0.713492,0.3947796,-9.857911,5010,0,0,1,1
565112967,-0.01133196,0.0008086318,-0.02276238,5016,0,-0.683714,0.008253479,-9.844774,5016,0,0,1,1
565117970,-0.011032349,-0.006661544,-0.024036972,5003,0,-0.8296356,0.19969532,-9.86816,5003,0,0,1,1
565122980,-0.004462268,-0.006474964,-0.0077257827,5010,0,-0.79426175,0.28793374,-9.784558,5010,0,0,1,1
565127991,-0.012473594,-0.004872806,0.0012718549,5011,0,-0.5847101,-0.0013898434,-9.894876,5011,0,0,1,1
565132999,0.0043659178,0.0016362732,0.013794778,5008,0,-0.78275645,0.3027311,-9.885662,5008,0,0,1,1
565138009,0.0020367603,-0.008614277,0.018612,5010,0,-0.65025496,0.1604554,-9.9317,5010,0,0,1,1
565143019,-0.004633978,-0.0069485703,0.014084358,5010,0,-0.80891716,0.41209835,-9.711677,5010,0,0,1,1
565148032,-0.0004020427,0.0041778195,0.011918777,5013,0,-0.8899941,0.09502629,-9.851693,5013,0,0,1,1
565153037,-0.0099280365,-0.003956491,-0.00020390733,5005,0,-0.6960257,0.33462366,-9.898553,5005,0,0,1,1
565158048,-0.008426121,0.004535695,-0.010751999,5011,0,-0.70879203,0.3668219,-9.732124,5011,0,0,1,1
565163057,-0.013251216,0.0027683445,-0.013300794,5009,0,-0.80134445,-0.017944647,-9.9919815,5009,0,0,1,1
565168066,-0.004998187,0.0038860443,-0.013421039,5009,0,-0.908243,0.3494313,-9.837169,5009,0,0,1,1
565173076,-0.0007670053,0.005933885,-0.009836844,5010,0,-0.65049016,0.013884358,-9.919141,5010,0,0,1,1
565178086,-0.0034182882,-0.0066314205,0.002668554,5010,0,-0.560687,0.42350653,-9.910636,5010,0,0,1,1
565183095,0.0027858585,0.010138331,0.0057982523,5009,0,-0.8514287,0.21297784,-9.710219,5009,0,0,1,1
565188105,-0.002436609,-0.0046196543,0.007640364,5010,0,-0.8091728,0.20816982,-9.902069,5010,0,0,1,1
565193114,0.004781744,-0.002646642,0.010354143,5009,0,-0.70983744,0.09795494,-9.768193,5009,0,0,1,1
565198124,-0.011415698,0.0021057308,0.0053835753,5010,0,-0.69762564,0.28829876,-9.904053,5010,0,0,1,1
565203134,-0.0068421583,0.0020954444,-0.002338249,5010,0,-0.839987,0.31174523,-10.023921,5010,0,0,1,1
565208143,-0.005857644,0.0025005774,-0.0056027872,5009,0,-0.6293472,0.055731967,-9.930298,5009,0,0,1,1
565213153,-0.013038366,-0.0075308885,-0.007656161,5010,0,-0.67961,0.31706792,-9.880013,5010,0,0,1,1
565218163,-0.004160884,-0.00731043,-0.008666065,5010,0,-0.7988003,0.18395068,-9.914064,5010,0,0,1,1
565223172,-0.008399529,-0.004225488,-0.0027347456,5009,0,-0.92759234,0.333185,-9.702051,5009,0,0,1,1
565228182,-0.007032571,-0.004230676,0.002605119,5010,0,-0.6767155,0.27001938,-9.960475,5010,0,0,1,1
565233192,-0.0086219935,0.00015270934,0.004963911,5010,0,-0.56376606,0.09340866,-9.636236,5010,0,0,1,1
565238201,0.006624006,0.0057238243,0.005690514,5009,0,-0.86322147,0.18360205,-9.887443,5009,0,0,1,1
565243211,-0.003765717,-0.0063630803,0.008235212,5010,0,-0.7093582,0.39607447,-9.908903,5010,0,0,1,1
565248222,-0.0050722007,-0.0004546873,0.002242958,5011,0,-0.8216398,0.18208325,-9.6505375,5011,0,0,1,1
565253230,0.00019647749,-0.0030943933,-0.004652529,5008,0,-0.81475663,0.17481463,-10.105092,5008,0,0,1,1
565258240,-0.0054436275,0.0049352553,-0.005077084,5010,0,-0.7473562,0.23195146,-9.753139,5010,0,0,1,1
565263250,-0.009036501,-0.004713426,-0.0059759356,5010,0,-0.61017317,0.14105843,-9.983312,5010,0,0,1,1
565268259,-0.007940553,0.0017933127,-0.0077385805,5009,0,-0.74238276,0.36491808,-9.74318,5009,0,0,1,1
565273269,-0.0071848617,-0.0004804094,-0.0041978373,5010,0,-0.8292707,0.1217624,-9.9594,5010,0,0,1,1
565278278,-0.009253958,0.00031152178,0.003122768,5009,0,-0.6424009,0.2043889,-9.876974,5009,0,0,1,1
565283288,-0.0011855047,0.0018376823,0.007793577,5010,0,-0.81770176,0.23691599,-9.910202,5010,0,0,1,1
565288297,-0.004885864,-0.010031338,0.0074759102,5009,0,-0.7877232,0.35196635,-10.007592,5009,0,0,1,1
565293307,-0.0008113329,0.006772052,0.0076399376,5010,0,-0.73041856,0.077002876,-9.614689,5010,0,0,1,1
565298317,-0.0070055895,-0.0101408055,0.003791776,5010,0,-0.7350797,0.3639383,-10.073492,5010,0,0,1,1
565303326,-0.00451764,-0.0017582645,0.00038061425,5009,0,-0.8200387,0.12949853,-9.707648,5009,0,0,1,1
565308336,-0.003939789,-0.0038008434,-0.008111115,5010,0,-0.7171008,0.32625148,-10.005765,5010,0,0,1,1
565313346,-0.004498352,0.0046645827,-0.01225906,5010,0,-0.8256882,0.19352931,-9.873699,5010,0,0,1,1
565318362,-0.0027614431,-0.0004417174,-0.011090625,5016,0,-0.6667029,0.116453595,-10.098445,5016,0,0,1,1
565323365,-0.004220393,-0.001196439,-0.0057814647,5003,0,-0.7269912,0.26552108,-9.789802,5003,0,0,1,1
565328374,-0.0070965793,-0.0026138457,-0.0019148275,5009,0,-0.67940325,0.24258903,-10.023142,5009,0,0,1,1
565333384,-0.0062949792,-0.0048600943,0.0036685613,5010,0,-0.7580558,0.17271087,-9.847301,5010,0,0,1,1
565338394,-0.011001958,-0.0011903648,0.009694185,5010,0,-0.64943373,0.15749592,-9.80884,5010,0,0,1,1
565343403,-0.005489058,-0.00317081,0.01013302,5009,0,-0.8441035,0.2644477,-9.868067,5009,0,0,1,1
565348413,-0.0032134484,0.008704831,0.007961709,5010,0,-0.8208494,0.21288645,-9.857556,5010,0,0,1,1
565353423,-0.005048269,-0.0021028602,0.0056190365,5010,0,-0.77646595,0.22497292,-10.07596,5010,0,0,1,1
565358432,-0.003587291,0.002369497,-0.0022608126,5009,0,-0.6440286,0.31800246,-9.900134,5009,0,0,1,1
565363442,-0.006633908,-0.0021300584,-0.0014441253,5010,0,-0.75130266,0.36320466,-10.029832,5010,0,0,1,1
565368452,-0.0072423853,-0.0077610402,-0.0066803303,5010,0,-0.67662734,0.120884076,-9.910319,5010,0,0,1,1
565373461,-0.002803985,-0.0011220059,-0.008416683,5009,0,-0.7320338,0.28733775,-9.754476,5009,0,0,1,1
565378481,-0.0057699615,-0.010700267,-0.007801071,5020,0,-0.74855095,0.08049712,-9.9878845,5020,0,0,1,1
565383480,-0.0027601863,0.0021545815,-0.0058707697,4999,0,-1.0262457,0.24767284,-9.781565,4999,0,0,1,1
565388490,-0.00025031072,0.0064128092,0.0024677361,5010,0,-0.56712586,0.03445655,-9.993181,5010,0,0,1,1
565393500,-0.006698732,-0.013875841,-0.00031006476,5010,0,-0.6033814,0.5280746,-10.07613,5010,0,0,1,1
565398509,-0.001720721,0.0038404048,0.004043137,5009,0,-0.84989804,0.055366673,-9.748446,5009,0,0,1,1
565403519,-0.013149118,-0.0041089663,0.0036843377,5010,0,-0.77266866,0.31134588,-10.0009575,5010,0,0,1,1
565408529,-0.008863888,-0.005529372,0.0050543873,5010,0,-0.6945899,0.09452205,-9.908803,5010,0,0,1,1
565413538,-0.0046722223,0.0005996381,0.0033623762,5009,0,-0.8981073,0.30637652,-9.824239,5009,0,0,1,1
565418548,-0.010143263,0.0054645706,0.002051868,5010,0,-0.72860277,0.20571254,-9.929485,5010,0,0,1,1
565423557,-0.0049538426,-0.0009874509,-0.0014030894,5009,0,-0.8229498,0.31143856,-9.995978,5009,0,0,1,1
565428567,0.0054735965,0.0027107247,-0.0019663027,5010,0,-0.6732326,0.0900583,-10.06214,5010,0,0,1,1
565433577,-0.006821377,-0.0016752825,-0.0015259793,5010,0,-0.6455033,0.3542557,-10.026361,5010,0,0,1,1
565438586,-0.0057973866,-0.0040319795,-0.005512611,5009,0,-0.7354612,0.25743216,-9.964417,5009,0,0,1,1
565443596,-0.0016278606,0.0028502333,-0.0039445,5010,0,-0.8985756,0.12321795,-9.811135,5010,0,0,1,1
565448606,-0.0061886115,-0.0007363875,-0.0025241398,5010,0,-0.6464178,0.10765975,-9.946172,5010,0,0,1,1
565453616,-0.011174748,-0.005907888,-0.0034027095,5010,0,-0.69873923,0.42690387,-9.905817,5010,0,0,1,1
565458625,0.0010182149,-0.0010961093,0.0015907658,5009,0,-0.6816094,0.1492097,-9.775618,5009,0,0,1,1
565463638,-0.0109079145,-0.01271938,0.002900593,5013,0,-0.6988778,0.18569218,-10.137022,5013,0,0,1,1
565468644,-0.0062985504,-0.00187465,0.0014633909,5006,0,-0.7732075,0.20541023,-9.9937935,5006,0,0,1,1
565473654,-0.0030841208,-0.0022059854,0.0028145749,5010,0,-0.7901819,0.2660935,-9.860293,5010,0,0,1,1
565478663,-0.0070434087,0.0020563207,0.004108469,5009,0,-0.7439288,0.2432624,-9.783156,5009,0,0,1,1
565483673,-0.003688665,-0.006244523,0.0037310051,5010,0,-0.7672085,0.13793944,-9.910239,5010,0,0,1,1
565488682,-0.0023975272,0.002622457,0.0028464755,5009,0,-0.847341,0.42328167,-9.800016,5009,0,0,1,1
565493692,0.0003752599,-0.0021139572,-0.0031354479,5010,0,-0.50513494,0.14585574,-10.07431,5010,0,0,1,1
565498702,3.2853648e-05,-0.010242411,-0.007270741,5010,0,-0.78461903,0.18631601,-10.191712,5010,0,0,1,1
565503712,-0.0045999684,0.004994403,-0.00661936,5010,0,-0.8626117,0.22787768,-9.96994,5010,0,0,1,1
565508721,-0.008153888,0.0019193103,-0.0062009203,5009,0,-0.66362375,0.24728468,-9.841097,5009,0,0,1,1
565513735,-0.009287587,-0.00091089937,-0.0010380738,5014,0,-0.9217872,0.039245285,-9.967686,5014,0,0,1,1
565518740,-0.0076932544,0.0031603114,-0.004400815,5005,0,-0.8356113,0.45184082,-9.849563,5005,0,0,1,1
565523750,-0.010035479,0.0012017208,0.0011338487,5010,0,-0.3998143,0.04342618,-9.854819,5010,0,0,1,1
565528762,-0.005835945,-0.01698627,0.0052275113,5012,0,-0.7652317,0.5790397,-10.127093,5012,0,0,1,1
565533769,-0.008734178,0.011272741,0.00908863,5007,0,-1.0926738,-0.027287813,-9.991592,5007,0,0,1,1
565538779,-0.005807876,0.0019346869,0.009807677,5010,0,-0.6145284,0.28494477,-9.996798,5010,0,0,1,1
565543788,0.0011060612,-0.003726086,0.0072687715,5009,0,-0.71165526,0.22933248,-9.734342,5009,0,0,1,1
565548798,-0.0070937118,0.0028711553,0.0023557632,5010,0,-0.9071823,0.025037037,-9.998831,5010,0,0,1,1
565553808,-0.00044286702,0.0010860193,-0.0025322821,5010,0,-0.5536512,0.4518723,-9.701354,5010,0,0,1,1
565558818,-0.002843833,-0.008777962,-0.007267377,5010,0,-0.541824,0.1543176,-9.909396,5010,0,0,1,1
565563835,-0.0033905464,-0.0060733953,-0.0063938885,5017,0,-0.9689151,0.3344762,-10.111538,5017,0,0,1,1
565568837,-0.0064303754,-0.0036201423,-0.009100159,5002,0,-0.79095167,0.15026362,-10.110277,5002,0,0,1,1
565573846,-0.0067848368,-0.003122391,-0.0061318474,5009,0,-0.51074237,0.17972429,-9.812075,5009,0,0,1,1
565578856,-0.010450865,-0.0063120234,-0.0028717765,5010,0,-0.8691287,0.18248166,-9.928735,5010,0,0,1,1
565583869,-0.0050288443,-0.0037956391,0.00080458727,5013,0,-0.82865286,0.23965192,-9.933288,5013,0,0,1,1
565588884,-0.014545102,-0.01183021,0.0067743496,5015,0,-0.5661079,0.440587,-9.927824,5015,0,0,1,1
565593885,-0.00487429,-0.008711753,0.009314405,5001,0,-0.907987,0.013463826,-10.026869,5001,0,0,1,1
565598896,-0.010948088,0.002548848,0.006675135,5011,0,-1.0025375,0.34438422,-10.022518,5011,0,0,1,1
565603904,-0.0008164144,0.004062723,0.0034048648,5008,0,-0.59739345,0.11756092,-10.113602,5008,0,0,1,1
565608914,-0.0031226932,-0.0011512975,0.0030324573,5010,0,-0.7992696,0.36701423,-9.930425,5010,0,0,1,1
565613924,0.003260794,0.011237345,-0.00312938,5010,0,-0.80266845,0.08292482,-9.93509,5010,0,0,1,1
565618933,0.0016207402,-0.002182776,-0.0023333838,5009,0,-0.56731635,0.23142895,-9.84045,5009,0,0,1,1
565623947,-0.0031127364,-0.0010427843,-0.0058406773,5014,0,-0.84304017,0.36974785,-9.886768,5014,0,0,1,1
565628952,-0.0022950245,0.003030283,-0.004387834,5005,0,-0.8117187,-0.036773197,-9.956877,5005,0,0,1,1
565633963,-0.0088262595,0.004465158,-0.0056816265,5011,0,-0.61232334,0.3607019,-10.113276,5011,0,0,1,1
565638971,-0.012976787,-0.0024041967,-0.004605452,5008,0,-0.81938475,0.31972104,-9.903315,5008,0,0,1,1
565643981,-0.00041306467,0.00419609,0.002301665,5010,0,-0.7185943,0.16366552,-9.780256,5010,0,0,1,1
565648993,-0.005938613,-0.0024198047,0.006830638,5012,0,-0.55635303,0.04474485,-9.831428,5012,0,0,1,1
565654000,-0.012165195,-0.017243668,0.00071393914,5007,0,-0.7492709,0.37386107,-10.051407,5007,0,0,1,1
565659010,-0.004751013,-0.00032842124,0.0032265394,5010,0,-0.8396112,0.20076501,-9.853688,5010,0,0,1,1
565664019,-0.0015780501,-0.00307606,0.0030555495,5009,0,-0.60868245,0.34236443,-10.153166,5009,0,0,1,1
565669029,-0.013840832,0.0040588197,0.005009635,5010,0,-0.9493499,0.18427226,-9.984979,5010,0,0,1,1
565674038,-0.0035754484,-0.00045695776,-0.0027683636,5009,0,-0.7008854,0.21909532,-9.969712,5009,0,0,1,1
565679049,0.01007157,-0.00355304,-0.0025963606,5011,0,-0.647897,0.084365375,-9.822895,5011,0,0,1,1
565684057,-0.004442086,-0.004401701,-0.0071408176,5008,0,-0.8498052,0.24193342,-10.11283,5008,0,0,1,1
565689067,-0.00020317142,0.0025889259,-0.0027166263,5010,0,-0.74457747,0.16264325,-9.986339,5010,0,0,1,1
565694077,-0.006412468,-0.009649591,-0.004241546,5010,0,-0.7848249,0.4142778,-10.114974,5010,0,0,1,1
565699086,-0.009267053,-0.0008030519,0.0012642504,5009,0,-0.65370226,0.06459899,-9.8366375,5009,0,0,1,1
565704096,-0.015271049,0.0029100892,0.0011097997,5010,0,-0.83811957,0.27239192,-10.023178,5010,0,0,1,1
565709106,-0.0059108036,-0.008919665,0.0027763643,5010,0,-0.5496547,0.25568798,-10.02638,5010,0,0,1,1
565714115,-0.015470607,-0.0065770117,0.0026919106,5009,0,-0.82865703,0.51856935,-9.930242,5009,0,0,1,1
565719126,-0.00072040973,0.0075446414,0.0035408295,5011,0,-0.9794057,-0.031479277,-9.90099,5011,0,0,1,1
565724134,-0.0034119557,-0.006559472,0.0007274048,5008,0,-0.6184614,0.26764017,-10.021182,5008,0,0,1,1
565729152,-0.0109498985,-0.007993619,0.0024296134,5018,0,-0.50780386,0.29039967,-10.182742,5018,0,0,1,1
565734154,0.0037335288,0.0090606185,-0.0015231307,5002,0,-1.0148246,0.15219024,-9.836827,5002,0,0,1,1
565739163,0.000648978,-0.0025192348,-0.0046912446,5009,0,-0.6952962,0.039415248,-10.034579,5009,0,0,1,1
565744173,0.0019749943,-0.0010734284,-0.0036335073,5010,0,-0.6697271,0.37608567,-9.95645,5010,0,0,1,1
565749182,0.0007348591,0.007552805,-0.0022260507,5009,0,-1.0798619,0.30308282,-9.948826,5009,0,0,1,1
565754194,0.0014234185,0.005991382,-0.0038843753,5012,0,-0.61873776,0.10207714,-10.116881,5012,0,0,1,1
565759202,-0.011149087,-0.006420169,-0.0037031714,5008,0,-0.41960886,0.14142953,-10.041986,5008,0,0,1,1
565764211,-0.01710196,-0.004982825,-0.0013337247,5009,0,-0.89303195,0.5017264,-10.105259,5009,0,0,1,1
565769221,-0.0084431665,-0.0027570145,0.0014468117,5010,0,-0.84575224,0.046588216,-9.8769,5010,0,0,1,1
565774230,-0.016000835,0.006514741,0.004049975,5009,0,-0.7203356,0.31108505,-9.799066,5009,0,0,1,1
565779242,-0.006551098,-0.0015138097,0.006934945,5012,0,-0.72828174,0.23620172,-10.027818,5012,0,0,1,1
565784250,-0.002760027,-0.004974872,0.0029926924,5008,0,-0.701196,0.21521738,-10.038225,5008,0,0,1,1
565789259,-0.0038482063,-0.0018987213,-0.0017651195,5009,0,-0.6437984,0.08555271,-9.894949,5009,0,0,1,1
565794269,-0.005870905,-0.0033926712,-0.0027973892,5010,0,-0.8280126,0.45188534,-10.050598,5010,0,0,1,1
565804289,0.0024909575,-0.008585221,-0.0016933302,5011,0,-0.711056,0.17136778,-9.883705,5011,0,0,1,1
565809298,0.0013886932,0.007918112,-0.0011129905,5009,0,-1.0105752,0.40692198,-9.685918,5009,0,0,1,1
565814307,0.0013087366,-0.0022385563,-0.0022870556,5009,0,-0.593242,-0.113945335,-10.221503,5009,0,0,1,1
565819325,0.0005569379,-0.003501291,-0.004250691,5018,0,-0.6114987,0.45104343,-10.055839,5018,0,0,1,1
565824326,-0.009896153,0.0015372344,0.002695679,5001,0,-0.94165355,0.13903105,-9.897561,5001,0,0,1,1
565829337,-0.013460099,-0.0033848202,-0.003412107,5011,0,-0.81932986,0.30561268,-10.00237,5011,0,0,1,1
565834347,-0.006777373,-0.00683396,0.0057958625,5010,0,-0.58356446,0.0993567,-9.982822,5010,0,0,1,1
565839358,-0.016425487,0.0011012374,0.0015250329,5011,0,-0.98323065,0.3827612,-9.883798,5011,0,0,1,1
565844365,-0.008101232,-0.0014103304,0.002748944,5007,0,-0.7370286,0.30012697,-9.866,5007,0,0,1,1
565849374,-0.0062937774,0.0011408249,0.0009886895,5009,0,-0.52154905,0.1338706,-10.129756,5009,0,0,1,1
565854384,-0.0067299027,-0.0038611405,0.00049225095,5010,0,-0.7677408,0.35164553,-10.115878,5010,0,0,1,1
565859394,0.0039103413,0.0053963442,-0.0029369025,5010,0,-0.8839683,-0.0045248778,-9.8983345,5010,0,0,1,1
565864403,-0.0019041209,-0.0035437264,-0.00045728276,5009,0,-0.57868165,0.31175968,-9.925356,5009,0,0,1,1
565869413,0.0037309467,-0.00071729225,-0.0036360342,5010,0,-0.8958708,0.09875959,-10.023707,5010,0,0,1,1
565874423,-0.0026844777,0.00501555,-0.002222218,5010,0,-0.8099293,0.18260366,-9.963315,5010,0,0,1,1
565879434,0.0014582026,0.005440954,0.0024668584,5011,0,-0.3432889,0.21646205,-9.894554,5011,0,0,1,1
565884442,-0.009250576,-0.009050694,0.0024607969,5008,0,-0.86282146,0.23725224,-9.907379,5008,0,0,1,1
565889451,-0.008485944,0.003977243,0.0016853614,5009,0,-0.94877875,0.24787268,-10.060139,5009,0,0,1,1
565894461,-0.009062018,0.0001056808,0.0047674677,5010,0,-0.66854835,0.19497405,-9.793386,5010,0,0,1,1
565899471,-0.011508478,-0.0057254215,-4.00554e-05,5010,0,-0.64736944,0.32851285,-10.019594,5010,0,0,1,1
565904480,-0.011434498,-0.00449427,0.0014899508,5009,0,-0.8705116,0.26625633,-9.969518,5009,0,0,1,1
565909490,-0.0077618384,-0.0022031236,0.00045876164,5010,0,-0.4702261,0.021315435,-10.048168,5010,0,0,1,1
565914499,-0.009922778,-0.0168719,-0.0009375125,5009,0,-0.9041387,0.2990141,-9.844058,5009,0,0,1,1
565919509,0.0072878147,0.007973904,-0.008738042,5010,0,-0.8969155,0.16918278,-10.039684,5010,0,0,1,1
565924518,-0.0040671593,-0.0032845617,-0.0009160369,5009,0,-0.7666474,0.35232633,-9.99889,5009,0,0,1,1
565929528,-0.005770394,-0.009064278,-0.0057693194,5010,0,-0.60998017,0.30673006,-9.7846155,5010,0,0,1,1
565934538,0.005465665,-0.001111069,0.00092416845,5010,0,-0.86307585,-0.074458435,-9.791025,5010,0,0,1,1
565939547,4.605651e-05,-0.00083939097,-0.0026794823,5009,0,-0.6110548,0.32401708,-10.097457,5009,0,0,1,1
565944557,-0.013042213,-0.009307302,0.0050768172,5010,0,-0.6868892,0.21052691,-9.942797,5010,0,0,1,1
565949566,-0.002844074,0.0026802004,-0.0001354804,5009,0,-0.9175833,0.22621864,-9.909549,5009,0,0,1,1
565954576,-0.0010452546,0.017761268,0.0060706777,5010,0,-0.9353021,0.2141595,-9.75222,5010,0,0,1,1
565959586,-0.022868931,-0.011315238,0.005024433,5010,0,-0.5136586,0.54708046,-10.046086,5010,0,0,1,1
565964595,-0.0061972914,0.009173686,0.0015904703,5009,0,-0.71510977,-0.0560387,-9.834533,5009,0,0,1,1
565969605,-0.0016536678,-0.0056064334,0.00011578612,5010,0,-0.89641887,0.2020312,-10.099155,5010,0,0,1,1
565974614,-0.011774094,-0.006492872,-0.0046849237,5009,0,-0.60315084,0.38631895,-9.912546,5009,0,0,1,1
565979625,0.0032253694,0.0039231507,-0.009590599,5011,0,-0.8485139,0.22995226,-10.205022,5011,0,0,1,1
565984636,0.008199483,0.0042021456,-0.00157278,5011,0,-0.9267488,0.01658501,-9.739574,5011,0,0,1,1
565989643,-0.008656023,0.00027787228,-0.004408313,5007,0,-0.7113323,0.42664126,-9.7974205,5007,0,0,1,1
565994653,-0.0008818495,-0.0060570533,-0.0003055229,5010,0,-0.59509754,0.1941044,-10.084862,5010,0,0,1,1
565999662,-0.0014878534,-0.0073290556,-0.0036814662,5009,0,-0.6978718,0.18733926,-10.04412,5009,0,0,1,1
566004672,-0.0073501156,-0.013798481,0.0012552586,5010,0,-0.6551576,0.1168573,-10.018699,5010,0,0,1,1
566009682,-0.0077248826,0.005507373,-0.0002541024,5010,0,-1.0298833,0.28712806,-9.902783,5010,0,0,1,1
566014691,-0.004104858,-0.003177749,0.0075785066,5009,0,-0.88678885,0.084384754,-9.925469,5009,0,0,1,1
566019701,-0.011086876,0.0027971205,0.008077002,5010,0,-0.60580903,0.31484675,-9.657314,5010,0,0,1,1
566024711,-0.008514171,0.00078232767,0.0068867616,5010,0,-0.67355245,0.14639792,-9.8251,5010,0,0,1,1
566029720,-0.015208388,-0.004470034,-0.0016672795,5009,0,-0.61355096,0.47522923,-10.170095,5009,0,0,1,1
566034730,-0.0037992902,-0.012469237,-0.0028014912,5010,0,-0.65446585,0.13785914,-10.116819,5010,0,0,1,1
566039739,-0.0017715521,-0.0036492264,-0.008106548,5009,0,-1.0170506,0.3242624,-9.91443,5009,0,0,1,1
566044749,0.0050196727,0.009937992,-0.003385686,5010,0,-0.9701101,-0.10858806,-9.891193,5010,0,0,1,1
566049760,-0.00383745,-0.009824793,-0.0032831666,5011,0,-0.39385113,0.4465928,-10.169905,5011,0,0,1,1
566054768,-0.0015353801,0.006511702,-0.0022856274,5008,0,-0.7283546,0.035305686,-9.6998825,5008,0,0,1,1
566059778,-0.0024638379,-0.009998116,-0.0033986908,5010,0,-0.7859906,0.31542718,-9.903369,5010,0,0,1,1
566064788,-0.0098697925,-0.006424116,-0.0014485851,5010,0,-0.5269216,0.3294945,-9.894393,5010,0,0,1,1
566069803,-0.005455196,0.0009851797,0.0024946202,5015,0,-0.9821533,0.13071692,-10.166471,5015,0,0,1,1
566074807,-0.00642573,0.004511838,0.0020663221,5004,0,-1.1857574,0.16388725,-9.886264,5004,0,0,1,1
566079816,-0.012052934,0.00993179,0.010380369,5009,0,-0.3825694,0.2920826,-9.977523,5009,0,0,1,1
566084836,0.0020747832,0.001318776,0.0039435965,5020,0,-0.71054006,0.25220576,-10.023039,5020,0,0,1,1
566089835,-0.01501003,-0.0073047797,0.0019938794,4999,0,-0.708701,0.25153482,-9.986001,4999,0,0,1,1
566094845,-0.0035240673,-0.0006735697,-0.0019734025,5010,0,-0.5823347,0.16926916,-9.927049,5010,0,0,1,1
566099855,-0.008985216,-0.0040140566,-0.00093264994,5010,0,-0.9474874,0.29942384,-10.027887,5010,0,0,1,1
566104864,0.003557096,0.0062183524,-0.007575494,5009,0,-1.0634571,-0.087858476,-10.0208845,5009,0,0,1,1
566109875,-0.001908345,0.004341811,-0.006143789,5011,0,-0.41640812,0.5825558,-10.02951,5011,0,0,1,1
566114883,0.0017555082,0.0010212009,-0.0064078113,5008,0,-0.66657436,0.187223,-9.868528,5008,0,0,1,1
566119893,0.0025486595,-0.013691293,-0.0020075475,5010,0,-0.6882113,0.10864494,-10.05438,5010,0,0,1,1
566124902,-0.010812891,-0.0051690377,0.0010979582,5009,0,-0.5449548,0.2737088,-9.956193,5009,0,0,1,1
566129912,-0.016683703,-0.013383523,0.0057400065,5010,0,-0.75431335,0.30784976,-9.76977,5010,0,0,1,1
566134922,-0.0039649424,0.0055512004,0.0032676307,5010,0,-1.2659013,0.037114788,-9.929701,5010,0,0,1,1
566139931,-0.005574007,0.004706169,0.01106923,5009,0,-0.6073247,0.26882538,-10.2488985,5009,0,0,1,1
566144944,-0.008347365,0.0037161382,0.004110407,5013,0,-0.5408175,0.4120494,-9.945988,5013,0,0,1,1
566149951,-0.005958417,-0.0009850552,0.0026819843,5007,0,-0.9117334,0.043048292,-9.8383,5007,0,0,1,1
566154960,-0.006783199,-0.0012081852,-0.0017710243,5009,0,-0.51957864,0.27264175,-10.12381,5009,0,0,1,1
566159970,-0.004689957,-0.011972654,-0.004356088,5010,0,-0.68250376,0.29551578,-9.986574,5010,0,0,1,1
566164984,-0.00056725694,0.0018807951,-0.010011383,5014,0,-1.1250445,0.18444611,-9.794728,5014,0,0,1,1
566169989,-0.00010723311,0.0065734657,-0.0047300025,5005,0,-0.9998551,0.29199156,-9.847108,5005,0,0,1,1
566174998,0.008814114,0.007917268,-0.0023310068,5009,0,-0.38584873,-0.018222367,-10.012377,5009,0,0,1,1
566180008,-0.008587647,-0.013449443,-0.00298838,5010,0,-0.73321104,0.2692641,-9.986968,5010,0,0,1,1
566185020,-0.004315593,-0.0031934895,0.0016012155,5012,0,-0.58342594,0.3036581,-9.942134,5012,0,0,1,1
566190027,-0.0051604384,-0.014043022,0.0024104505,5007,0,-0.83174986,0.17646675,-9.836941,5007,0,0,1,1
566195037,-0.011955687,-0.007969571,0.0005835954,5010,0,-0.9504923,0.30385613,-9.891271,5010,0,0,1,1
566200047,-0.009700541,0.006559584,0.005229915,5010,0,-0.88754773,-0.042181864,-9.877658,5010,0,0,1,1
566205056,-0.0065689064,0.0031318008,0.0063235625,5009,0,-0.59576887,0.51513666,-9.93865,5009,0,0,1,1
566210066,-0.005629554,0.0020317568,0.0053241663,5010,0,-0.62606263,0.09905084,-9.918993,5010,0,0,1,1
566215075,-0.013669675,-0.00068202795,0.0024612476,5009,0,-0.6130323,0.2808576,-10.086521,5009,0,0,1,1
566220085,0.00459375,-0.0042557945,-0.0063948473,5010,0,-0.87215143,0.25364688,-9.803216,5010,0,0,1,1
566225094,-0.0027537371,-0.0042294795,-0.0068788156,5009,0,-0.9367647,0.1594015,-9.91606,5009,0,0,1,1
566230104,-0.0041025793,0.01143433,-0.0032530033,5010,0,-0.867107,0.24127696,-9.870939,5010,0,0,1,1
566235114,-0.0005660915,-0.0065284083,-0.002471032,5010,0,-0.56171113,0.11856519,-10.022783,5010,0,0,1,1
566240123,-0.0023272708,0.00034742287,-0.0038860193,5009,0,-0.55253667,0.40962788,-9.854527,5009,0,0,1,1
566245133,0.0017929265,0.009169436,0.0020466957,5010,0,-0.6350397,0.077391155,-9.87566,5010,0,0,1,1
566250143,-0.004219299,-0.024189916,-0.0008809979,5010,0,-0.7327294,0.30373412,-9.983017,5010,0,0,1,1
566255152,-0.0032464792,-0.00084262196,-0.00042950554,5009,0,-0.98977417,0.12499755,-9.627673,5009,0,0,1,1
566260162,-0.01198207,0.0012633441,0.0057193465,5010,0,-0.88528967,0.21794419,-9.752329,5010,0,0,1,1
566265173,-0.013547426,-0.0029620938,0.007123875,5011,0,-0.529135,0.2723249,-9.892234,5011,0,0,1,1
566270181,-0.01053606,0.0006593394,0.003514903,5008,0,-0.65378886,0.06441514,-9.991065,5008,0,0,1,1
566275191,-0.008213526,0.003471345,0.00018180412,5010,0,-0.6978992,0.4300322,-9.736436,5010,0,0,1,1
566280200,-0.013137325,-0.0029153738,-0.0021686403,5009,0,-0.7676083,0.17137194,-9.98901,5009,0,0,1,1
566285210,0.0045735696,-0.0024275947,-0.007287294,5010,0,-0.7928551,0.12971786,-9.940905,5010,0,0,1,1
566290219,0.0039966176,0.00380714,-0.0019106952,5009,0,-0.9519455,0.19778074,-9.665032,5009,0,0,1,1
566295229,-0.0020362332,0.0033547585,-0.005834781,5010,0,-0.6254514,0.4555633,-9.814746,5010,0,0,1,1
566300238,-0.00093079807,-0.0026577725,-0.0036267694,5009,0,-0.6771741,0.060107477,-9.998295,5009,0,0,1,1
566305248,0.005075537,0.0019395461,0.0011058411,5010,0,-0.7514572,0.1792651,-9.970959,5010,0,0,1,1
566310258,-0.018478109,-0.007702312,0.0010764669,5010,0,-0.5497387,0.3388188,-9.916427,5010,0,0,1,1
566315268,-0.0043799677,-0.0025367471,0.001469807,5010,0,-0.839545,0.097848184,-9.799271,5010,0,0,1,1
566320277,-0.0030432367,-0.0026739086,0.005726775,5009,0,-1.008895,0.3514878,-9.771834,5009,0,0,1,1
566325287,-0.015848635,-0.007859419,0.0047806078,5010,0,-0.72277254,0.3072761,-9.924126,5010,0,0,1,1
566330296,-0.001960214,-0.0024979888,0.0014293699,5009,0,-0.6027432,0.09907453,-9.800303,5009,0,0,1,1
566335306,-0.012875112,0.0024202825,0.0010627403,5010,0,-0.90119475,0.29706642,-9.956318,5010,0,0,1,1
566340315,-0.008316279,-0.0053030197,0.0014307862,5009,0,-0.5823892,0.089127555,-9.8681755,5009,0,0,1,1
566345325,-0.007353374,-0.0017134318,-0.0054588392,5010,0,-0.7706438,0.31798875,-9.7176895,5010,0,0,1,1
566350334,0.006323661,0.007447312,-0.005047864,5009,0,-0.949476,0.23616391,-9.835683,5009,0,0,1,1
566355344,-0.0010913056,-0.003935267,-0.0029602442,5010,0,-0.7249591,0.2809683,-9.905971,5010,0,0,1,1
566360354,0.00018560738,-0.0054921345,-0.009494416,5010,0,-0.5431586,0.19491988,-9.838338,5010,0,0,1,1
566365364,-0.0062944065,-0.0034620413,-0.0029949574,5010,0,-0.69939685,0.071897924,-9.876356,5010,0,0,1,1
566370373,-0.008239139,-0.002932895,-0.0007055345,5009,0,-0.8973072,0.4662798,-9.921099,5009,0,0,1,1
566375382,0.005436134,0.006442416,0.0008137897,5009,0,-0.57576835,0.15207747,-9.918406,5009,0,0,1,1
566380392,-0.012124396,8.100426e-06,0.00812422,5010,0,-0.95924896,0.19284673,-9.779411,5010,0,0,1,1
566385402,-0.0007162294,0.002082936,0.0063412413,5010,0,-0.77690595,0.24109666,-9.738406,5010,0,0,1,1
566390411,-0.0055947914,0.0019297765,0.003633109,5009,0,-0.722453,0.06474273,-9.832883,5009,0,0,1,1
566395421,-0.016800027,-0.011015189,0.0016560638,5010,0,-0.5356646,0.3690978,-10.099582,5010,0,0,1,1
566400431,-0.006494524,0.003925233,0.0020699687,5010,0,-0.861915,0.23638985,-9.916045,5010,0,0,1,1
566405442,-0.009485872,0.000903532,-0.002648201,5011,0,-1.0409081,0.22696503,-9.777783,5011,0,0,1,1
566410450,0.0043465933,0.0065695643,-0.003755939,5008,0,-0.7591772,0.14763278,-9.608891,5008,0,0,1,1
566415459,-0.011766448,-0.004162749,-0.002965687,5009,0,-0.5310219,0.32602087,-9.985964,5009,0,0,1,1
566420469,0.009069477,0.002766239,-0.0040988037,5010,0,-0.7431361,0.16951792,-9.612751,5010,0,0,1,1
566425479,-0.0019318793,-0.0074344,-0.006348026,5010,0,-0.60115874,0.18117812,-9.973637,5010,0,0,1,1
566430488,-0.009165465,-0.0032749628,0.001985428,5009,0,-0.6924172,0.5166474,-9.699323,5009,0,0,1,1
566435498,-0.0051272297,-0.0031520904,0.00084865734,5010,0,-0.966478,-0.004261645,-9.899013,5010,0,0,1,1
566440508,0.0023158563,-0.0010511786,0.0007363947,5010,0,-0.9646362,0.23288427,-9.867748,5010,0,0,1,1
566445517,-0.0098128645,0.0056513394,0.00576592,5009,0,-0.40060824,0.2441245,-9.734867,5009,0,0,1,1
566450527,-0.0079343105,-0.008553409,0.003653366,5010,0,-0.6258532,0.31320676,-9.974325,5010,0,0,1,1
566455537,-0.0017053861,-0.008800988,2.1421734e-05,5010,0,-0.81484824,0.31083697,-9.771323,5010,0,0,1,1
566460546,-0.013765917,-0.002626406,0.0007552731,5009,0,-0.53360784,-0.07332726,-10.004784,5009,0,0,1,1
566465556,-0.008611869,-0.00029333387,-0.0031719762,5010,0,-0.994605,0.31049523,-9.895555,5010,0,0,1,1
566470565,-0.0030606498,0.0039618732,-0.006605431,5009,0,-1.1256036,0.17887858,-9.842675,5009,0,0,1,1
566475575,-0.0010635909,0.006697455,-0.0005865495,5010,0,-0.61665285,0.4057744,-9.752361,5010,0,0,1,1
566480584,-0.0052171783,0.0033077179,-0.00620882,5009,0,-0.49822453,0.13289608,-9.783497,5009,0,4,1,1
566485594,-0.005811697,-0.000539198,0.0009119405,5010,0,-0.7997008,0.2181767,-9.911143,5010,0,0,1,1
566490604,-0.000840393,-0.00972396,0.00082168315,5010,0,-0.6563475,0.18389794,-9.965973,5010,0,0,1,1
566495613,-0.010801306,-0.0030684879,0.0028129725,5009,0,-0.8146847,0.38590696,-9.645452,5009,0,0,1,1
566500623,0.0003511811,0.0139351655,0.0041516325,5010,0,-1.0856814,0.009587617,-9.820368,5010,0,0,1,1
566505634,-0.0024483497,0.0053861304,0.006945597,5011,0,-0.6791338,0.47750786,-9.893714,5011,0,0,1,1
566510642,-0.0050753015,-0.009492891,0.0032635867,5008,0,-0.36743447,0.24426462,-9.955822,5008,0,4,1,1
566515657,-0.0014456981,-0.002409458,0.001947548,5015,0,-0.7529835,-0.0272898,-9.74649,5015,0,0,1,1
566520678,-0.0072046746,-0.0069561,-0.0029214888,5021,0,-0.803984,0.47190505,-9.977891,5021,0,0,1,1
566525671,-0.007054053,-0.009493529,-0.004725944,4993,0,-0.4609153,0.08450712,-9.829406,4993,0,0,1,1
566530683,-0.002995821,0.0020530347,-0.007930233,5012,0,-1.1076504,0.2415626,-9.929028,5012,0,0,1,1
566535690,-0.002352874,0.0026581401,0.0004005502,5007,0,-0.93056875,0.26230478,-9.744182,5007,0,0,1,1
566540700,-0.007821449,0.0014071093,-0.0051561887,5010,0,-0.51744574,0.22416233,-9.914751,5010,0,0,1,1
566545714,-0.004385134,-0.013490092,-0.0018142596,5014,0,-0.7412411,0.28866756,-10.105388,5014,0,0,1,1
566550719,-0.006909155,0.002477998,-0.0003480103,5005,0,-0.70877355,0.052595697,-9.729816,5005,0,0,1,1
566555729,-0.013279625,-0.012791798,0.001918016,5010,0,-0.6915272,0.3737294,-9.929349,5010,0,0,1,1
566560739,-0.005812987,0.0057566417,0.0024719378,5010,0,-0.9589651,0.18017548,-9.778042,5010,0,0,1,1
566565748,-0.006355431,0.006052713,0.010256119,5009,0,-0.95557606,0.15960974,-10.046934,5009,0,0,1,1
566570757,0.0008374218,0.0021613047,0.0060339053,5009,0,-0.47314262,0.34141123,-9.69084,5009,0,0,1,1
566575773,-0.0010722755,0.00092096266,0.0013926951,5016,0,-0.6772335,-0.011020563,-10.04311,5016,0,0,1,1
566580784,-0.001471074,-0.004435967,-0.002787831,5011,0,-0.7252443,0.3403393,-9.98877,5011,0,0,1,1
566585786,-0.009448636,-0.0031675226,-0.0026756907,5002,0,-0.5579649,0.2970982,-9.761775,5002,0,0,1,1
566590796,0.003965838,-0.0039009238,-0.0048442106,5010,0,-1.0018301,0.07648611,-9.972108,5010,0,0,1,1
566595806,-0.0032191249,-0.0029754671,0.00017282768,5010,0,-0.8347011,0.13121447,-9.902767,5010,0,0,1,1
566600815,-0.0063202204,0.0049745855,-0.0024701848,5009,0,-0.49278027,0.26481876,-9.937222,5009,0,0,1,1
566605828,-0.0008886784,0.00066745875,-0.00792504,5013,0,-0.7701361,0.26468596,-9.777894,5013,0,0,1,1
566610834,-0.0070138588,0.0012531957,-0.003678889,5006,0,-0.89860785,0.3181089,-10.099301,5006,0,236,1,1
566615846,-0.015486023,-0.011256238,-0.0041170307,5012,0,-0.46674868,0.22476377,-10.165832,5012,0,0,1,1
566620854,-0.01325569,0.0061556925,0.003485617,5008,0,-0.96166533,0.35032448,-9.715306,5008,0,0,1,1
566625863,-0.0071275006,-0.006277255,0.0071063167,5009,0,-1.0630797,0.18073037,-9.935691,5009,0,0,1,1
566630873,-0.00553068,0.0065835915,0.0042321854,5010,0,-0.5401365,0.33611774,-9.754867,5010,0,0,1,1
566635883,-0.004841923,0.0009056107,0.002787008,5010,0,-0.6929831,0.03857461,-10.077073,5010,0,0,1,1
566640892,0.0009555181,0.0009811921,0.0004745086,5009,0,-0.92504734,0.3849219,-9.880435,5009,0,0,1,1
566645902,-0.00010880401,-0.006195185,-0.0058808387,5010,0,-0.44758466,0.12929073,-10.195973,5010,0,0,1,1
566650911,-0.0036759323,0.0029145905,-0.0010193252,5009,0,-0.8110143,0.28600693,-9.798145,5009,0,0,1,1
566655922,-0.0003879465,-0.0040391367,0.001126947,5011,0,-0.95156527,0.15564358,-9.7755375,5011,0,0,1,1
566660931,-0.0039752247,-0.009659656,-0.0030583453,5009,0,-0.5029521,0.31483057,-9.893143,5009,0,0,1,1
566665940,-0.0055089993,0.0051109423,-0.0028187106,5009,0,-0.76716894,0.15118839,-9.858889,5009,0,0,1,1
566670950,-0.0051081316,-0.0009799667,0.0025218423,5010,0,-0.76417965,0.11432512,-10.103841,5010,0,0,1,1
566675959,-0.015042698,-0.0041580424,-0.00085088593,5009,0,-0.7517363,0.33091795,-9.809901,5009,0,0,1,1
566680969,-0.0065870006,-0.00037890542,0.0027697065,5010,0,-0.80011123,0.34103787,-9.998612,5010,0,0,1,1
566685979,-0.010541192,0.0025288851,-0.00013671609,5010,0,-0.9173704,0.12841491,-10.036539,5010,0,0,1,1
566690988,-0.006636249,-0.010431671,0.004573916,5009,0,-0.5007757,0.29230857,-10.066931,5009,0,4,1,1
566695998,-0.00085340155,-0.0018420089,-0.00011784102,5010,0,-0.88172275,0.13902737,-9.841082,5010,0,0,1,1
566701008,-0.0072939782,0.009150419,0.0007844975,5010,0,-0.8999558,0.33095112,-9.922759,5010,0,0,1,1
566706017,0.005893494,-0.0041871117,-0.0024948232,5009,0,-0.5313185,0.08695116,-10.004378,5009,0,0,1,1
566711033,-0.006178904,-0.0027189013,-0.0049642455,5016,0,-0.6498156,0.35400242,-9.981867,5016,0,0,1,1
566716037,0.0072299754,0.007226976,-0.0050935587,5004,0,-1.0671748,0.19441381,-9.92209,5004,0,0,1,1
566721046,-0.0015823375,-0.010422527,-0.0023454442,5009,0,-0.5629376,0.19275996,-9.910092,5009,0,0,1,1
566726056,-0.0035439217,-0.0018877046,-0.00040250615,5010,0,-0.6179635,0.11094286,-9.840637,5010,0,0,1,1
566731066,-0.009500948,-0.008009682,0.0012497186,5010,0,-0.94231236,0.22113332,-10.160597,5010,0,195,1,1
566736075,-0.005671453,0.0032181258,0.0032705371,5009,0,-0.6467474,0.2801223,-9.74104,5009,0,0,1,1
566741091,-0.01434043,0.0005641647,0.0032980796,5016,0,-0.6042157,0.29240254,-10.051124,5016,0,84,1,1
566746094,-0.012736375,-0.0009481453,0.0018857534,5003,0,-0.97190654,0.18416318,-10.019126,5003,0,47,1,1
566751104,-0.010036821,0.003449804,0.0052060448,5010,0,-0.66534454,0.1920619,-9.763256,5010,0,0,1,1
566756114,-0.0068012653,0.0011203462,-3.997591e-05,5010,0,-0.79965943,0.32163984,-9.939269,5010,0,0,1,1
566761123,-0.004365497,-0.00073090394,-0.00019716767,5009,0,-0.8164922,0.29342854,-10.125069,5009,0,0,1,1
566766132,-0.0024508256,-0.0020211986,-0.005815633,5009,0,-0.7660563,0.15520208,-10.023655,5009,0,0,1,1
566771143,0.0051753833,0.007747918,-0.0040715253,5011,0,-0.6949219,0.20169081,-9.912308,5011,0,0,1,1
566776152,0.0024603356,0.0046828208,-0.0029025679,5009,0,-0.7500159,0.20554669,-10.072813,5009,0,0,1,1
566781161,-0.0026300696,-0.002368912,-0.0018315288,5009,0,-0.6368442,0.37373883,-9.839925,5009,0,0,1,1
566786173,0.0005752366,-0.010139346,0.00017731087,5012,0,-0.7259307,0.13507546,-10.046028,5012,0,0,1,1
566791181,-0.0031174766,0.0025926253,-0.00061144534,5008,0,-0.88920546,0.14571267,-9.784219,5008,0,0,1,1
566796190,-0.0037604168,-0.008316264,0.0022122795,5009,0,-0.62376887,0.12427302,-9.940455,5009,0,0,1,1
566801200,-0.015787937,-0.0033717626,0.0043831253,5010,0,-0.7558994,0.2727933,-9.892344,5010,0,0,1,1
566806209,-0.012567603,0.007800549,-0.0015140116,5009,0,-0.9152279,0.34781647,-9.921088,5009,0,0,1,1
566811219,-0.011786713,-0.0022915732,0.0052096094,5010,0,-0.583624,0.20586905,-9.816683,5010,0,0,1,1
566816228,-0.014895737,-0.007558667,0.0025040691,5009,0,-0.5761269,0.40134558,-10.077908,5009,0,0,1,1
566821238,-0.010813637,0.0051868805,-0.000908745,5010,0,-0.9465386,-0.021132551,-9.961972,5010,0,0,1,1
566826248,0.00073168933,-0.013589137,-0.007922794,5010,0,-0.71723557,0.2477888,-9.991676,5010,0,0,1,1
566831257,0.0043003373,0.0019038282,-0.0023843837,5009,0,-0.5832311,0.2208397,-9.985318,5009,0,0,1,1
566836267,0.002936102,0.0051961523,-0.005553739,5010,0,-1.0383741,0.30062088,-10.295446,5010,0,0,1,1
566841277,0.0019189336,-0.00019079502,0.0021269976,5010,0,-0.7280129,0.3233017,-9.963066,5010,0,0,1,1
566846286,0.0032968442,0.0005895505,0.0006865113,5009,0,-0.47732338,-0.013879772,-9.976841,5009,0,0,1,1
566851296,-0.0020386246,0.0005465485,0.0030014205,5010,0,-0.92057455,0.20459653,-9.885551,5010,0,0,1,1
566856306,-0.0054754615,-0.00714879,-0.0033314903,5010,0,-0.7704139,0.35076812,-10.198548,5010,0,0,1,1
566861317,-0.0131444065,-0.0031883742,0.0048272107,5011,0,-0.6518898,0.25988802,-9.922633,5011,0,0,1,1
566866325,-0.004346491,0.007912972,0.0057430165,5008,0,-1.051597,0.099829994,-9.982097,5008,0,0,1,1
566871338,-0.013611951,-0.0023274524,0.0073622265,5013,0,-0.6942814,0.39309585,-10.059178,5013,0,0,1,1
566876345,-0.020934505,-0.002422304,0.0020420256,5007,0,-0.40183988,0.33537424,-9.978434,5007,0,0,1,1
566881354,-0.009767294,0.0010741022,7.547548e-05,5009,0,-0.83297664,-0.06210715,-9.8256235,5009,0,0,1,1
566886363,-0.005663761,-0.004389347,-0.008254916,5009,0,-1.0078452,0.40489814,-9.962772,5009,0,0,1,1
566891373,-0.000941458,0.0028100947,-0.0039860955,5010,0,-0.47962257,0.26824075,-10.075849,5010,0,0,1,1
566896382,0.0041175853,-0.0033661148,-0.009018578,5009,0,-0.9284916,0.059300043,-10.201487,5009,0,0,1,1
566901392,0.0048872638,0.0015792267,-0.001137739,5010,0,-0.8285233,0.2689403,-9.9073715,5010,0,0,1,1
566906402,0.0041027595,0.00144863,-0.0012311981,5010,0,-0.49296588,0.086251125,-10.089475,5010,0,0,1,1
566911413,-0.012882574,-0.013356448,-5.4651486e-05,5011,0,-0.7117788,0.564363,-10.0371475,5011,0,0,1,1
566916421,0.0034058618,-4.3376105e-05,0.00191016,5008,0,-0.8515603,-0.0057594604,-9.772621,5008,0,0,1,1
566921430,-0.010327766,-0.00862479,0.0063928436,5009,0,-0.67011,0.2530325,-10.057131,5009,0,0,1,1
566926440,-0.00918762,0.0046437182,0.00473508,5010,0,-0.9676943,0.16626993,-10.006829,5010,0,0,1,1
566931450,-0.010612185,-0.00359427,0.006333692,5010,0,-0.7781197,0.10973478,-10.235152,5010,0,0,1,1
566936459,-0.0075628697,0.0022557252,0.0022287557,5009,0,-0.4621409,0.28667754,-9.890317,5009,0,0,1,1
566941469,-0.017683582,0.0024679333,0.0015280172,5010,0,-0.899898,0.27793834,-9.956092,5010,0,0,1,1
566946478,-0.011102274,-0.006653895,-0.0034733454,5009,0,-0.84709686,0.28756014,-10.171786,5009,0,0,1,1
566951488,-0.0042527495,-0.0035653599,-0.005731579,5010,0,-0.55565745,0.088296995,-9.712272,5010,0,0,1,1
566956497,0.0024191102,-0.0029627972,-0.008066988,5009,0,-0.7610172,0.31470153,-9.956958,5009,0,0,1,1
566961507,0.005817857,0.002649369,-0.006747978,5010,0,-0.943428,0.13106227,-10.012128,5010,0,0,1,1
566966517,-0.00071869715,-0.0025016898,-0.0006889236,5010,0,-0.1551296,0.37411836,-10.183493,5010,0,0,1,1
566971526,0.0010688695,-0.007244446,-0.003574698,5009,0,-1.0622597,-0.009450902,-9.835794,5009,0,0,1,1
566976539,-0.00012611132,0.012413347,0.0034673004,5013,0,-1.3460062,0.36933732,-9.92922,5013,0,0,1,1
566981545,-0.0055674473,0.0028041927,0.0017803139,5006,0,-0.14238498,0.0904873,-9.936257,5006,0,0,1,1
566986556,-0.008023866,-0.012884526,0.0060427934,5011,0,-0.21216895,0.37364733,-10.200465,5011,0,0,1,1
566991565,-0.0014950464,0.031965613,-0.0040897047,5009,0,-1.672613,0.10121843,-10.010964,5009,0,0,1,1
566996574,-0.016535651,0.03850749,0.015346045,5009,0,-1.461958,0.38177228,-10.00518,5009,0,0,1,1
567001584,-0.010666282,0.024296554,-0.003740731,5010,0,-0.10707079,0.14477262,-10.027219,5010,0,0,1,1
567006593,-0.0066159936,0.03729847,0.008662716,5009,0,-0.44448382,0.6061625,-9.743709,5009,0,0,1,1
567011603,-0.0004088818,0.06719917,-0.01861513,5010,0,-1.6876134,-0.43384418,-9.93661,5010,0,0,1,1
567016613,0.014718495,0.04499326,0.0062367623,5010,0,-0.9128072,0.5577788,-10.605871,5010,0,0,1,1
567021622,-0.0025500196,0.08016544,-0.0002855268,5009,0,-0.47167006,-0.19421785,-9.3035,5009,0,0,1,1
567026637,0.012106655,0.0925561,-0.021786887,5015,0,-1.6155552,0.84017926,-9.6694,5015,0,0,1,1
567031641,0.039502684,0.062721305,0.02621698,5004,0,-0.55277216,0.13509624,-10.210024,5004,0,0,1,1
567036651,-0.004132993,0.062075216,-0.008383004,5010,0,0.1429414,0.53458154,-10.2000065,5010,0,0,1,1
567041661,0.045378655,0.08798711,0.02994546,5010,0,-0.8508418,0.29202566,-10.551428,5010,0,0,1,1
567046670,0.0067250845,0.056911867,-0.021457031,5009,0,-1.4716756,0.30365527,-9.917716,5009,0,0,1,1
567051680,0.02240537,0.0687003,-0.0044758692,5010,0,-0.11974962,-0.8142243,-9.337799,5010,0,0,1,1
567056689,-0.020695021,0.06004291,-0.011649256,5009,0,-0.33387393,0.37449816,-10.293084,5009,0,0,1,1
567061699,0.012507912,0.05343542,0.02312977,5010,0,-0.81381327,0.7194393,-9.672229,5010,0,0,1,1
567066709,-0.026527436,0.0775736,-0.008738294,5010,0,-0.60991365,-0.62445664,-10.114457,5010,0,0,1,1
567071718,0.024799163,0.055721555,-0.0036629117,5009,0,-0.8092232,0.7411082,-9.886066,5009,0,0,1,1
567076729,-0.040309615,-0.0022422515,-0.026853437,5011,0,-0.2090189,-0.017696006,-10.932545,5011,0,0,1,1
567081737,0.0014336836,0.06797478,-0.0028522352,5008,0,-1.2895385,0.5965156,-8.835855,5008,0,0,1,1
567086747,-0.023644086,0.056972202,-0.0046727145,5010,0,-1.1792803,0.5303555,-9.837885,5010,0,0,1,1
567091757,0.009055807,0.06411474,0.0065983045,5010,0,0.21504578,-0.8388307,-11.016572,5010,0,0,1,1
567096767,0.036601152,0.05130418,-0.011084864,5010,0,-1.0349473,0.811266,-9.65243,5010,0,0,1,1
567101776,-0.042005558,0.022547383,0.0046636933,5009,0,0.65925723,0.03297936,-10.642616,5009,0,0,1,1
567106786,0.022250047,0.094908856,0.010463494,5010,0,-1.8316238,1.2498192,-9.517725,5010,0,0,1,1
567111795,-0.017247122,0.032800924,-0.0074524656,5009,0,-1.2222322,-0.76564527,-10.736862,5009,0,0,1,1
567116805,0.076161444,0.032209396,0.012579491,5010,0,-0.30277413,0.6174289,-8.170188,5010,0,0,1,1
567121815,-0.043037847,0.09342827,-0.01622514,5010,0,-1.5334265,0.17855023,-9.247927,5010,0,0,1,1
567126824,0.061674636,0.08426681,0.026711438,5009,0,-0.77632993,0.28822514,-11.556955,5009,0,0,1,1
567131835,0.01763627,0.032990877,0.001212776,5011,0,0.5235442,0.15307541,-11.358547,5011,0,0,1,1
567136843,-0.010708685,0.03072541,-0.00041626513,5008,0,0.24693286,-0.12889393,-9.212792,5008,0,0,1,1
567141852,0.052330546,0.22837836,-0.0033774157,5009,0,-1.9122667,0.10324661,-9.538761,5009,0,0,1,1
567146862,-0.034643225,-0.013479388,-0.0074688448,5010,0,-1.5578264,0.96448433,-11.193911,5010,0,0,1,1
567151872,0.06570718,0.015899364,0.012621666,5010,0,0.934451,0.039597623,-9.628135,5010,0,0,1,1
567156881,-0.076136015,0.18736991,-0.044953056,5009,0,-1.9476734,0.5019801,-9.255812,5009,0,0,1,1
567161891,0.05491268,0.15271576,0.007894806,5010,0,-1.9284418,-0.82823557,-11.368152,5010,0,0,1,1
567166901,0.008750698,-0.062677085,-0.022355434,5010,0,0.92268896,0.78354967,-10.51247,5010,0,0,1,1
567171913,-0.10064047,0.15647134,0.0003807734,5012,0,0.003529484,-0.84614974,-8.849525,5012,0,0,1,1
567176920,0.056240764,0.26252192,-0.0533821,5007,0,-3.1359804,1.780227,-10.718977,5007,0,0,1,1
567181929,-0.0036845696,-0.06555959,0.017549256,5009,0,0.30581856,-1.1884409,-11.58659,5009,0,0,1,1
567186939,0.032971606,0.101976626,-0.008619136,5010,0,1.1605191,-0.6441165,-9.092527,5010,0,0,1,1
567191949,-0.10374852,0.2131129,-0.048014797,5010,0,-2.0505164,2.4430795,-9.759405,5010,0,0,1,1
567196958,0.0725554,0.05899154,0.0196605,5009,0,-0.48669448,-2.338611,-11.172586,5009,0,0,1,1
567201967,-0.08308598,0.036936022,-0.04001358,5009,0,-0.7086771,0.6126231,-8.91774,5009,0,0,1,1
567206977,-0.028708339,0.13662665,-0.010999734,5010,0,0.07373876,2.7243402,-11.770162,5010,0,0,1,1
567211987,0.096493796,0.16917546,-0.008131422,5010,0,-0.39399505,-2.564975,-10.052858,5010,0,0,1,1
567216996,-0.09125011,0.09285674,0.00482493,5009,0,-0.7876079,0.9967393,-9.889116,5009,0,0,1,1
567222006,0.06139579,0.030926492,-0.026735798,5010,0,-0.17641605,2.3360171,-12.108674,5010,0,0,1,1
567227030,0.075118914,0.11580976,-0.01120993,5024,0,-0.964888,-2.3557825,-8.229216,5024,0,0,1,1
567232025,-0.069497466,0.24584007,0.002036067,4995,0,-1.5849795,2.1743293,-9.015459,4995,0,0,1,1
567237035,0.18029551,0.089827694,-0.04284995,5010,0,0.28520253,0.15191622,-14.130053,5010,0,0,1,1
567242044,-0.010468878,0.0273849,0.016391594,5009,0,0.43134257,-0.5352123,-10.063396,5009,0,0,1,1
567247055,-0.036998127,0.27250683,-0.046776947,5011,0,-1.717935,1.9260302,-6.7152324,5011,0,0,1,1
567252064,0.097488925,0.16306816,-0.0066552567,5009,0,-0.8950077,-0.6220944,-12.66863,5009,0,0,1,1
567257073,0.048831746,0.13482183,0.012385295,5009,0,-1.5041903,0.66420954,-11.722244,5009,0,0,1,1
567262083,0.14444938,0.28153875,-0.041605905,5010,0,0.035724133,-0.6471544,-12.2655735,5010,0,0,1,1
567267092,0.05511199,0.2610493,0.009579426,5009,0,0.79417235,1.7656761,-9.603561,5009,0,0,1,1
567272102,0.016436521,0.21850745,-0.022859313,5010,0,0.0051316093,-0.6282533,-10.012481,5010,0,0,1,1
567277111,0.082954325,0.1037891,0.053547457,5009,0,-0.73600405,-0.113162234,-12.7332535,5009,0,0,1,1
567282121,0.19442944,0.26504114,0.014559065,5010,0,-1.3531796,0.9804506,-11.815649,5010,0,0,1,1
567287130,0.06177594,0.3516322,0.00058570347,5009,0,-0.7100514,-0.9352026,-10.869666,5009,0,0,1,1
567292140,-0.08602879,0.18555956,0.051984433,5010,0,0.025177889,3.1622818,-9.828084,5010,0,0,1,1
567297149,0.10831285,0.14477636,0.027291235,5009,0,0.16329445,-2.4398534,-10.042164,5009,0,0,1,1
567302159,0.014997235,0.22014198,0.07672638,5010,0,-0.5240276,1.0000107,-12.524896,5010,0,0,1,1
567307169,0.24010326,0.31256735,-0.0109754065,5010,0,0.5490307,0.052369684,-13.188718,5010,0,0,1,1
567312179,0.019957162,0.23032846,0.059397954,5010,0,0.72061974,-0.58983135,-13.876061,5010,0,4,1,1
567317188,-0.0016416467,0.24461703,-0.029756377,5009,0,-0.9059221,0.6011842,-11.598068,5009,0,0,1,1
567322197,-0.10684153,0.32780796,0.014422686,5009,0,-1.1346526,-0.88156426,-10.900484,5009,0,0,1,1
567327207,-0.07605769,0.30999562,-0.0047664177,5010,0,-0.8612134,2.438246,-12.161355,5010,0,0,1,1
567332217,0.008701221,0.29349655,0.023664225,5010,0,0.2403749,-1.536532,-9.459113,5010,0,0,1,1
567337226,-0.0874355,0.36983955,0.035591315,5009,0,-0.28554553,1.636166,-10.626402,5009,0,0,1,1
567342236,0.018931312,0.49088722,-0.02080784,5010,0,0.063306674,-1.529326,-11.476569,5010,0,0,1,1
567347245,-0.08639733,0.43695125,0.060401514,5009,0,0.65926266,0.40170535,-14.389346,5009,0,0,1,1
567352256,0.025270501,0.36113414,-0.070772395,5011,0,0.34852684,-0.39445147,-13.72301,5011,0,0,1,1
567357264,-0.099755414,0.4529986,0.038178846,5008,0,0.3545929,-0.47909158,-14.096729,5008,0,0,1,1
567362274,0.029383393,0.44857115,-0.06542903,5010,0,-1.0552953,0.0237108,-13.718572,5010,0,0,1,1
567367283,-0.09887007,0.37640768,0.060609307,5009,0,0.67345184,-0.59834874,-14.396555,5009,0,0,1,1
567372293,-0.006222359,0.42710072,-0.042598214,5010,0,-0.46658486,1.0106294,-12.976709,5010,0,0,1,1
567377303,-0.05430193,0.49745235,0.041077737,5010,0,-0.49309802,-1.4064603,-11.378265,5010,0,0,1,1
567382312,-0.08264532,0.47550952,-0.0009442216,5009,0,-1.0618273,1.6521045,-13.033088,5009,0,0,1,1
567387322,-0.08083004,0.3547922,0.029246025,5010,0,1.1115444,-1.8009166,-11.539409,5010,0,0,1,1
567392331,-0.15958889,0.43486544,0.014933235,5009,0,-0.08803902,1.2458442,-10.943043,5009,0,0,1,1
567397340,-0.046564035,0.5025595,-0.0054798876,5009,0,0.5544362,-1.0186563,-12.089777,5009,0,0,1,1
567402350,-0.13802661,0.5033158,0.01644014,5010,0,0.7131304,1.2302631,-13.119254,5010,0,0,1,1
567407359,0.09158501,0.386772,-0.021659143,5009,0,0.8573221,-1.33776,-13.657394,5009,0,0,1,1
567412369,-0.08152284,0.40621933,0.004769726,5010,0,-0.6947782,-0.053570613,-13.181093,5010,0,0,1,1
567417379,0.054270707,0.4582617,-0.03391849,5010,0,-1.4139062,0.6340899,-15.13968,5010,0,0,1,1
567422389,-0.021250088,0.33147514,0.037163634,5010,0,-0.17879552,-0.7415112,-14.977862,5010,0,0,1,1
567427400,0.08417834,0.31135973,-0.024007984,5011,0,0.23172492,0.86794055,-14.756897,5011,0,0,1,1
567432408,0.053200923,0.26785678,0.043846037,5008,0,0.32608423,-0.8023921,-13.2341175,5008,0,0,1,1
567437417,0.098759666,0.338418,-0.0065723667,5009,0,0.55910164,1.1471456,-13.459012,5009,0,0,1,1
567442426,0.091581956,0.20804363,0.05142357,5009,0,-0.11996217,-1.2290895,-13.519888,5009,0,0,1,1
567447438,0.11574656,0.2440047,-0.0034921512,5012,0,1.1637951,1.0508105,-14.838375,5012,0,0,1,1
567452445,0.12767655,0.14577514,0.08137293,5007,0,0.6658539,-1.7186812,-14.19704,5007,0,0,1,1
567457457,0.19900909,0.20079854,0.023126625,5012,0,0.7620389,0.571328,-14.844247,5012,0,0,1,1
567462464,0.28319228,0.09154624,0.10690071,5007,0,-0.29225895,-0.34730437,-14.61394,5007,0,0,1,1
567467474,0.24989456,0.107424505,-0.013754657,5010,0,-0.09660078,1.5176814,-15.373136,5010,0,0,1,1
567472484,0.2941326,0.09787247,0.13437691,5010,0,-0.6994244,-0.4468975,-14.29891,5010,0,0,1,1
567477493,0.28148365,0.15104459,0.0032589072,5009,0,-0.21475679,-0.98593014,-12.3819065,5009,0,0,1,1
567482502,0.36076906,0.0062832367,0.12186727,5009,0,0.07855601,-0.07829533,-12.546535,5009,0,0,1,1
567487512,0.25134504,0.13230279,-0.014561098,5010,0,-0.32798958,-0.055913948,-11.639716,5010,0,0,1,1
567492521,0.359747,0.21521062,0.1580344,5009,0,0.4817913,0.7092799,-12.308834,5009,0,0,1,1
567497531,0.28463057,0.1907094,-0.040981162,5010,0,0.49281928,-0.16052726,-13.21179,5010,0,0,1,1
567502540,0.39015782,0.07860329,0.12811144,5009,0,0.8071625,0.65940964,-13.970131,5009,0,0,1,1
567507549,0.23118013,0.10296139,-0.026358457,5009,0,-0.75724345,-0.5687263,-12.932336,5009,0,0,1,1
567512568,0.3530535,0.21277426,0.11121229,5019,0,0.49104196,0.052547358,-15.192084,5019,0,0,1,1
567517569,0.22941503,0.114447504,-0.028859427,5001,0,0.25644788,-0.5341294,-14.108776,5001,0,0,1,1
567522578,0.35140622,0.17986326,0.11083923,5009,0,2.564993,-1.3057015,-14.42096,5009,0,0,1,1
567527598,0.21426792,0.13691507,-0.029669473,5020,0,-1.1857873,0.6464362,-12.694135,5020,0,0,1,1
567532597,0.39013857,0.22051589,0.05448177,4999,0,0.29213122,-1.0384833,-12.817289,4999,0,0,1,1
567537606,0.14248528,0.06841279,-0.0036738422,5009,0,-0.585855,0.8533444,-12.734969,5009,0,0,1,1
567542616,0.29648378,0.09275676,0.044708617,5010,0,1.0018941,-1.6010121,-11.997306,5010,0,0,1,1
567547625,0.03897932,0.12306979,0.013557488,5009,0,-1.5158027,1.5928055,-11.982565,5009,0,0,1,1
567552639,0.26259503,0.03399476,0.022202073,5014,0,0.6768014,-0.41501898,-11.070469,5014,0,0,1,1
567557644,-0.061116748,-0.0057897335,0.06570252,5005,0,0.5467615,0.7587534,-11.464945,5005,0,0,1,1
567562669,0.22850455,-0.0271204,0.022789558,5025,0,0.67555946,-0.01393376,-11.025725,5025,0,0,1,1
567567663,-0.052141648,0.021665797,0.06560015,4994,0,-0.062090334,0.17526627,-11.463907,4994,0,0,1,1
567572673,0.19276562,-0.13543671,-0.012600306,5010,0,0.634459,0.27096194,-14.310085,5010,0,0,1,1
567577682,0.05239356,-0.14759496,0.06234881,5009,0,1.1031162,-2.4178793,-13.452532,5009,0,0,1,1
567582693,0.17297882,-0.1597954,-0.012291418,5011,0,-0.7564705,1.790796,-13.417294,5011,0,0,1,1
567587701,0.044706427,-0.14880182,0.03404832,5008,0,-0.37476626,-1.9589497,-11.062648,5008,0,0,1,1
567592711,-0.00042898397,-0.20785135,0.023670563,5010,0,-0.31476402,2.25101,-11.577232,5010,0,0,1,1
567597722,-0.034546554,-0.24919072,0.03920527,5011,0,0.45067072,-2.1252801,-10.180729,5011,0,0,1,1
567602731,-0.12884228,-0.2125577,0.04275337,5009,0,0.30387118,1.5754038,-10.31073,5009,0,0,1,1
567607739,-0.018289639,-0.25103423,0.020896234,5008,0,1.0537024,-0.95596164,-10.470254,5008,0,0,1,1
567612749,-0.05779869,-0.3569765,0.047706656,5010,0,0.8840296,-0.021249915,-11.100438,5010,0,0,1,1
567617758,0.05198375,-0.33218962,0.008163952,5009,0,-0.20830895,0.5140251,-10.321732,5009,0,0,1,1
567622772,-0.023325503,-0.27761102,0.023678128,5014,0,-0.49383712,-1.2873863,-10.43415,5014,0,0,1,1
567627777,-0.055113293,-0.26969412,0.040240325,5005,0,-0.07293899,1.0925995,-10.581204,5005,0,0,1,1
567632786,-0.07557069,-0.33279133,0.022673177,5009,0,0.28343824,-0.55147606,-11.505198,5009,0,0,1,1
567637796,-0.14869788,-0.2968859,0.056579433,5010,0,0.8182346,0.6022302,-8.969299,5010,0,0,1,1
567642805,-0.029141542,-0.2342506,0.03691653,5009,0,0.6207343,-0.57776934,-10.876288,5009,0,0,1,1
567647815,-0.064565055,-0.28251708,0.050962046,5010,0,-0.26639605,0.702625,-10.617067,5010,0,0,1,1
567652824,0.03295069,-0.23713747,0.03154515,5009,0,-0.41130883,-0.40302408,-9.955705,5009,0,0,1,1
567657834,0.037888836,-0.1795057,0.023231868,5010,0,-0.25947848,-0.77061564,-8.6861105,5010,0,0,1,1
567662843,-0.104935385,-0.10953408,0.053760752,5009,0,-0.2255098,1.5914794,-8.7470455,5009,0,0,1,1
567667853,0.015209133,-0.1436492,0.033827692,5010,0,1.1947397,-1.3955598,-10.380573,5010,0,0,1,1
567672862,-0.104727246,-0.13967875,0.04103095,5009,0,0.120871566,0.6680664,-11.1175,5009,0,0,1,1
567677872,0.04837076,0.008725057,0.042562652,5010,0,0.041324712,-0.37218243,-10.556455,5010,0,0,1,1
567682883,0.02066946,-0.036708303,0.042907204,5011,0,-0.55152744,-1.4255412,-10.267687,5011,0,0,1,1
567687891,-0.05812483,0.06828712,0.0177503,5008,0,-0.44633374,1.8039613,-7.3424325,5008,0,0,1,1
567692900,-0.038902562,0.048617303,0.031072497,5009,0,0.40002766,-0.6706403,-7.67676,5009,0,0,1,1
567697910,-0.11410971,0.10718902,0.040822987,5010,0,-0.14048247,0.67069805,-8.93724,5010,0,0,1,1
567702919,0.011874394,0.14255866,0.04240392,5009,0,0.41754985,-0.44016594,-12.413501,5009,0,0,1,1
567707928,-0.0065215724,0.027070478,0.04189398,5009,0,0.3494654,-0.97973627,-11.236989,5009,0,0,1,1
567712938,-0.0027699799,0.2308278,0.029760942,5010,0,-0.19514403,0.78634393,-7.86389,5010,0,0,1,1
567717947,-0.010312257,0.15507518,0.04255502,5009,0,-0.57325613,-0.54085994,-7.643852,5009,0,0,1,1
567722957,-0.073792,0.18010566,0.036755208,5010,0,0.3774623,1.928833,-8.364382,5010,0,0,1,1
567727966,0.04765749,0.14671572,0.058207404,5009,0,0.7014183,-1.600385,-11.724282,5009,0,0,1,1
567732976,0.046541076,0.0711503,0.014721867,5010,0,0.060120877,-0.060399994,-10.4835205,5010,0,0,1,1
567737985,0.08607285,0.22216693,0.06393748,5009,0,-0.20789199,0.26815546,-10.812033,5009,0,0,1,1
567742995,0.019451762,0.09774443,0.042323563,5010,0,-0.14396456,-0.5359101,-7.440804,5010,0,0,1,1
567748004,0.011436272,0.08648433,0.016102677,5009,0,0.53488135,0.7180899,-7.0119853,5009,0,0,1,1
567753014,0.065902196,0.062766545,0.041217193,5010,0,0.05124536,-0.09176373,-10.1108885,5010,0,0,1,1
567758023,0.080395855,0.019011775,-0.0028835316,5009,0,-0.49061063,-0.03653345,-11.644539,5009,0,0,1,1
567763032,0.04372886,0.08893999,0.08236616,5009,0,0.6123372,0.18084474,-10.380464,5009,0,0,1,1
567768042,0.094830446,-0.018027086,0.002891702,5010,0,0.4513451,-0.47000092,-9.38732,5010,0,0,1,1
567773051,0.14160833,-0.032247324,0.03424132,5009,0,1.078143,-0.8627077,-7.8894453,5009,0,0,1,1
567778061,0.073360234,-0.050752956,0.03228611,5010,0,-1.2199187,1.0063325,-9.683776,5010,0,0,1,1
567783071,0.06259129,-0.08802835,-0.013216036,5010,0,0.002979906,0.26227793,-9.542088,5010,0,0,1,1
567788080,0.0010323281,-0.036899105,0.07583931,5009,0,0.8929681,-0.88353264,-9.744634,5009,0,0,1,1
567793089,0.030917728,-0.13373762,-0.012322725,5009,0,0.62983966,0.8670942,-10.895045,5009,0,0,1,1
567798100,0.1473232,-0.13945663,0.031512648,5011,0,0.4689694,-1.3260864,-9.3756,5011,0,0,1,1
567803108,-0.012965621,-0.12147541,0.045226727,5008,0,-1.7609375,1.4116817,-10.211106,5008,0,0,1,1
567808118,0.13318181,-0.065681316,0.02720461,5010,0,0.47463262,-0.63449997,-8.327655,5010,0,0,1,1
567813127,-0.10670251,-0.084657066,0.074617445,5009,0,1.5172343,-1.55401,-9.689224,5009,0,0,1,1
567818137,-0.049961943,-0.17651115,-0.004721234,5010,0,0.4129736,2.151918,-10.041557,5010,0,0,1,1
567823146,-0.0085575115,-0.1508517,0.05540638,5009,0,-0.31593835,-2.3616154,-10.538931,5009,0,0,1,1
567828156,-0.13181907,-0.07423921,0.04246996,5010,0,-1.2425493,2.2063868,-9.864654,5010,0,0,1,1
567833165,0.07121443,-0.04330011,0.039205253,5009,0,0.13241436,-1.4781502,-9.472051,5009,0,0,1,1
567838175,-0.09635328,-0.090775065,0.08601844,5010,0,1.3888333,-0.16780911,-8.226041,5010,0,0,1,1
567843184,-0.019184917,-0.12983437,-0.0068475087,5009,0,0.32310104,1.0380226,-10.178711,5009,0,0,1,1
567848193,-0.08787895,-0.1121084,0.06613592,5009,0,0.002130275,-1.1107827,-11.11301,5009,0,0,1,1
567853203,-0.10944933,-0.05032617,0.017347464,5010,0,-0.8525643,0.7439946,-12.0127735,5010,0,0,1,1
567858212,0.03104992,-0.0430558,0.061013415,5009,0,0.27026322,-0.77118963,-9.209275,5009,0,0,1,1
567863222,-0.11441919,-0.049700357,0.07346476,5010,0,0.5428119,0.18140201,-8.67506,5010,0,0,1,1
567868232,0.04476153,0.012333576,0.021345014,5010,0,0.9625877,0.04939369,-7.0364966,5010,0,0,1,1
567873241,-0.058465492,-0.0791799,0.07436549,5009,0,0.004793895,-0.58039844,-10.207985,5009,0,0,1,1
567878250,-0.009602954,-0.07155356,0.016165126,5009,0,-0.9273801,1.1775751,-12.099719,5009,0,0,1,1
