timestamp,timestamp_sample,gps_hvel[0],gps_hvel[1],gps_vvel,gps_hpos[0],gps_hpos[1],gps_vpos,ev_hvel[0],ev_hvel[1],ev_vvel,ev_hpos[0],ev_hpos[1],ev_vpos,rng_vpos,baro_vpos,aux_hvel[0],aux_hvel[1],aux_vvel,flow[0],flow[1],terr_flow[0],terr_flow[1],heading,mag_field[0],mag_field[1],mag_field[2],gravity[0],gravity[1],gravity[2],drag[0],drag[1],airspeed,beta,hagl,hagl_rate
564943836,564842440,-0.027284902,-0.030178973,-0.019884676,0.028414726,-0.051522613,-0.050700665,-0.01979576,-0.023011873,-0.024880243,-0.018253088,0.019150853,-2.2074277,0.0,1.291651,0.0,0.0,nan,0.0,0.0,0.0,0.0,0.00097347796,0.009601988,0.0036158785,-0.012716472,-0.004206543,0.02756913,0.00087026204,0.0,0.0,0.0,0.0,0.0,0.0
564953564,564852460,-0.027284902,-0.030178973,-0.019884676,0.028414726,-0.051522613,-0.050700665,-0.01979576,-0.023011873,-0.024880243,-0.018253088,0.019150853,-2.2074277,0.0,1.291651,0.0,0.0,nan,0.0,0.0,0.0,0.0,0.00097347796,0.009601988,0.0036158785,-0.012716472,-0.022247372,0.044342443,0.0024775462,0.0,0.0,0.0,0.0,0.0,0.0
564963648,564862479,-0.027284902,-0.030178973,-0.019884676,0.028414726,-0.051522613,-0.050700665,-0.01979576,-0.023011873,-0.024880243,-0.018253088,0.019150853,-2.2074277,0.0,1.291651,0.0,0.0,nan,0.0,0.0,0.0,0.0,0.00097347796,0.009601988,0.0036158785,-0.012716472,0.0010568225,0.03691585,0.00065498,0.0,0.0,0.0,0.0,0.0,0.0
564974402,564872504,-0.032827154,-0.03217308,-0.0339812,0.03824258,-0.058774352,-0.04389882,-0.01979576,-0.023011873,-0.024880243,-0.018253088,0.019150853,-2.2074277,0.0,1.291651,0.0,0.0,nan,0.0,0.0,0.0,0.0,0.00097347796,0.009601988,0.0036158785,-0.012716472,-0.005182051,0.021337574,0.0008211489,0.0,0.0,0.0,0.0,0.0,0.0
564984072,564882518,-0.032827154,-0.03217308,-0.0339812,0.03824258,-0.058774352,-0.04389882,-0.01979576,-0.023011873,-0.024880243,-0.018253088,0.019150853,-2.2074277,0.0,1.291651,0.0,0.0,nan,0.0,0.0,0.0,0.0,0.014452383,0.007965729,0.00070364773,-0.010234296,0.0029071057,0.035087287,0.0004815652,0.0,0.0,0.0,0.0,0.0,0.0
564993828,564892537,-0.032827154,-0.03217308,-0.0339812,0.03824258,-0.058774352,-0.04389882,-0.01979576,-0.023011873,-0.024880243,-0.018253088,0.019150853,-2.2074277,0.0,1.3166656,0.0,0.0,nan,0.0,0.0,0.0,0.0,0.014452383,0.007965729,0.00070364773,-0.010234296,0.0005096433,0.040383343,0.00075466774,0.0,0.0,0.0,0.0,0.0,0.0
565003887,564902556,-0.032827154,-0.03217308,-0.0339812,0.03824258,-0.058774352,-0.04389882,-0.018647969,-0.022639457,-0.03177541,-0.019676924,0.021981478,-2.2136064,0.0,1.3166656,0.0,0.0,nan,0.0,0.0,0.0,0.0,0.014452383,0.007965729,0.00070364773,-0.010234296,-0.0011307951,0.021572117,0.00052723015,0.0,0.0,0.0,0.0,0.0,0.0
565014097,564912575,-0.032827154,-0.03217308,-0.0339812,0.03824258,-0.058774352,-0.04389882,-0.018647969,-0.022639457,-0.03177541,-0.019676924,0.021981478,-2.2136064,0.0,1.3166656,0.0,0.0,nan,0.0,0.0,0.0,0.0,0.014452383,0.007965729,0.00070364773,-0.010234296,-0.0005667276,0.02791204,0.00060814765,0.0,0.0,0.0,0.0,0.0,0.0
565023855,564922594,-0.032827154,-0.03217308,-0.0339812,0.03824258,-0.058774352,-0.04389882,-0.018647969,-0.022639457,-0.03177541,-0.019676924,0.021981478,-2.2136064,0.0,1.3166656,0.0,0.0,nan,0.0,0.0,0.0,0.0,0.014452383,0.007965729,0.00070364773,-0.010234296,-0.009538838,0.033670854,0.0013714234,0.0,0.0,0.0,0.0,0.0,0.0
565033845,564932614,-0.032827154,-0.03217308,-0.0339812,0.03824258,-0.058774352,-0.04389882,-0.018664375,-0.024092082,-0.03331018,-0.019339085,0.020108104,-2.2146716,0.0,1.3166656,0.0,0.0,nan,0.0,0.0,0.0,0.0,0.014452383,0.007965729,0.00070364773,-0.010234296,-0.01575933,0.028487166,0.001727433,0.0,0.0,0.0,0.0,0.0,0.0
565044010,564942637,-0.032827154,-0.03217308,-0.0339812,0.03824258,-0.058774352,-0.04389882,-0.018664375,-0.024092082,-0.03331018,-0.019339085,0.020108104,-2.2146716,0.0,1.3166656,0.0,0.0,nan,0.0,0.0,0.0,0.0,0.014452383,0.007965729,0.00070364773,-0.010234296,-0.0073644225,0.021807607,0.000987999,0.0,0.0,0.0,0.0,0.0,0.0
565053915,564952652,-0.032827154,-0.03217308,-0.0339812,0.03824258,-0.058774352,-0.04389882,-0.018664375,-0.024092082,-0.03331018,-0.019339085,0.020108104,-2.2146716,0.0,1.3166656,0.0,0.0,nan,0.0,0.0,0.0,0.0,0.01840888,0.010892905,0.0011926815,-0.012753546,0.0029638743,0.02456205,0.0002841496,0.0,0.0,0.0,0.0,0.0,0.0
565063922,564962672,-0.032827154,-0.03217308,-0.0339812,0.03824258,-0.058774352,-0.04389882,-0.018482443,-0.024473699,-0.03590905,-0.019026041,0.018358946,-2.2190828,0.0,1.1890337,0.0,0.0,nan,0.0,0.0,0.0,0.0,0.01840888,0.010892905,0.0011926815,-0.012753546,-0.049325403,-0.0064655766,0.0033704466,0.0,0.0,0.0,0.0,0.0,0.0
565073928,564972691,-0.032827154,-0.03217308,-0.0339812,0.03824258,-0.058774352,-0.04389882,-0.018482443,-0.024473699,-0.03590905,-0.019026041,0.018358946,-2.2190828,0.0,1.1890337,0.0,0.0,nan,0.0,0.0,0.0,0.0,0.01840888,0.010892905,0.0011926815,-0.012753546,0.061498974,0.112755686,-0.0029189934,0.0,0.0,0.0,0.0,0.0,0.0
565083947,564982710,-0.032827154,-0.03217308,-0.0339812,0.03824258,-0.058774352,-0.04389882,-0.018482443,-0.024473699,-0.03590905,-0.019026041,0.018358946,-2.2190828,0.0,1.1890337,0.0,0.0,nan,0.0,0.0,0.0,0.0,0.01840888,0.010892905,0.0011926815,-0.012753546,-0.064502195,0.049377292,0.0054901093,0.0,0.0,0.0,0.0,0.0,0.0
565094700,564992730,-0.0066896556,-0.042161897,-0.049358603,0.035727262,-0.055600762,-0.030683517,-0.018482443,-0.024473699,-0.03590905,-0.019026041,0.018358946,-2.2190828,0.0,1.1890337,0.0,0.0,nan,0.0,0.0,0.0,0.0,0.01840888,0.010892905,0.0011926815,-0.012753546,0.0004723122,-0.084194236,-0.0022163647,0.0,0.0,0.0,0.0,0.0,0.0
565104036,565002749,-0.0066896556,-0.042161897,-0.049358603,0.035727262,-0.055600762,-0.030683517,-0.018714765,-0.020978032,-0.035214663,-0.020713806,0.023078322,-2.2164485,0.0,1.1890337,0.0,0.0,nan,0.0,0.0,0.0,0.0,0.01840888,0.010892905,0.0011926815,-0.012753546,0.14944082,-0.019267837,-0.012602259,0.0,0.0,0.0,0.0,0.0,0.0
565114812,565012770,-0.0066896556,-0.042161897,-0.049358603,0.035727262,-0.055600762,-0.030683517,-0.018714765,-0.020978032,-0.035214663,-0.020713806,0.023078322,-2.2164485,0.0,1.1890337,0.0,0.0,nan,0.0,0.0,0.0,0.0,0.01840888,0.010892905,0.0011926815,-0.012753546,-0.14504462,0.08014142,0.011023432,0.0,0.0,0.0,0.0,0.0,0.0
565124161,565022788,-0.0066896556,-0.042161897,-0.049358603,0.035727262,-0.055600762,-0.030683517,-0.021531299,-0.021452043,-0.03683135,-0.020203114,0.02156949,-2.2199373,0.0,1.013154,0.0,0.0,nan,0.0,0.0,0.0,0.0,0.005491957,0.009013265,0.002675511,-0.012611091,0.18077722,0.03057335,-0.014373665,0.0,0.0,0.0,0.0,0.0,0.0
565133976,565032807,-0.0066896556,-0.042161897,-0.049358603,0.035727262,-0.055600762,-0.030683517,-0.021531299,-0.021452043,-0.03683135,-0.020203114,0.02156949,-2.2199373,0.0,1.013154,0.0,0.0,nan,0.0,0.0,0.0,0.0,0.005491957,0.009013265,0.002675511,-0.012611091,-0.2599481,0.22000921,0.017988859,0.0,0.0,0.0,0.0,0.0,0.0
565144172,565042827,-0.0066896556,-0.042161897,-0.049358603,0.035727262,-0.055600762,-0.030683517,-0.021531299,-0.021452043,-0.03683135,-0.020203114,0.02156949,-2.2199373,0.0,1.013154,0.0,0.0,nan,0.0,0.0,0.0,0.0,0.005491957,0.009013265,0.002675511,-0.012611091,0.13164537,-0.03083523,-0.011312648,0.0,0.0,0.0,0.0,0.0,0.0
565153995,565052847,-0.0066896556,-0.042161897,-0.049358603,0.035727262,-0.055600762,-0.030683517,-0.021531299,-0.021452043,-0.03683135,-0.020203114,0.02156949,-2.2199373,0.0,1.013154,0.0,0.0,nan,0.0,0.0,0.0,0.0,0.005491957,0.009013265,0.002675511,-0.012611091,0.05321148,0.0008469873,-0.00404641,0.0,0.0,0.0,0.0,0.0,0.0
565164109,565062864,-0.0066896556,-0.042161897,-0.049358603,0.035727262,-0.055600762,-0.030683517,-0.019243347,-0.02266268,-0.039854273,-0.020080566,0.019620538,-2.22156,0.0,1.013154,0.0,0.0,nan,0.0,0.0,0.0,0.0,0.005491957,0.009013265,0.002675511,-0.012611091,0.022753367,-0.1294971,-0.0053872317,0.0,0.0,0.0,0.0,0.0,0.0
565174070,565072883,-0.0066896556,-0.042161897,-0.049358603,0.035727262,-0.055600762,-0.030683517,-0.019243347,-0.02266268,-0.039854273,-0.020080566,0.019620538,-2.22156,0.0,1.013154,0.0,0.0,nan,0.0,0.0,0.0,0.0,0.005491957,0.009013265,0.002675511,-0.012611091,-0.043845676,0.21131311,0.0054530078,0.0,0.0,0.0,0.0,0.0,0.0
565184098,565082905,-0.0066896556,-0.042161897,-0.049358603,0.035727262,-0.055600762,-0.030683517,-0.019243347,-0.02266268,-0.039854273,-0.020080566,0.019620538,-2.22156,0.0,1.013154,0.0,0.0,nan,0.0,0.0,0.0,0.0,0.005491957,0.009013265,0.002675511,-0.012611091,-0.08205445,0.023090744,0.0061653154,0.0,0.0,0.0,0.0,0.0,0.0
565194312,565092922,-0.0066896556,-0.042161897,-0.049358603,0.035727262,-0.055600762,-0.030683517,-0.020536795,-0.024494477,-0.04059985,-0.019791603,0.017883658,-2.2266371,0.0,1.3191884,0.0,0.0,nan,0.0,0.0,0.0,0.0,-0.0064859837,0.010586552,0.005027149,-0.009842813,0.07948385,0.10351659,-0.00447253,0.0,0.0,0.0,0.0,0.0,0.0
565204124,565102941,-0.0066896556,-0.042161897,-0.049358603,0.035727262,-0.055600762,-0.030683517,-0.020536795,-0.024494477,-0.04059985,-0.019791603,0.017883658,-2.2266371,0.0,1.3191884,0.0,0.0,nan,0.0,0.0,0.0,0.0,-0.0064859837,0.010586552,0.005027149,-0.009842813,-0.031767882,-0.048703015,0.0011084066,0.0,0.0,0.0,0.0,0.0,0.0
565214376,565112967,-0.0066896556,-0.042161897,-0.049358603,0.035727262,-0.055600762,-0.030683517,-0.020536795,-0.024494477,-0.04059985,-0.019791603,0.017883658,-2.2266371,0.0,1.3191884,0.0,0.0,nan,0.0,0.0,0.0,0.0,-0.0064859837,0.010586552,0.005027149,-0.009842813,-0.048516687,0.055983637,0.004509889,0.0,0.0,0.0,0.0,0.0,0.0
565224291,565122980,-0.0066896556,-0.042161897,-0.049358603,0.035727262,-0.055600762,-0.030683517,-0.01963018,-0.025523141,-0.044361424,-0.019515038,0.016256332,-2.2280488,0.0,1.3191884,0.0,0.0,nan,0.0,0.0,0.0,0.0,-0.0064859837,0.010586552,0.005027149,-0.009842813,0.065299526,0.013911944,-0.0047381707,0.0,0.0,0.0,0.0,0.0,0.0
565234112,565132999,-0.0066896556,-0.042161897,-0.049358603,0.035727262,-0.055600762,-0.030683517,-0.01963018,-0.025523141,-0.044361424,-0.019515038,0.016256332,-2.2280488,0.0,1.3191884,0.0,0.0,nan,0.0,0.0,0.0,0.0,-0.0064859837,0.010586552,0.005027149,-0.009842813,-0.06655178,0.107763104,0.006432807,0.0,0.0,0.0,0.0,0.0,0.0
565244331,565143019,-0.0066896556,-0.042161897,-0.049358603,0.035727262,-0.055600762,-0.030683517,-0.01963018,-0.025523141,-0.044361424,-0.019515038,0.016256332,-2.2280488,0.0,1.3191884,0.0,0.0,nan,0.0,0.0,0.0,0.0,-0.0064859837,0.010586552,0.005027149,-0.009842813,-0.016822485,-0.028723659,0.00055704353,0.0,0.0,0.0,0.0,0.0,0.0
565254349,565153037,-0.0066896556,-0.042161897,-0.049358603,0.035727262,-0.055600762,-0.030683517,-0.01963018,-0.025523141,-0.044361424,-0.019515038,0.016256332,-2.2280488,0.0,1.1382036,0.0,0.0,nan,0.0,0.0,0.0,0.0,-0.0064859837,0.010586552,0.005027149,-0.009842813,0.04206814,0.043668427,-0.0023382194,0.0,0.0,0.0,0.0,0.0,0.0
565265052,565163057,-0.015902173,-0.013949882,-0.06473777,0.041329145,-0.053300858,-0.036156178,-0.019211885,-0.025525916,-0.0443279,-0.021024466,0.01900506,-2.2278128,0.0,1.1382036,0.0,0.0,nan,0.0,0.0,0.0,0.0,0.001110822,0.0049100444,0.0020484552,-0.013056695,0.005708671,0.08326955,0.0010383576,0.0,0.0,0.0,0.0,0.0,0.0
565274269,565173076,-0.015902173,-0.013949882,-0.06473777,0.041329145,-0.053300858,-0.036156178,-0.019211885,-0.025525916,-0.0443279,-0.021024466,0.01900506,-2.2278128,0.0,1.1382036,0.0,0.0,nan,0.0,0.0,0.0,0.0,0.001110822,0.0049100444,0.0020484552,-0.013056695,0.028943336,0.076685816,-0.0008023206,0.0,0.0,0.0,0.0,0.0,0.0
565284292,565183095,-0.015902173,-0.013949882,-0.06473777,0.041329145,-0.053300858,-0.036156178,-0.019211885,-0.025525916,-0.0443279,-0.021024466,0.01900506,-2.2278128,0.0,1.1382036,0.0,0.0,nan,0.0,0.0,0.0,0.0,0.001110822,0.0049100444,0.0020484552,-0.013056695,-0.038792323,-0.06115385,0.0012554178,0.0,0.0,0.0,0.0,0.0,0.0
565294354,565193114,-0.015902173,-0.013949882,-0.06473777,0.041329145,-0.053300858,-0.036156178,-0.020404099,-0.025943965,-0.045938335,-0.02076292,0.017303944,-2.2293794,0.0,1.1382036,0.0,0.0,nan,0.0,0.0,0.0,0.0,0.001110822,0.0049100444,0.0020484552,-0.013056695,0.012990185,0.10392138,0.00073960586,0.0,0.0,0.0,0.0,0.0,0.0
565304325,565203134,-0.015902173,-0.013949882,-0.06473777,0.041329145,-0.053300858,-0.036156178,-0.020404099,-0.025943965,-0.045938335,-0.02076292,0.017303944,-2.2293794,0.0,1.1382036,0.0,0.0,nan,0.0,0.0,0.0,0.0,0.001110822,0.0049100444,0.0020484552,-0.013056695,0.0124913445,-0.03927303,-0.0018628841,0.0,0.0,0.0,0.0,0.0,0.0
565314564,565213153,-0.015902173,-0.013949882,-0.06473777,0.041329145,-0.053300858,-0.036156178,-0.020404099,-0.025943965,-0.045938335,-0.02076292,0.017303944,-2.2293794,0.0,1.1382036,0.0,0.0,nan,0.0,0.0,0.0,0.0,0.001110822,0.0049100444,0.0020484552,-0.013056695,-0.095529005,0.071902215,0.007871366,0.0,0.0,0.0,0.0,0.0,0.0
565324383,565223172,-0.015902173,-0.013949882,-0.06473777,0.041329145,-0.053300858,-0.036156178,-0.020765381,-0.02676047,-0.049465593,-0.020478249,0.015629888,-2.234096,0.0,1.136842,0.0,0.0,nan,0.0,0.0,0.0,0.0,0.001110822,0.0049100444,0.0020484552,-0.013056695,0.117600314,-0.00097569387,-0.009401856,0.0,0.0,0.0,0.0,0.0,0.0
565334376,565233192,-0.015902173,-0.013949882,-0.06473777,0.041329145,-0.053300858,-0.036156178,-0.020765381,-0.02676047,-0.049465593,-0.020478249,0.015629888,-2.234096,0.0,1.136842,0.0,0.0,nan,0.0,0.0,0.0,0.0,0.023828521,0.00881999,-0.00036494434,-0.014388502,-0.12369468,0.07571274,0.009693027,0.0,0.0,0.0,0.0,0.0,0.0
565344545,565243211,-0.015902173,-0.013949882,-0.06473777,0.041329145,-0.053300858,-0.036156178,-0.020765381,-0.02676047,-0.049465593,-0.020478249,0.015629888,-2.234096,0.0,1.136842,0.0,0.0,nan,0.0,0.0,0.0,0.0,0.023828521,0.00881999,-0.00036494434,-0.014388502,0.03415933,-0.029993432,-0.0032797724,0.0,0.0,0.0,0.0,0.0,0.0
565355135,565253230,-0.02370038,-0.043120414,-0.03262327,0.048920155,-0.05688131,-0.031158924,-0.020765381,-0.02676047,-0.049465593,-0.020478249,0.015629888,-2.234096,0.0,1.136842,0.0,0.0,nan,0.0,0.0,0.0,0.0,0.023828521,0.00881999,-0.00036494434,-0.014388502,0.067215584,0.07882238,-0.0037928245,0.0,0.0,0.0,0.0,0.0,0.0
565364510,565263250,-0.02370038,-0.043120414,-0.03262327,0.048920155,-0.05688131,-0.031158924,-0.019299988,-0.024633918,-0.049598407,-0.021834373,0.020690918,-2.232815,0.0,1.136842,0.0,0.0,nan,0.0,0.0,0.0,0.0,0.023828521,0.00881999,-0.00036494434,-0.014388502,-0.06981366,0.070474826,0.0061700596,0.0,0.0,0.0,0.0,0.0,0.0
565374590,565273269,-0.02370038,-0.043120414,-0.03262327,0.048920155,-0.05688131,-0.031158924,-0.019299988,-0.024633918,-0.049598407,-0.021834373,0.020690918,-2.232815,0.0,1.136842,0.0,0.0,nan,0.0,0.0,0.0,0.0,0.023828521,0.00881999,-0.00036494434,-0.014388502,0.037338443,0.014121907,-0.0025258784,0.0,0.0,0.0,0.0,0.0,0.0
565384539,565283288,-0.02370038,-0.043120414,-0.03262327,0.048920155,-0.05688131,-0.031158924,-0.019299988,-0.024633918,-0.049598407,-0.021834373,0.020690918,-2.232815,0.0,1.1179698,0.0,0.0,nan,0.0,0.0,0.0,0.0,0.023828521,0.00881999,-0.00036494434,-0.014388502,-0.020721957,0.037668012,0.0022506297,0.0,0.0,0.0,0.0,0.0,0.0
565394544,565293307,-0.02370038,-0.043120414,-0.03262327,0.048920155,-0.05688131,-0.031158924,-0.020466603,-0.025841545,-0.051587977,-0.021505594,0.018847823,-2.2374105,0.0,1.1179698,0.0,0.0,nan,0.0,0.0,0.0,0.0,0.023828521,0.00881999,-0.00036494434,-0.014388502,0.01389411,0.04240683,-0.00020338096,0.0,0.0,0.0,0.0,0.0,0.0
565404612,565303326,-0.02370038,-0.043120414,-0.03262327,0.048920155,-0.05688131,-0.031158924,-0.020466603,-0.025841545,-0.051587977,-0.021505594,0.018847823,-2.2374105,0.0,1.1179698,0.0,0.0,nan,0.0,0.0,0.0,0.0,0.0024668127,0.007048756,0.0028402805,-0.019647598,0.026033685,0.011854865,-0.0017039585,0.0,0.0,0.0,0.0,0.0,0.0
565414676,565313346,-0.02370038,-0.043120414,-0.03262327,0.048920155,-0.05688131,-0.031158924,-0.020466603,-0.025841545,-0.051587977,-0.021505594,0.018847823,-2.2374105,0.0,1.1179698,0.0,0.0,nan,0.0,0.0,0.0,0.0,0.0024668127,0.007048756,0.0028402805,-0.019647598,0.016103221,-0.00012201145,-0.0012032046,0.0,0.0,0.0,0.0,0.0,0.0
565424519,565323365,-0.02370038,-0.043120414,-0.03262327,0.048920155,-0.05688131,-0.031158924,-0.019657355,-0.02671079,-0.055111684,-0.021166325,0.017165065,-2.239116,0.0,1.1179698,0.0,0.0,nan,0.0,0.0,0.0,0.0,0.0024668127,0.007048756,0.0028402805,-0.019647598,-0.057198483,0.06781403,0.005286125,0.0,0.0,0.0,0.0,0.0,0.0
565434549,565333384,-0.02370038,-0.043120414,-0.03262327,0.048920155,-0.05688131,-0.031158924,-0.019657355,-0.02671079,-0.055111684,-0.021166325,0.017165065,-2.239116,0.0,1.1179698,0.0,0.0,nan,0.0,0.0,0.0,0.0,0.0024668127,0.007048756,0.0028402805,-0.019647598,-0.03517144,0.051255148,0.003511712,0.0,0.0,0.0,0.0,0.0,0.0
565444621,565343403,-0.02370038,-0.043120414,-0.03262327,0.048920155,-0.05688131,-0.031158924,-0.019657355,-0.02671079,-0.055111684,-0.021166325,0.017165065,-2.239116,0.0,1.1179698,0.0,0.0,nan,0.0,0.0,0.0,0.0,0.0024668127,0.007048756,0.0028402805,-0.019647598,-0.00083089,0.046826392,0.00096953823,0.0,0.0,0.0,0.0,0.0,0.0
565454699,565353423,-0.02370038,-0.043120414,-0.03262327,0.048920155,-0.05688131,-0.031158924,-0.019657355,-0.02671079,-0.055111684,-0.021166325,0.017165065,-2.239116,0.0,1.1742752,0.0,0.0,nan,0.0,0.0,0.0,0.0,0.0024668127,0.007048756,0.0028402805,-0.019647598,0.04096974,0.041365582,-0.0022899825,0.0,0.0,0.0,0.0,0.0,0.0
565464710,565363442,-0.02370038,-0.043120414,-0.03262327,0.048920155,-0.05688131,-0.031158924,-0.01983117,-0.027375123,-0.059773363,-0.021140337,0.015184879,-2.2446594,0.0,1.1742752,0.0,0.0,nan,0.0,0.0,0.0,0.0,0.0024668127,0.007048756,0.0028402805,-0.019647598,-0.057788458,-0.078482784,0.0020571162,0.0,0.0,0.0,0.0,0.0,0.0
565474792,565373461,-0.02370038,-0.043120414,-0.03262327,0.048920155,-0.05688131,-0.031158924,-0.01983117,-0.027375123,-0.059773363,-0.021140337,0.015184879,-2.2446594,0.0,1.1742752,0.0,0.0,nan,0.0,0.0,0.0,0.0,-0.025762126,0.0072562024,0.0074970312,-0.017993987,-0.042307332,0.053892586,0.0040569287,0.0,0.0,0.0,0.0,0.0,0.0
565485354,565383480,-0.005861992,-0.0064744726,-0.08293054,0.044629335,-0.047922373,-0.03229165,-0.01983117,-0.027375123,-0.059773363,-0.021140337,0.015184879,-2.2446594,0.0,1.1742752,0.0,0.0,nan,0.0,0.0,0.0,0.0,-0.025762126,0.0072562024,0.0074970312,-0.017993987,0.13411151,0.09444349,-0.00921103,0.0,0.0,0.0,0.0,0.0,0.0
565494714,565393500,-0.005861992,-0.0064744726,-0.08293054,0.044629335,-0.047922373,-0.03229165,-0.020570558,-0.027432758,-0.05918359,-0.023417473,0.017180204,-2.2403438,0.0,1.1742752,0.0,0.0,nan,0.0,0.0,0.0,0.0,-0.025762126,0.0072562024,0.0074970312,-0.017993987,-0.1722444,-0.019017775,0.010752573,0.0,0.0,0.0,0.0,0.0,0.0
565504813,565403519,-0.005861992,-0.0064744726,-0.08293054,0.044629335,-0.047922373,-0.03229165,-0.020570558,-0.027432758,-0.05918359,-0.023417473,0.017180204,-2.2403438,0.0,1.1742752,0.0,0.0,nan,0.0,0.0,0.0,0.0,-0.025762126,0.0072562024,0.0074970312,-0.017993987,0.060082383,0.074849136,-0.0032702577,0.0,0.0,0.0,0.0,0.0,0.0
565515129,565413538,-0.005861992,-0.0064744726,-0.08293054,0.044629335,-0.047922373,-0.03229165,-0.020570558,-0.027432758,-0.05918359,-0.023417473,0.017180204,-2.2403438,0.0,1.2207592,0.0,0.0,nan,0.0,0.0,0.0,0.0,-0.025762126,0.0072562024,0.0074970312,-0.017993987,0.045752414,0.05826682,-0.002383234,0.0,0.0,0.0,0.0,0.0,0.0
565524797,565423557,-0.005861992,-0.0064744726,-0.08293054,0.044629335,-0.047922373,-0.03229165,-0.020570558,-0.027432758,-0.05918359,-0.023417473,0.017180204,-2.2403438,0.0,1.2207592,0.0,0.0,nan,0.0,0.0,0.0,0.0,-0.025762126,0.0072562024,0.0074970312,-0.017993987,0.018398475,0.0028574998,-0.0013137157,0.0,0.0,0.0,0.0,0.0,0.0
565534820,565433577,-0.005861992,-0.0064744726,-0.08293054,0.044629335,-0.047922373,-0.03229165,-0.02109282,-0.02888584,-0.06471346,-0.023321867,0.0151975155,-2.2461553,0.0,1.2207592,0.0,0.0,nan,0.0,0.0,0.0,0.0,-0.025762126,0.0072562024,0.0074970312,-0.017993987,-0.10050936,0.039744645,0.007679011,0.0,0.0,0.0,0.0,0.0,0.0
565545202,565443596,-0.005861992,-0.0064744726,-0.08293054,0.044629335,-0.047922373,-0.03229165,-0.02109282,-0.02888584,-0.06471346,-0.023321867,0.0151975155,-2.2461553,0.0,1.2207592,0.0,0.0,nan,0.0,0.0,0.0,0.0,-0.0027281195,0.0074231476,0.0036049038,-0.014759481,0.06489541,0.06875092,-0.0037397326,0.0,0.0,0.0,0.0,0.0,0.0
565554834,565453616,-0.005861992,-0.0064744726,-0.08293054,0.044629335,-0.047922373,-0.03229165,-0.02109282,-0.02888584,-0.06471346,-0.023321867,0.0151975155,-2.2461553,0.0,1.2207592,0.0,0.0,nan,0.0,0.0,0.0,0.0,-0.0027281195,0.0074231476,0.0036049038,-0.014759481,-0.08018877,-0.006861099,0.005431011,0.0,0.0,0.0,0.0,0.0,0.0
565564963,565463638,-0.005861992,-0.0064744726,-0.08293054,0.044629335,-0.047922373,-0.03229165,-0.020917704,-0.030345377,-0.06810612,-0.022986412,0.013585329,-2.2482839,0.0,1.2207592,0.0,0.0,nan,0.0,0.0,0.0,0.0,-0.0027281195,0.0074231476,0.0036049038,-0.014759481,-0.06501906,0.09238339,0.0061688186,0.0,0.0,0.0,0.0,0.0,0.0
565574867,565473654,-0.005861992,-0.0064744726,-0.08293054,0.044629335,-0.047922373,-0.03229165,-0.020917704,-0.030345377,-0.06810612,-0.022986412,0.013585329,-2.2482839,0.0,1.2207592,0.0,0.0,nan,0.0,0.0,0.0,0.0,-0.0027281195,0.0074231476,0.0036049038,-0.014759481,0.026284887,0.024901059,-0.001462563,0.0,0.0,0.0,0.0,0.0,0.0
565584999,565483673,-0.005861992,-0.0064744726,-0.08293054,0.044629335,-0.047922373,-0.03229165,-0.020917704,-0.030345377,-0.06810612,-0.022986412,0.013585329,-2.2482839,0.0,1.1859674,0.0,0.0,nan,0.0,0.0,0.0,0.0,-0.0027281195,0.0074231476,0.0036049038,-0.014759481,0.0065421527,0.06842202,0.0007750636,0.0,0.0,0.0,0.0,0.0,0.0
565594915,565493692,-0.005861992,-0.0064744726,-0.08293054,0.044629335,-0.047922373,-0.03229165,-0.020436952,-0.030921029,-0.07180988,-0.022606611,0.01197958,-2.2538557,0.0,1.1859674,0.0,0.0,nan,0.0,0.0,0.0,0.0,-0.0027281195,0.0074231476,0.0036049038,-0.014759481,-0.07820124,-0.023178384,0.0049238005,0.0,0.0,0.0,0.0,0.0,0.0
565605326,565503712,-0.031054221,-0.052558392,-0.09285693,0.039440632,-0.053678513,-0.022037745,-0.020436952,-0.030921029,-0.07180988,-0.022606611,0.01197958,-2.2538557,0.0,1.1859674,0.0,0.0,nan,0.0,0.0,0.0,0.0,-0.0027281195,0.0074231476,0.0036049038,-0.014759481,0.054964043,0.054044086,-0.0031891118,0.0,0.0,0.0,0.0,0.0,0.0
565615710,565513735,-0.031054221,-0.052558392,-0.09285693,0.039440632,-0.053678513,-0.022037745,-0.020436952,-0.030921029,-0.07180988,-0.022606611,0.01197958,-2.2538557,0.0,1.1859674,0.0,0.0,nan,0.0,0.0,0.0,0.0,0.021655947,0.008887611,-0.0003427267,-0.0067819953,0.03867234,0.11457425,-0.001106047,0.0,0.0,0.0,0.0,0.0,0.0
565624908,565523750,-0.031054221,-0.052558392,-0.09285693,0.039440632,-0.053678513,-0.022037745,-0.020436952,-0.030921029,-0.07180988,-0.022606611,0.01197958,-2.2538557,0.0,1.1859674,0.0,0.0,nan,0.0,0.0,0.0,0.0,0.021655947,0.008887611,-0.0003427267,-0.0067819953,-0.13085015,0.010409329,0.008999563,0.0,0.0,0.0,0.0,0.0,0.0
565635044,565533769,-0.031054221,-0.052558392,-0.09285693,0.039440632,-0.053678513,-0.022037745,-0.020171685,-0.02733772,-0.07557857,-0.02271986,0.017727613,-2.2508798,0.0,1.1859674,0.0,0.0,nan,0.0,0.0,0.0,0.0,0.021655947,0.008887611,-0.0003427267,-0.0067819953,0.15841055,-0.012303371,-0.013268259,0.0,0.0,0.0,0.0,0.0,0.0
565645345,565543788,-0.031054221,-0.052558392,-0.09285693,0.039440632,-0.053678513,-0.022037745,-0.020171685,-0.02733772,-0.07557857,-0.02271986,0.017727613,-2.2508798,0.0,1.0782354,0.0,0.0,nan,0.0,0.0,0.0,0.0,0.021655947,0.008887611,-0.0003427267,-0.0067819953,-0.08654455,0.001839501,0.006046056,0.0,0.0,0.0,0.0,0.0,0.0
565655012,565553808,-0.031054221,-0.052558392,-0.09285693,0.039440632,-0.053678513,-0.022037745,-0.020171685,-0.02733772,-0.07557857,-0.02271986,0.017727613,-2.2508798,0.0,1.0782354,0.0,0.0,nan,0.0,0.0,0.0,0.0,0.021655947,0.008887611,-0.0003427267,-0.0067819953,-0.018645976,0.020130478,0.0017780322,0.0,0.0,0.0,0.0,0.0,0.0
565665082,565563835,-0.031054221,-0.052558392,-0.09285693,0.039440632,-0.053678513,-0.022037745,-0.019240152,-0.028651856,-0.07858248,-0.022408485,0.015949607,-2.2562037,0.0,1.0782354,0.0,0.0,nan,0.0,0.0,0.0,0.0,0.021655947,0.008887611,-0.0003427267,-0.0067819953,-0.0056633074,0.017190037,0.00077585556,0.0,0.0,0.0,0.0,0.0,0.0
565675015,565573846,-0.031054221,-0.052558392,-0.09285693,0.039440632,-0.053678513,-0.022037745,-0.019240152,-0.028651856,-0.07858248,-0.022408485,0.015949607,-2.2562037,0.0,1.0782354,0.0,0.0,nan,0.0,0.0,0.0,0.0,0.021655947,0.008887611,-0.0003427267,-0.0067819953,-0.10519277,0.09438302,0.008812519,0.0,0.0,0.0,0.0,0.0,0.0
565685116,565583869,-0.031054221,-0.052558392,-0.09285693,0.039440632,-0.053678513,-0.022037745,-0.019240152,-0.028651856,-0.07858248,-0.022408485,0.015949607,-2.2562037,0.0,1.0782354,0.0,0.0,nan,0.0,0.0,0.0,0.0,0.006453812,0.0077310875,0.001742281,-0.005413115,0.09095632,0.04906755,-0.006198732,0.0,0.0,0.0,0.0,0.0,0.0
565695046,565593885,-0.031054221,-0.052558392,-0.09285693,0.039440632,-0.053678513,-0.022037745,-0.01865835,-0.02988051,-0.08393782,-0.021931648,0.014336944,-2.258871,0.0,1.0782354,0.0,0.0,nan,0.0,0.0,0.0,0.0,0.006453812,0.0077310875,0.001742281,-0.005413115,-0.02299801,0.03424563,0.0023665526,0.0,0.0,0.0,0.0,0.0,0.0
565705022,565603904,-0.031054221,-0.052558392,-0.09285693,0.039440632,-0.053678513,-0.022037745,-0.01865835,-0.02988051,-0.08393782,-0.021931648,0.014336944,-2.258871,0.0,1.0782354,0.0,0.0,nan,0.0,0.0,0.0,0.0,0.006453812,0.0077310875,0.001742281,-0.005413115,0.03174133,0.032773737,-0.0017364938,0.0,0.0,0.0,0.0,0.0,0.0
565715959,565613924,-0.031054221,-0.052558392,-0.09285693,0.039440632,-0.053678513,-0.022037745,-0.01865835,-0.02988051,-0.08393782,-0.021931648,0.014336944,-2.258871,0.0,1.2329931,0.0,0.0,nan,0.0,0.0,0.0,0.0,0.006453812,0.0077310875,0.001742281,-0.005413115,0.043305825,0.036120214,-0.0025739523,0.0,0.0,0.0,0.0,0.0,0.0
565725861,565623947,-0.0071045347,-0.046303533,-0.12199929,0.036673546,-0.04989493,-0.03087926,-0.01865835,-0.02988051,-0.08393782,-0.021931648,0.014336944,-2.258871,0.0,1.2329931,0.0,0.0,nan,0.0,0.0,0.0,0.0,0.006453812,0.0077310875,0.001742281,-0.005413115,-0.04550846,-0.042142812,0.0022456327,0.0,0.0,0.0,0.0,0.0,0.0
565735208,565633963,-0.0071045347,-0.046303533,-0.12199929,0.036673546,-0.04989493,-0.03087926,-0.018981881,-0.026225965,-0.08749667,-0.023663044,0.019189835,-2.2580147,0.0,1.2329931,0.0,0.0,nan,0.0,0.0,0.0,0.0,0.006453812,0.0077310875,0.001742281,-0.005413115,-0.05017185,0.09750042,0.0052150553,0.0,0.0,0.0,0.0,0.0,0.0
565745463,565643981,-0.0071045347,-0.046303533,-0.12199929,0.036673546,-0.04989493,-0.03087926,-0.018981881,-0.026225965,-0.08749667,-0.023663044,0.019189835,-2.2580147,0.0,1.2329931,0.0,0.0,nan,0.0,0.0,0.0,0.0,0.006453812,0.0077310875,0.001742281,-0.005413115,0.019717036,0.01637109,-0.0011344573,0.0,0.0,0.0,0.0,0.0,0.0
565755313,565654000,-0.0071045347,-0.046303533,-0.12199929,0.036673546,-0.04989493,-0.03087926,-0.018981881,-0.026225965,-0.08749667,-0.023663044,0.019189835,-2.2580147,0.0,1.2329931,0.0,0.0,nan,0.0,0.0,0.0,0.0,0.027781293,0.006860897,-0.0019054413,-0.010971069,-0.10190483,0.05038267,0.007974065,0.0,0.0,0.0,0.0,0.0,0.0
565765268,565664019,-0.0071045347,-0.046303533,-0.12199929,0.036673546,-0.04989493,-0.03087926,-0.019326422,-0.027720043,-0.09120702,-0.02331376,0.017405987,-2.2609088,0.0,1.2329931,0.0,0.0,nan,0.0,0.0,0.0,0.0,0.027781293,0.006860897,-0.0019054413,-0.010971069,-0.036705416,-0.009328567,0.0024362232,0.0,0.0,0.0,0.0,0.0,0.0
565775300,565674038,-0.0071045347,-0.046303533,-0.12199929,0.036673546,-0.04989493,-0.03087926,-0.019326422,-0.027720043,-0.09120702,-0.02331376,0.017405987,-2.2609088,0.0,1.2001913,0.0,0.0,nan,0.0,0.0,0.0,0.0,0.027781293,0.006860897,-0.0019054413,-0.010971069,0.06401324,0.059186764,-0.003824369,0.0,0.0,0.0,0.0,0.0,0.0
565785189,565684057,-0.0071045347,-0.046303533,-0.12199929,0.036673546,-0.04989493,-0.03087926,-0.019326422,-0.027720043,-0.09120702,-0.02331376,0.017405987,-2.2609088,0.0,1.2001913,0.0,0.0,nan,0.0,0.0,0.0,0.0,0.027781293,0.006860897,-0.0019054413,-0.010971069,-0.009914907,0.096455246,0.0023591304,0.0,0.0,0.0,0.0,0.0,0.0
565795251,565694077,-0.0071045347,-0.046303533,-0.12199929,0.036673546,-0.04989493,-0.03087926,-0.019809572,-0.028105995,-0.098515235,-0.022909641,0.015730381,-2.2672567,0.0,1.2001913,0.0,0.0,nan,0.0,0.0,0.0,0.0,0.027781293,0.006860897,-0.0019054413,-0.010971069,-0.00066250045,-0.02517,-0.00053440104,0.0,0.0,0.0,0.0,0.0,0.0
565805251,565704096,-0.0071045347,-0.046303533,-0.12199929,0.036673546,-0.04989493,-0.03087926,-0.019809572,-0.028105995,-0.098515235,-0.022909641,0.015730381,-2.2672567,0.0,1.2001913,0.0,0.0,nan,0.0,0.0,0.0,0.0,0.027781293,0.006860897,-0.0019054413,-0.010971069,-0.010422899,0.090731524,0.0023304855,0.0,0.0,0.0,0.0,0.0,0.0
565815603,565714115,-0.0071045347,-0.046303533,-0.12199929,0.036673546,-0.04989493,-0.03087926,-0.019809572,-0.028105995,-0.098515235,-0.022909641,0.015730381,-2.2672567,0.0,1.2001913,0.0,0.0,nan,0.0,0.0,0.0,0.0,0.027781293,0.006860897,-0.0019054413,-0.010971069,-0.06999574,-0.122912966,0.0014539387,0.0,0.0,0.0,0.0,0.0,0.0
565825445,565724134,-0.0071045347,-0.046303533,-0.12199929,0.036673546,-0.04989493,-0.03087926,-0.019809572,-0.028105995,-0.098515235,-0.022909641,0.015730381,-2.2672567,0.0,1.2001913,0.0,0.0,nan,0.0,0.0,0.0,0.0,0.00021536648,0.0061881617,0.0022382513,-0.0046628714,0.03909192,0.1418661,-0.00088500784,0.0,0.0,0.0,0.0,0.0,0.0
565835413,565734154,-0.0071045347,-0.046303533,-0.12199929,0.036673546,-0.04989493,-0.03087926,-0.018195746,-0.030067021,-0.10529633,-0.022677183,0.013730764,-2.2716277,0.0,1.2001913,0.0,0.0,nan,0.0,0.0,0.0,0.0,0.00021536648,0.0061881617,0.0022382513,-0.0046628714,-0.0020670511,0.041000143,0.00096734066,0.0,0.0,0.0,0.0,0.0,0.0
565846243,565744173,-0.018958416,-0.025274195,-0.10296757,0.03231001,-0.04684007,-0.03762245,-0.018195746,-0.030067021,-0.10529633,-0.022677183,0.013730764,-2.2716277,0.0,1.1579452,0.0,0.0,nan,0.0,0.0,0.0,0.0,0.00021536648,0.0061881617,0.0022382513,-0.0046628714,-0.07746925,0.05282094,0.0064358716,0.0,0.0,0.0,0.0,0.0,0.0
565855483,565754194,-0.018958416,-0.025274195,-0.10296757,0.03231001,-0.04684007,-0.03762245,-0.018195746,-0.030067021,-0.10529633,-0.022677183,0.013730764,-2.2716277,0.0,1.1579452,0.0,0.0,nan,0.0,0.0,0.0,0.0,0.00021536648,0.0061881617,0.0022382513,-0.0046628714,0.08263347,0.058161784,-0.005368248,0.0,0.0,0.0,0.0,0.0,0.0
565865413,565764211,-0.018958416,-0.025274195,-0.10296757,0.03231001,-0.04684007,-0.03762245,-0.017247159,-0.028080907,-0.10903287,-0.02291727,0.017120123,-2.2707367,0.0,1.1579452,0.0,0.0,nan,0.0,0.0,0.0,0.0,0.00021536648,0.0061881617,0.0022382513,-0.0046628714,-0.10755194,-0.057265,0.0059442334,0.0,0.0,0.0,0.0,0.0,0.0
565875347,565774230,-0.018958416,-0.025274195,-0.10296757,0.03231001,-0.04684007,-0.03762245,-0.017247159,-0.028080907,-0.10903287,-0.02291727,0.017120123,-2.2707367,0.0,1.1579452,0.0,0.0,nan,0.0,0.0,0.0,0.0,0.00021536648,0.0061881617,0.0022382513,-0.0046628714,0.032936208,0.07965811,-0.0010693389,0.0,0.0,0.0,0.0,0.0,0.0
565885419,565784250,-0.018958416,-0.025274195,-0.10296757,0.03231001,-0.04684007,-0.03762245,-0.017247159,-0.028080907,-0.10903287,-0.02291727,0.017120123,-2.2707367,0.0,1.1579452,0.0,0.0,nan,0.0,0.0,0.0,0.0,0.00021536648,0.0061881617,0.0022382513,-0.0046628714,-0.048038322,0.03693812,0.0041757068,0.0,0.0,0.0,0.0,0.0,0.0
565895589,565794269,-0.018958416,-0.025274195,-0.10296757,0.03231001,-0.04684007,-0.03762245,-0.017058149,-0.029547438,-0.11319553,-0.022439003,0.015368581,-2.2742765,0.0,1.1579452,0.0,0.0,nan,0.0,0.0,0.0,0.0,0.001286462,0.0043540075,0.0015495569,-0.0068982244,-0.023519322,-0.0064220275,0.0015675704,0.0,0.0,0.0,0.0,0.0,0.0
565905558,565804289,-0.018958416,-0.025274195,-0.10296757,0.03231001,-0.04684007,-0.03762245,-0.017058149,-0.029547438,-0.11319553,-0.022439003,0.015368581,-2.2742765,0.0,1.2027559,0.0,0.0,nan,0.0,0.0,0.0,0.0,0.001286462,0.0043540075,0.0015495569,-0.0068982244,-0.0783962,0.13505426,0.007515469,0.0,0.0,0.0,0.0,0.0,0.0
565915903,565814307,-0.018958416,-0.025274195,-0.10296757,0.03231001,-0.04684007,-0.03762245,-0.017058149,-0.029547438,-0.11319553,-0.022439003,0.015368581,-2.2742765,0.0,1.2027559,0.0,0.0,nan,0.0,0.0,0.0,0.0,0.001286462,0.0043540075,0.0015495569,-0.0068982244,0.042256925,0.11295968,-0.0014030975,0.0,0.0,0.0,0.0,0.0,0.0
565925514,565824326,-0.018958416,-0.025274195,-0.10296757,0.03231001,-0.04684007,-0.03762245,-0.017058149,-0.029547438,-0.11319553,-0.022439003,0.015368581,-2.2742765,0.0,1.2027559,0.0,0.0,nan,0.0,0.0,0.0,0.0,0.001286462,0.0043540075,0.0015495569,-0.0068982244,0.015247458,-0.03348373,-0.0019301608,0.0,0.0,0.0,0.0,0.0,0.0
565935612,565834347,-0.018958416,-0.025274195,-0.10296757,0.03231001,-0.04684007,-0.03762245,-0.016700735,-0.032072887,-0.120732315,-0.022166729,0.013347745,-2.2823668,0.0,1.2027559,0.0,0.0,nan,0.0,0.0,0.0,0.0,0.001286462,0.0043540075,0.0015495569,-0.0068982244,-0.058986016,0.058411073,0.0052952827,0.0,0.0,0.0,0.0,0.0,0.0
565945551,565844365,-0.018958416,-0.025274195,-0.10296757,0.03231001,-0.04684007,-0.03762245,-0.016700735,-0.032072887,-0.120732315,-0.022166729,0.013347745,-2.2823668,0.0,1.2027559,0.0,0.0,nan,0.0,0.0,0.0,0.0,0.001286462,0.0043540075,0.0015495569,-0.0068982244,0.10521523,-0.080372386,-0.010464496,0.0,0.0,0.0,0.0,0.0,0.0
565955529,565854384,-0.018958416,-0.025274195,-0.10296757,0.03231001,-0.04684007,-0.03762245,-0.016700735,-0.032072887,-0.120732315,-0.022166729,0.013347745,-2.2823668,0.0,1.2027559,0.0,0.0,nan,0.0,0.0,0.0,0.0,0.001286462,0.0043540075,0.0015495569,-0.0068982244,-0.122546256,0.022452023,0.008772522,0.0,0.0,0.0,0.0,0.0,0.0
565965724,565864403,-0.018958416,-0.025274195,-0.10296757,0.03231001,-0.04684007,-0.03762245,-0.016197689,-0.03281862,-0.124690555,-0.02171278,0.011738777,-2.2861185,0.0,1.2027559,0.0,0.0,nan,0.0,0.0,0.0,0.0,0.003808573,0.0077164993,0.0021508522,-0.0047528744,-0.024091493,0.10651897,0.0035142987,0.0,0.0,0.0,0.0,0.0,0.0
565976307,565874423,-0.0033629388,-0.062096797,-0.17715888,0.029127836,-0.046167016,-0.059423685,-0.016197689,-0.03281862,-0.124690555,-0.02171278,0.011738777,-2.2861185,0.0,1.2105584,0.0,0.0,nan,0.0,0.0,0.0,0.0,0.003808573,0.0077164993,0.0021508522,-0.0047528744,0.08920347,0.11826794,-0.0051465933,0.0,0.0,0.0,0.0,0.0,0.0
565985566,565884442,-0.0033629388,-0.062096797,-0.17715888,0.029127836,-0.046167016,-0.059423685,-0.016197689,-0.03281862,-0.124690555,-0.02171278,0.011738777,-2.2861185,0.0,1.2105584,0.0,0.0,nan,0.0,0.0,0.0,0.0,0.003808573,0.0077164993,0.0021508522,-0.0047528744,-0.14941157,0.03144982,0.010542486,0.0,0.0,0.0,0.0,0.0,0.0
565995685,565894461,-0.0033629388,-0.062096797,-0.17715888,0.029127836,-0.046167016,-0.059423685,-0.017342798,-0.029551059,-0.122734755,-0.022960424,0.017931342,-2.280742,0.0,1.2105584,0.0,0.0,nan,0.0,0.0,0.0,0.0,0.003808573,0.0077164993,0.0021508522,-0.0047528744,0.051473394,0.037891146,-0.0031889817,0.0,0.0,0.0,0.0,0.0,0.0
566005669,565904480,-0.0033629388,-0.062096797,-0.17715888,0.029127836,-0.046167016,-0.059423685,-0.017342798,-0.029551059,-0.122734755,-0.022960424,0.017931342,-2.280742,0.0,1.2105584,0.0,0.0,nan,0.0,0.0,0.0,0.0,0.003808573,0.0077164993,0.0021508522,-0.0047528744,-0.0025168525,-0.034912992,-0.00064193044,0.0,0.0,0.0,0.0,0.0,0.0
566015983,565914499,-0.0033629388,-0.062096797,-0.17715888,0.029127836,-0.046167016,-0.059423685,-0.017342798,-0.029551059,-0.122734755,-0.022960424,0.017931342,-2.280742,0.0,1.2105584,0.0,0.0,nan,0.0,0.0,0.0,0.0,0.003808573,0.0077164993,0.0021508522,-0.0047528744,-0.069726475,0.099713124,0.0065958113,0.0,0.0,0.0,0.0,0.0,0.0
566025753,565924518,-0.0033629388,-0.062096797,-0.17715888,0.029127836,-0.046167016,-0.059423685,-0.017342798,-0.029551059,-0.122734755,-0.022960424,0.017931342,-2.280742,0.0,1.2105584,0.0,0.0,nan,0.0,0.0,0.0,0.0,0.003808573,0.0077164993,0.0021508522,-0.0047528744,0.06593329,0.0020546017,-0.0050630844,0.0,0.0,0.0,0.0,0.0,0.0
566035929,565934538,-0.0033629388,-0.062096797,-0.17715888,0.029127836,-0.046167016,-0.059423685,-0.01724001,-0.030594302,-0.12769704,-0.022745848,0.015835404,-2.288861,0.0,1.0969398,0.0,0.0,nan,0.0,0.0,0.0,0.0,-0.00029456615,0.011895314,0.0040786453,-0.0015974641,-0.010464363,0.14161699,0.0028378332,0.0,0.0,0.0,0.0,0.0,0.0
566045725,565944557,-0.0033629388,-0.062096797,-0.17715888,0.029127836,-0.046167016,-0.059423685,-0.01724001,-0.030594302,-0.12769704,-0.022745848,0.015835404,-2.288861,0.0,1.0969398,0.0,0.0,nan,0.0,0.0,0.0,0.0,-0.00029456615,0.011895314,0.0040786453,-0.0015974641,-0.11272396,-0.0052059903,0.007588239,0.0,0.0,0.0,0.0,0.0,0.0
566055707,565954576,-0.0033629388,-0.062096797,-0.17715888,0.029127836,-0.046167016,-0.059423685,-0.01724001,-0.030594302,-0.12769704,-0.022745848,0.015835404,-2.288861,0.0,1.0969398,0.0,0.0,nan,0.0,0.0,0.0,0.0,-0.00029456615,0.011895314,0.0040786453,-0.0015974641,0.17431211,0.03817587,-0.013708385,0.0,0.0,0.0,0.0,0.0,0.0
566065789,565964595,-0.0033629388,-0.062096797,-0.17715888,0.029127836,-0.046167016,-0.059423685,-0.016524043,-0.032116033,-0.13206618,-0.022283792,0.014089823,-2.292974,0.0,1.0969398,0.0,0.0,nan,0.0,0.0,0.0,0.0,-0.00029456615,0.011895314,0.0040786453,-0.0015974641,-0.1412993,0.015254638,0.009757792,0.0,0.0,0.0,0.0,0.0,0.0
566075731,565974614,-0.0033629388,-0.062096797,-0.17715888,0.029127836,-0.046167016,-0.059423685,-0.016524043,-0.032116033,-0.13206618,-0.022283792,0.014089823,-2.292974,0.0,1.0969398,0.0,0.0,nan,0.0,0.0,0.0,0.0,-0.00029456615,0.011895314,0.0040786453,-0.0015974641,-0.012896234,-0.030598879,0.00022575469,0.0,0.0,0.0,0.0,0.0,0.0
566085944,565984636,-0.0033629388,-0.062096797,-0.17715888,0.029127836,-0.046167016,-0.059423685,-0.016524043,-0.032116033,-0.13206618,-0.022283792,0.014089823,-2.292974,0.0,1.0969398,0.0,0.0,nan,0.0,0.0,0.0,0.0,-0.00029456615,0.011895314,0.0040786453,-0.0015974641,0.124356784,0.136563,-0.00796684,0.0,0.0,0.0,0.0,0.0,0.0
566095999,565994653,-0.0033629388,-0.062096797,-0.17715888,0.029127836,-0.046167016,-0.059423685,-0.016647002,-0.03194021,-0.1366432,-0.021825552,0.012469411,-2.2971642,0.0,1.0969398,0.0,0.0,nan,0.0,0.0,0.0,0.0,-0.00029456615,0.011895314,0.0040786453,-0.0015974641,-0.10303665,-0.04896641,0.005891871,0.0,0.0,0.0,0.0,0.0,0.0
566106150,566004672,-0.0033629388,-0.062096797,-0.17715888,0.029127836,-0.046167016,-0.059423685,-0.016647002,-0.03194021,-0.1366432,-0.021825552,0.012469411,-2.2971642,0.0,1.2110803,0.0,0.0,nan,0.0,0.0,0.0,0.0,0.0084310025,0.008713119,0.0017422512,-0.0052849054,-0.08627022,0.108094625,0.0077819075,0.0,0.0,0.0,0.0,0.0,0.0
566117034,566014691,-0.0520953,-0.008341098,-0.14813243,0.02481246,-0.04314053,-0.059321404,-0.016647002,-0.03194021,-0.1366432,-0.021825552,0.012469411,-2.2971642,0.0,1.2110803,0.0,0.0,nan,0.0,0.0,0.0,0.0,0.0084310025,0.008713119,0.0017422512,-0.0052849054,0.19708467,0.07352696,-0.015294754,0.0,0.0,0.0,0.0,0.0,0.0
566125921,566024711,-0.0520953,-0.008341098,-0.14813243,0.02481246,-0.04314053,-0.059321404,-0.016647002,-0.03194021,-0.1366432,-0.021825552,0.012469411,-2.2971642,0.0,1.2110803,0.0,0.0,nan,0.0,0.0,0.0,0.0,0.0084310025,0.008713119,0.0017422512,-0.0052849054,-0.10532476,0.02588918,0.0077776588,0.0,0.0,0.0,0.0,0.0,0.0
566135998,566034730,-0.0520953,-0.008341098,-0.14813243,0.02481246,-0.04314053,-0.059321404,-0.013991393,-0.03316734,-0.13687316,-0.019327879,0.013899684,-2.2952466,0.0,1.2110803,0.0,0.0,nan,0.0,0.0,0.0,0.0,0.0084310025,0.008713119,0.0017422512,-0.0052849054,-0.13561586,-0.03945539,0.008180214,0.0,0.0,0.0,0.0,0.0,0.0
566145897,566044749,-0.0520953,-0.008341098,-0.14813243,0.02481246,-0.04314053,-0.059321404,-0.013991393,-0.03316734,-0.13687316,-0.019327879,0.013899684,-2.2952466,0.0,1.2110803,0.0,0.0,nan,0.0,0.0,0.0,0.0,0.0084310025,0.008713119,0.0017422512,-0.0052849054,0.23231035,0.15146099,-0.017875353,0.0,0.0,0.0,0.0,0.0,0.0
566155899,566054768,-0.0520953,-0.008341098,-0.14813243,0.02481246,-0.04314053,-0.059321404,-0.013991393,-0.03316734,-0.13687316,-0.019327879,0.013899684,-2.2952466,0.0,1.2110803,0.0,0.0,nan,0.0,0.0,0.0,0.0,0.0084310025,0.008713119,0.0017422512,-0.0052849054,-0.19536497,0.019305777,0.012945193,0.0,0.0,0.0,0.0,0.0,0.0
566166051,566064788,-0.0520953,-0.008341098,-0.14813243,0.02481246,-0.04314053,-0.059321404,-0.013470283,-0.034502566,-0.1409246,-0.018874168,0.012189031,-2.3027554,0.0,1.1572385,0.0,0.0,nan,0.0,0.0,0.0,0.0,0.0084310025,0.008713119,0.0017422512,-0.0052849054,-0.09946657,-0.062136006,0.0053230673,0.0,0.0,0.0,0.0,0.0,0.0
566176383,566074807,-0.0520953,-0.008341098,-0.14813243,0.02481246,-0.04314053,-0.059321404,-0.013470283,-0.034502566,-0.1409246,-0.018874168,0.012189031,-2.3027554,0.0,1.1572385,0.0,0.0,nan,0.0,0.0,0.0,0.0,0.009321183,0.007046394,0.00096711516,-0.0041146874,0.30746296,0.1134776,-0.025875172,0.0,0.0,0.0,0.0,0.0,0.0
566186094,566084836,-0.0520953,-0.008341098,-0.14813243,0.02481246,-0.04314053,-0.059321404,-0.013470283,-0.034502566,-0.1409246,-0.018874168,0.012189031,-2.3027554,0.0,1.1572385,0.0,0.0,nan,0.0,0.0,0.0,0.0,0.009321183,0.007046394,0.00096711516,-0.0041146874,-0.21264708,-0.0094680665,0.01324447,0.0,0.0,0.0,0.0,0.0,0.0
566196206,566094845,-0.0520953,-0.008341098,-0.14813243,0.02481246,-0.04314053,-0.059321404,-0.0136417225,-0.036129035,-0.14726587,-0.018510342,0.0105137825,-2.3074157,0.0,1.1572385,0.0,0.0,nan,0.0,0.0,0.0,0.0,0.009321183,0.007046394,0.00096711516,-0.0041146874,-0.11326387,0.050837,0.008732999,0.0,0.0,0.0,0.0,0.0,0.0
566206138,566104864,-0.0520953,-0.008341098,-0.14813243,0.02481246,-0.04314053,-0.059321404,-0.0136417225,-0.036129035,-0.14726587,-0.018510342,0.0105137825,-2.3074157,0.0,1.1572385,0.0,0.0,nan,0.0,0.0,0.0,0.0,0.009321183,0.007046394,0.00096711516,-0.0041146874,0.23252821,0.15472353,-0.017862268,0.0,0.0,0.0,0.0,0.0,0.0
566216171,566114883,-0.0520953,-0.008341098,-0.14813243,0.02481246,-0.04314053,-0.059321404,-0.0136417225,-0.036129035,-0.14726587,-0.018510342,0.0105137825,-2.3074157,0.0,1.1572385,0.0,0.0,nan,0.0,0.0,0.0,0.0,0.009321183,0.007046394,0.00096711516,-0.0041146874,-0.21503226,-0.121910915,0.010146693,0.0,0.0,0.0,0.0,0.0,0.0
566226110,566124902,-0.0520953,-0.008341098,-0.14813243,0.02481246,-0.04314053,-0.059321404,-0.0136417225,-0.036129035,-0.14726587,-0.018510342,0.0105137825,-2.3074157,0.0,1.1572385,0.0,0.0,nan,0.0,0.0,0.0,0.0,0.009321183,0.007046394,0.00096711516,-0.0041146874,-0.14450733,0.06975894,0.010937903,0.0,0.0,0.0,0.0,0.0,0.0
566236278,566134922,-0.0520953,-0.008341098,-0.14813243,0.02481246,-0.04314053,-0.059321404,-0.012098232,-0.035253353,-0.1540168,-0.018230677,0.008708,-2.3169773,0.0,1.1908948,0.0,0.0,nan,0.0,0.0,0.0,0.0,0.019064233,0.0053864494,-0.0011514202,-0.0065838695,0.25326756,0.08715945,-0.020590646,0.0,0.0,0.0,0.0,0.0,0.0
566246242,566144944,-0.0520953,-0.008341098,-0.14813243,0.02481246,-0.04314053,-0.059321404,-0.012098232,-0.035253353,-0.1540168,-0.018230677,0.008708,-2.3169773,0.0,1.1908948,0.0,0.0,nan,0.0,0.0,0.0,0.0,0.019064233,0.0053864494,-0.0011514202,-0.0065838695,-0.19155012,-0.07318441,0.010452335,0.0,0.0,0.0,0.0,0.0,0.0
566256094,566154960,-0.0520953,-0.008341098,-0.14813243,0.02481246,-0.04314053,-0.059321404,-0.012098232,-0.035253353,-0.1540168,-0.018230677,0.008708,-2.3169773,0.0,1.1908948,0.0,0.0,nan,0.0,0.0,0.0,0.0,0.019064233,0.0053864494,-0.0011514202,-0.0065838695,-0.046133734,0.10348192,0.0050490475,0.0,0.0,0.0,0.0,0.0,0.0
566266198,566164984,-0.0520953,-0.008341098,-0.14813243,0.02481246,-0.04314053,-0.059321404,-0.011511385,-0.037208844,-0.15881172,-0.017820597,0.007137656,-2.3218765,0.0,1.1908948,0.0,0.0,nan,0.0,0.0,0.0,0.0,0.019064233,0.0053864494,-0.0011514202,-0.0065838695,0.14508066,0.021381682,-0.011414111,0.0,0.0,0.0,0.0,0.0,0.0
566276893,566174998,0.005475077,-0.04862924,-0.16440718,0.03583312,-0.0457052,-0.07270455,-0.011511385,-0.037208844,-0.15881172,-0.017820597,0.007137656,-2.3218765,0.0,1.1908948,0.0,0.0,nan,0.0,0.0,0.0,0.0,0.019064233,0.0053864494,-0.0011514202,-0.0065838695,-0.06468834,0.12213293,0.006484269,0.0,0.0,0.0,0.0,0.0,0.0
566286293,566185020,0.005475077,-0.04862924,-0.16440718,0.03583312,-0.0457052,-0.07270455,-0.011511385,-0.037208844,-0.15881172,-0.017820597,0.007137656,-2.3218765,0.0,1.1908948,0.0,0.0,nan,0.0,0.0,0.0,0.0,0.019064233,0.0053864494,-0.0011514202,-0.0065838695,-0.10100231,-0.025376542,0.006386767,0.0,0.0,0.0,0.0,0.0,0.0
566296413,566195037,0.005475077,-0.04862924,-0.16440718,0.03583312,-0.0457052,-0.07270455,-0.013403506,-0.03402996,-0.1561323,-0.02036047,0.012599945,-2.316434,0.0,0.9793377,0.0,0.0,nan,0.0,0.0,0.0,0.0,0.019064233,0.0053864494,-0.0011514202,-0.0065838695,0.13484293,0.018795338,-0.010567648,0.0,0.0,0.0,0.0,0.0,0.0
566306327,566205056,0.005475077,-0.04862924,-0.16440718,0.03583312,-0.0457052,-0.07270455,-0.013403506,-0.03402996,-0.1561323,-0.02036047,0.012599945,-2.316434,0.0,0.9793377,0.0,0.0,nan,0.0,0.0,0.0,0.0,0.0072096735,0.007822104,0.0017097145,-0.006687999,-0.016052455,0.023670886,0.0016680207,0.0,0.0,0.0,0.0,0.0,0.0
566316373,566215075,0.005475077,-0.04862924,-0.16440718,0.03583312,-0.0457052,-0.07270455,-0.013403506,-0.03402996,-0.1561323,-0.02036047,0.012599945,-2.316434,0.0,0.9793377,0.0,0.0,nan,0.0,0.0,0.0,0.0,0.0072096735,0.007822104,0.0017097145,-0.006687999,-0.14169626,0.07133845,0.010798118,0.0,0.0,0.0,0.0,0.0,0.0
566326369,566225094,0.005475077,-0.04862924,-0.16440718,0.03583312,-0.0457052,-0.07270455,-0.013403506,-0.03402996,-0.1561323,-0.02036047,0.012599945,-2.316434,0.0,0.9793377,0.0,0.0,nan,0.0,0.0,0.0,0.0,0.0072096735,0.007822104,0.0017097145,-0.006687999,0.1485808,0.05311379,-0.011154173,0.0,0.0,0.0,0.0,0.0,0.0
566336250,566235114,0.005475077,-0.04862924,-0.16440718,0.03583312,-0.0457052,-0.07270455,-0.013077907,-0.036876794,-0.16014637,-0.019977093,0.01048398,-2.3228688,0.0,0.9793377,0.0,0.0,nan,0.0,0.0,0.0,0.0,0.0072096735,0.007822104,0.0017097145,-0.006687999,-0.045053627,0.080289364,0.004669327,0.0,0.0,0.0,0.0,0.0,0.0
566346483,566245133,0.005475077,-0.04862924,-0.16440718,0.03583312,-0.0457052,-0.07270455,-0.013077907,-0.036876794,-0.16014637,-0.019977093,0.01048398,-2.3228688,0.0,0.9793377,0.0,0.0,nan,0.0,0.0,0.0,0.0,0.0072096735,0.007822104,0.0017097145,-0.006687999,-0.15894996,0.015496169,0.010821026,0.0,0.0,0.0,0.0,0.0,0.0
566357106,566255152,0.0011955462,-0.022789625,-0.20024014,0.031695604,-0.041779995,-0.068345785,-0.013077907,-0.036876794,-0.16014637,-0.019977093,0.01048398,-2.3228688,0.0,0.95612526,0.0,0.0,nan,0.0,0.0,0.0,0.0,0.0072096735,0.007822104,0.0017097145,-0.006687999,0.11069322,0.04291371,-0.008013371,0.0,0.0,0.0,0.0,0.0,0.0
566366405,566265173,0.0011955462,-0.022789625,-0.20024014,0.031695604,-0.041779995,-0.068345785,-0.014895042,-0.03566875,-0.15346023,-0.021880388,0.01327312,-2.316102,0.0,0.95612526,0.0,0.0,nan,0.0,0.0,0.0,0.0,0.0072096735,0.007822104,0.0017097145,-0.006687999,-0.043963555,0.012652196,0.0034350508,0.0,0.0,0.0,0.0,0.0,0.0
566376813,566275191,0.0011955462,-0.022789625,-0.20024014,0.031695604,-0.041779995,-0.068345785,-0.014895042,-0.03566875,-0.15346023,-0.021880388,0.01327312,-2.316102,0.0,0.95612526,0.0,0.0,nan,0.0,0.0,0.0,0.0,-0.0019272417,0.0052884966,0.0023708306,-0.0060987473,-0.077810206,0.012096084,0.005724445,0.0,0.0,0.0,0.0,0.0,0.0
566386484,566285210,0.0011955462,-0.022789625,-0.20024014,0.031695604,-0.041779995,-0.068345785,-0.014895042,-0.03566875,-0.15346023,-0.021880388,0.01327312,-2.316102,0.0,0.95612526,0.0,0.0,nan,0.0,0.0,0.0,0.0,-0.0019272417,0.0052884966,0.0023708306,-0.0060987473,0.018117609,0.10995824,0.00043150803,0.0,0.0,0.0,0.0,0.0,0.0
566396458,566295229,0.0011955462,-0.022789625,-0.20024014,0.031695604,-0.041779995,-0.068345785,-0.013225914,-0.03616415,-0.15500893,-0.021235466,0.011554837,-2.320964,0.0,0.95612526,0.0,0.0,nan,0.0,0.0,0.0,0.0,-0.0019272417,0.0052884966,0.0023708306,-0.0060987473,0.043598626,-0.07036425,-0.0051290104,0.0,0.0,0.0,0.0,0.0,0.0
566406482,566305248,0.0011955462,-0.022789625,-0.20024014,0.031695604,-0.041779995,-0.068345785,-0.013225914,-0.03616415,-0.15500893,-0.021235466,0.011554837,-2.320964,0.0,0.95612526,0.0,0.0,nan,0.0,0.0,0.0,0.0,-0.0019272417,0.0052884966,0.0023708306,-0.0060987473,-0.047463614,0.13944225,0.0054568597,0.0,0.0,0.0,0.0,0.0,0.0
566416467,566315268,0.0011955462,-0.022789625,-0.20024014,0.031695604,-0.041779995,-0.068345785,-0.013225914,-0.03616415,-0.15500893,-0.021235466,0.011554837,-2.320964,0.0,0.95612526,0.0,0.0,nan,0.0,0.0,0.0,0.0,-0.0019272417,0.0052884966,0.0023708306,-0.0060987473,-0.05852116,0.04039104,0.0049719997,0.0,0.0,0.0,0.0,0.0,0.0
566426461,566325287,0.0011955462,-0.022789625,-0.20024014,0.031695604,-0.041779995,-0.068345785,-0.013225914,-0.03616415,-0.15500893,-0.021235466,0.011554837,-2.320964,0.0,1.1889381,0.0,0.0,nan,0.0,0.0,0.0,0.0,-0.0019272417,0.0052884966,0.0023708306,-0.0060987473,0.11118228,-0.06973255,-0.010680815,0.0,0.0,0.0,0.0,0.0,0.0
566436452,566335306,0.0011955462,-0.022789625,-0.20024014,0.031695604,-0.041779995,-0.068345785,-0.013284542,-0.03687252,-0.15949446,-0.02079773,0.009508491,-2.3308225,0.0,1.1889381,0.0,0.0,nan,0.0,0.0,0.0,0.0,-0.0019272417,0.0052884966,0.0023708306,-0.0060987473,-0.0037478379,0.06171438,0.0014403417,0.0,0.0,0.0,0.0,0.0,0.0
566446550,566345325,0.0011955462,-0.022789625,-0.20024014,0.031695604,-0.041779995,-0.068345785,-0.013284542,-0.03687252,-0.15949446,-0.02079773,0.009508491,-2.3308225,0.0,1.1889381,0.0,0.0,nan,0.0,0.0,0.0,0.0,-0.008381471,0.0064243153,0.003892731,-0.007466376,-0.07279456,0.055280354,0.0061982973,0.0,0.0,0.0,0.0,0.0,0.0
566456715,566355344,0.0011955462,-0.022789625,-0.20024014,0.031695604,-0.041779995,-0.068345785,-0.013284542,-0.03687252,-0.15949446,-0.02079773,0.009508491,-2.3308225,0.0,1.1889381,0.0,0.0,nan,0.0,0.0,0.0,0.0,-0.008381471,0.0064243153,0.003892731,-0.007466376,0.081019014,0.0018291787,-0.0063184584,0.0,0.0,0.0,0.0,0.0,0.0
566466634,566365364,0.0011955462,-0.022789625,-0.20024014,0.031695604,-0.041779995,-0.068345785,-0.013591934,-0.039099004,-0.15979181,-0.020471096,0.007813692,-2.3357148,0.0,1.1889381,0.0,0.0,nan,0.0,0.0,0.0,0.0,-0.008381471,0.0064243153,0.003892731,-0.007466376,-0.13187058,0.12547581,0.010857644,0.0,0.0,0.0,0.0,0.0,0.0
566476622,566375382,0.0011955462,-0.022789625,-0.20024014,0.031695604,-0.041779995,-0.068345785,-0.013591934,-0.039099004,-0.15979181,-0.020471096,0.007813692,-2.3357148,0.0,1.1889381,0.0,0.0,nan,0.0,0.0,0.0,0.0,-0.008381471,0.0064243153,0.003892731,-0.007466376,-0.022364762,-0.04771093,0.00047245057,0.0,0.0,0.0,0.0,0.0,0.0
566487326,566385402,-0.05047864,-0.06827619,-0.13737161,0.027437687,-0.042458057,-0.08149886,-0.013591934,-0.039099004,-0.15979181,-0.020471096,0.007813692,-2.3357148,0.0,1.2410707,0.0,0.0,nan,0.0,0.0,0.0,0.0,-0.008381471,0.0064243153,0.003892731,-0.007466376,0.12050573,0.039151564,-0.008932615,0.0,0.0,0.0,0.0,0.0,0.0
566496674,566395421,-0.05047864,-0.06827619,-0.13737161,0.027437687,-0.042458057,-0.08149886,-0.010937995,-0.034610726,-0.15733007,-0.017973185,0.0141586065,-2.3325331,0.0,1.2410707,0.0,0.0,nan,0.0,0.0,0.0,0.0,-0.008381471,0.0064243153,0.003892731,-0.007466376,-0.13109294,0.042710215,0.009708372,0.0,0.0,0.0,0.0,0.0,0.0
566506610,566405442,-0.05047864,-0.06827619,-0.13737161,0.027437687,-0.042458057,-0.08149886,-0.010937995,-0.034610726,-0.15733007,-0.017973185,0.0141586065,-2.3325331,0.0,1.2410707,0.0,0.0,nan,0.0,0.0,0.0,0.0,-0.008381471,0.0064243153,0.003892731,-0.007466376,0.19521508,0.027062962,-0.015923496,0.0,0.0,0.0,0.0,0.0,0.0
566516710,566415459,-0.05047864,-0.06827619,-0.13737161,0.027437687,-0.042458057,-0.08149886,-0.010937995,-0.034610726,-0.15733007,-0.017973185,0.0141586065,-2.3325331,0.0,1.2410707,0.0,0.0,nan,0.0,0.0,0.0,0.0,-0.00494875,0.0060127005,0.0031673051,-0.0071460605,-0.10460744,0.020478755,0.0076414957,0.0,0.0,0.0,0.0,0.0,0.0
566526594,566425479,-0.05047864,-0.06827619,-0.13737161,0.027437687,-0.042458057,-0.08149886,-0.010937995,-0.034610726,-0.15733007,-0.017973185,0.0141586065,-2.3325331,0.0,1.2410707,0.0,0.0,nan,0.0,0.0,0.0,0.0,-0.00494875,0.0060127005,0.0031673051,-0.0071460605,-0.07722695,0.08170323,0.006875203,0.0,0.0,0.0,0.0,0.0,0.0
566536636,566435498,-0.05047864,-0.06827619,-0.13737161,0.027437687,-0.042458057,-0.08149886,-0.011755723,-0.035737757,-0.1566407,-0.017684937,0.0120693445,-2.3389897,0.0,1.2410707,0.0,0.0,nan,0.0,0.0,0.0,0.0,-0.00494875,0.0060127005,0.0031673051,-0.0071460605,0.0786562,0.0010055264,-0.0061484547,0.0,0.0,0.0,0.0,0.0,0.0
566546660,566445517,-0.05047864,-0.06827619,-0.13737161,0.027437687,-0.042458057,-0.08149886,-0.011755723,-0.035737757,-0.1566407,-0.017684937,0.0120693445,-2.3389897,0.0,1.2410707,0.0,0.0,nan,0.0,0.0,0.0,0.0,-0.00494875,0.0060127005,0.0031673051,-0.0071460605,-0.067698225,0.018435966,0.005179885,0.0,0.0,0.0,0.0,0.0,0.0
566556924,566455537,-0.05047864,-0.06827619,-0.13737161,0.027437687,-0.042458057,-0.08149886,-0.012002522,-0.035593085,-0.15810312,-0.017243147,0.010720849,-2.34511,0.0,0.99807525,0.0,0.0,nan,0.0,0.0,0.0,0.0,-0.00494875,0.0060127005,0.0031673051,-0.0071460605,-0.035396032,-0.052895516,0.0012719102,0.0,0.0,0.0,0.0,0.0,0.0
566566737,566465556,-0.05047864,-0.06827619,-0.13737161,0.027437687,-0.042458057,-0.08149886,-0.012002522,-0.035593085,-0.15810312,-0.017243147,0.010720849,-2.34511,0.0,0.99807525,0.0,0.0,nan,0.0,0.0,0.0,0.0,-0.00494875,0.0060127005,0.0031673051,-0.0071460605,0.0019955253,0.14032733,0.0019191162,0.0,0.0,0.0,0.0,0.0,0.0
566577067,566475575,-0.05047864,-0.06827619,-0.13737161,0.027437687,-0.042458057,-0.08149886,-0.012002522,-0.035593085,-0.15810312,-0.017243147,0.010720849,-2.34511,0.0,0.99807525,0.0,0.0,nan,0.0,0.0,0.0,0.0,-0.00494875,0.0060127005,0.0031673051,-0.0071460605,0.11977836,-0.034386482,-0.010461926,0.0,0.0,0.0,0.0,0.0,0.0
566586965,566485594,-0.05047864,-0.06827619,-0.13737161,0.027437687,-0.042458057,-0.08149886,-0.012002522,-0.035593085,-0.15810312,-0.017243147,0.010720849,-2.34511,0.0,0.99807525,0.0,0.0,nan,0.0,0.0,0.0,0.0,0.0033634603,0.011199057,0.0035892688,-0.008798301,-0.1039426,0.08279577,0.008632098,0.0,0.0,0.0,0.0,0.0,0.0
566596955,566495613,-0.05047864,-0.06827619,-0.13737161,0.027437687,-0.042458057,-0.08149886,-0.008126743,-0.036874402,-0.1598872,-0.016818523,0.0087941885,-2.3518445,0.0,0.99807525,0.0,0.0,nan,0.0,0.0,0.0,0.0,0.0033634603,0.011199057,0.0035892688,-0.008798301,-0.015479662,-0.027071575,0.00050718663,0.0,0.0,0.0,0.0,0.0,0.0
566607586,566505634,0.024914797,-0.034871228,-0.17508571,0.027875423,-0.03900695,-0.07262039,-0.008126743,-0.036874402,-0.1598872,-0.016818523,0.0087941885,-2.3518445,0.0,0.99807525,0.0,0.0,nan,0.0,0.0,0.0,0.0,0.0033634603,0.011199057,0.0035892688,-0.008798301,0.12736484,0.014808417,-0.0099757165,0.0,0.0,0.0,0.0,0.0,0.0
566616860,566515657,0.024914797,-0.034871228,-0.17508571,0.027875423,-0.03900695,-0.07262039,-0.008126743,-0.036874402,-0.1598872,-0.016818523,0.0087941885,-2.3518445,0.0,1.0725677,0.0,0.0,nan,0.0,0.0,0.0,0.0,0.0033634603,0.011199057,0.0035892688,-0.008798301,-0.1912267,0.14899656,0.014432659,0.0,0.0,0.0,0.0,0.0,0.0
566626840,566525671,0.024914797,-0.034871228,-0.17508571,0.027875423,-0.03900695,-0.07262039,-0.0100566745,-0.035077494,-0.15453956,-0.020322084,0.012477398,-2.3463209,0.0,1.0725677,0.0,0.0,nan,0.0,0.0,0.0,0.0,0.0033634603,0.011199057,0.0035892688,-0.008798301,-0.12293161,-0.019529127,0.007917588,0.0,0.0,0.0,0.0,0.0,0.0
566636884,566535690,0.024914797,-0.034871228,-0.17508571,0.027875423,-0.03900695,-0.07262039,-0.0100566745,-0.035077494,-0.15453956,-0.020322084,0.012477398,-2.3463209,0.0,1.0725677,0.0,0.0,nan,0.0,0.0,0.0,0.0,0.0033634603,0.011199057,0.0035892688,-0.008798301,0.2635005,0.006359615,-0.02302227,0.0,0.0,0.0,0.0,0.0,0.0
566646943,566545714,0.024914797,-0.034871228,-0.17508571,0.027875423,-0.03900695,-0.07262039,-0.0100566745,-0.035077494,-0.15453956,-0.020322084,0.012477398,-2.3463209,0.0,1.0725677,0.0,0.0,nan,0.0,0.0,0.0,0.0,0.0033634603,0.011199057,0.0035892688,-0.008798301,-0.1329196,0.004900675,0.009082017,0.0,0.0,0.0,0.0,0.0,0.0
566657081,566555729,0.024914797,-0.034871228,-0.17508571,0.027875423,-0.03900695,-0.07262039,-0.011569783,-0.034972057,-0.15665235,-0.019917488,0.010861158,-2.3511033,0.0,1.0725677,0.0,0.0,nan,0.0,0.0,0.0,0.0,0.0005520731,0.0074408427,0.0029755495,-0.012671888,-0.0520261,0.044558574,0.0046045836,0.0,0.0,0.0,0.0,0.0,0.0
566666945,566565748,0.024914797,-0.034871228,-0.17508571,0.027875423,-0.03900695,-0.07262039,-0.011569783,-0.034972057,-0.15665235,-0.019917488,0.010861158,-2.3511033,0.0,1.0725677,0.0,0.0,nan,0.0,0.0,0.0,0.0,0.0005520731,0.0074408427,0.0029755495,-0.012671888,0.1951214,0.0896332,-0.014908612,0.0,0.0,0.0,0.0,0.0,0.0
566677271,566575773,0.024914797,-0.034871228,-0.17508571,0.027875423,-0.03900695,-0.07262039,-0.011569783,-0.034972057,-0.15665235,-0.019917488,0.010861158,-2.3511033,0.0,1.0725677,0.0,0.0,nan,0.0,0.0,0.0,0.0,0.0005520731,0.0074408427,0.0029755495,-0.012671888,-0.17796499,0.09343777,0.013191181,0.0,0.0,0.0,0.0,0.0,0.0
566687028,566585786,0.024914797,-0.034871228,-0.17508571,0.027875423,-0.03900695,-0.07262039,-0.011569783,-0.034972057,-0.15665235,-0.019917488,0.010861158,-2.3511033,0.0,1.3225243,0.0,0.0,nan,0.0,0.0,0.0,0.0,0.0005520731,0.0074408427,0.0029755495,-0.012671888,-0.11280304,-0.05941393,0.0062504592,0.0,0.0,0.0,0.0,0.0,0.0
566697019,566595806,0.024914797,-0.034871228,-0.17508571,0.027875423,-0.03900695,-0.07262039,-0.014357989,-0.0372467,-0.1601581,-0.019681215,0.008810997,-2.3611925,0.0,1.3225243,0.0,0.0,nan,0.0,0.0,0.0,0.0,0.0005520731,0.0074408427,0.0029755495,-0.012671888,0.15489706,0.1545953,-0.010596639,0.0,0.0,0.0,0.0,0.0,0.0
566706985,566605828,0.024914797,-0.034871228,-0.17508571,0.027875423,-0.03900695,-0.07262039,-0.014357989,-0.0372467,-0.1601581,-0.019681215,0.008810997,-2.3611925,0.0,1.3225243,0.0,0.0,nan,0.0,0.0,0.0,0.0,0.0005520731,0.0074408427,0.0029755495,-0.012671888,-0.121843874,-0.006457365,0.008149269,0.0,0.0,0.0,0.0,0.0,0.0
566717410,566615846,0.024914797,-0.034871228,-0.17508571,0.027875423,-0.03900695,-0.07262039,-0.014357989,-0.0372467,-0.1601581,-0.019681215,0.008810997,-2.3611925,0.0,1.3225243,0.0,0.0,nan,0.0,0.0,0.0,0.0,0.0005520731,0.0074408427,0.0029755495,-0.012671888,-0.08891354,-0.0067576333,0.0060545444,0.0,0.0,0.0,0.0,0.0,0.0
566727271,566625863,0.024914797,-0.034871228,-0.17508571,0.027875423,-0.03900695,-0.07262039,-0.015018901,-0.038854945,-0.16401413,-0.019251585,0.0071007013,-2.3662193,0.0,1.3225243,0.0,0.0,nan,0.0,0.0,0.0,0.0,0.004858196,0.0032958314,0.00062262267,-0.007731378,0.25770175,-0.0063117766,-0.022727039,0.0,0.0,0.0,0.0,0.0,0.0
566737751,566635883,-0.044608817,0.004876837,-0.10938049,0.022205591,-0.03321004,-0.07276106,-0.015018901,-0.038854945,-0.16401413,-0.019251585,0.0071007013,-2.3662193,0.0,1.3225243,0.0,0.0,nan,0.0,0.0,0.0,0.0,0.004858196,0.0032958314,0.00062262267,-0.007731378,-0.14070389,0.07255522,0.010772061,0.0,0.0,0.0,0.0,0.0,0.0
566747188,566645902,-0.044608817,0.004876837,-0.10938049,0.022205591,-0.03321004,-0.07276106,-0.015018901,-0.038854945,-0.16401413,-0.019251585,0.0071007013,-2.3662193,0.0,1.0330355,0.0,0.0,nan,0.0,0.0,0.0,0.0,0.004858196,0.0032958314,0.00062262267,-0.007731378,-0.07978299,0.005933599,0.005735557,0.0,0.0,0.0,0.0,0.0,0.0
566757255,566655922,-0.044608817,0.004876837,-0.10938049,0.022205591,-0.03321004,-0.07276106,-0.011394698,-0.03910973,-0.16270263,-0.01681757,0.0073406696,-2.3643942,0.0,1.0330355,0.0,0.0,nan,0.0,0.0,0.0,0.0,0.004858196,0.0032958314,0.00062262267,-0.007731378,0.1311657,0.036959514,-0.009905522,0.0,0.0,0.0,0.0,0.0,0.0
566767126,566665940,-0.044608817,0.004876837,-0.10938049,0.022205591,-0.03321004,-0.07276106,-0.011394698,-0.03910973,-0.16270263,-0.01681757,0.0073406696,-2.3643942,0.0,1.0330355,0.0,0.0,nan,0.0,0.0,0.0,0.0,0.004858196,0.0032958314,0.00062262267,-0.007731378,-0.12025534,0.025948068,0.00873818,0.0,0.0,0.0,0.0,0.0,0.0
566777490,566675959,-0.044608817,0.004876837,-0.10938049,0.022205591,-0.03321004,-0.07276106,-0.011394698,-0.03910973,-0.16270263,-0.01681757,0.0073406696,-2.3643942,0.0,1.0330355,0.0,0.0,nan,0.0,0.0,0.0,0.0,0.004858196,0.0032958314,0.00062262267,-0.007731378,-0.004443941,0.038083803,0.0010894075,0.0,0.0,0.0,0.0,0.0,0.0
