timestamp,timestamp_sample,lat,lon,alt,alt_ellipsoid,delta_alt,eph,epv,terrain_alt,lat_lon_reset_counter,alt_reset_counter,terrain_alt_valid,dead_reckoning
564943825,564942637,59.39622292753986,24.660573193047362,30.43663,42.53263,0.06750712,0.3934491,0.5859255,nan,2,2,0,0
564953555,564952652,59.39622292535282,24.660573195376415,30.437262,42.53326,0.06750712,0.39380664,0.58610874,nan,2,2,0,0
564963640,564962672,59.39622292319581,24.660573197402226,30.437891,42.53389,0.06750712,0.39416775,0.5862933,nan,2,2,0,0
564974389,564972691,59.396222921021646,24.660573203500714,30.438354,42.532116,0.06750712,0.3902636,0.5844096,nan,2,2,0,0
564984064,564982710,59.39622291885819,24.660573209218047,30.438814,42.532578,0.06750712,0.39058885,0.5845815,nan,2,2,0,0
564993820,564992730,59.39622291674622,24.660573214484735,30.439411,42.533173,0.06750712,0.39091745,0.5846797,nan,2,2,0,0
565003879,565002749,59.396222914582765,24.660573219511356,30.440016,42.533775,0.06750712,0.39124945,0.5848537,nan,2,2,0,0
565014086,565012770,59.39622291250939,24.66057322406627,30.440622,42.534386,0.06750712,0.39158487,0.585029,nan,2,2,0,0
565023847,565022788,59.39622291041026,24.660573228296887,30.441223,42.534985,0.06750712,0.39192376,0.5852056,nan,2,2,0,0
565033835,565032807,59.39622290832399,24.66057323212108,30.441818,42.53558,0.06750712,0.3922661,0.5853835,nan,2,2,0,0
565044000,565042827,59.3962229062163,24.66057323557254,30.442417,42.53618,0.06750712,0.3926119,0.58556265,nan,2,2,0,0
565053907,565052847,59.39622290415578,24.66057323863863,30.44301,42.536774,0.06750712,0.39296123,0.5857432,nan,2,2,0,0
565063914,565062864,59.39622290209096,24.66057324147308,30.443748,42.53751,0.06750712,0.39331412,0.58584386,nan,2,2,0,0
565073920,565072883,59.396222900021854,24.66057324388847,30.444473,42.538235,0.06750712,0.39367056,0.58602655,nan,2,2,0,0
565083935,565082905,59.396222897997774,24.660573246027997,30.4452,42.538963,0.06750712,0.3940306,0.58621055,nan,2,2,0,0
565094687,565092922,59.39622289530043,24.660573252589767,30.445736,42.535828,0.06750712,0.3901493,0.5843373,nan,2,2,0,0
565104028,565102941,59.396222892654556,24.66057325879144,30.44628,42.53637,0.06750712,0.39047366,0.5845087,nan,2,2,0,0
565114801,565112967,59.396222890085866,24.660573264550894,30.446836,42.536926,0.06750712,0.3908014,0.58468145,nan,2,2,0,0
565124152,565122980,59.396222887521475,24.660573269826006,30.4475,42.53759,0.06750712,0.39113253,0.58478,nan,2,2,0,0
565133968,565132999,59.39622288497422,24.660573274696794,30.448162,42.538254,0.06750712,0.39146703,0.5849548,nan,2,2,0,0
565144124,565143019,59.39622288247199,24.660573279209594,30.44882,42.53891,0.06750712,0.39180502,0.5851309,nan,2,2,0,0
565153987,565153037,59.39622287996119,24.660573283377033,30.449476,42.539566,0.06750712,0.39214644,0.5853083,nan,2,2,0,0
565164043,565163057,59.39622287751044,24.660573287197014,30.45013,42.540222,0.06750712,0.39249134,0.585487,nan,2,2,0,0
565174062,565173076,59.39622287502108,24.66057329058319,30.450785,42.54088,0.06750712,0.39283976,0.5856671,nan,2,2,0,0
565184089,565183095,59.396222872596034,24.66057329368719,30.451439,42.54153,0.06750712,0.39319173,0.5858484,nan,2,2,0,0
565194304,565193114,59.39622287014741,24.66057329648795,30.452236,42.542328,0.06750712,0.39354724,0.58594936,nan,2,2,0,0
565204115,565203134,59.39622286773739,24.66057329890755,30.45303,42.54312,0.06750712,0.39390635,0.5861329,nan,2,2,0,0
565214366,565213153,59.3962228653767,24.660573300945995,30.453829,42.543922,0.06750712,0.39426905,0.5863177,nan,2,2,0,0
565224274,565223172,59.3962228630267,24.660573302689627,30.454622,42.544716,0.06750712,0.3946354,0.58650386,nan,2,2,0,0
565234104,565233192,59.396222860666,24.66057330424373,30.45541,42.5455,0.06750712,0.39500543,0.58669144,nan,2,2,0,0
565244322,565243211,59.39622285833959,24.660573305425103,30.456186,42.54628,0.06750712,0.39537916,0.5868803,nan,2,2,0,0
565254340,565253230,59.39622285601104,24.660573306360096,30.45709,42.54718,0.06750712,0.39575657,0.58698314,nan,2,2,0,0
565265039,565263250,59.39622285312501,24.660573310262205,30.457773,42.54268,0.06750712,0.39156154,0.58500934,nan,2,2,0,0
565274261,565273269,59.39622285031405,24.660573313793684,30.458454,42.54336,0.06750712,0.39190012,0.58518577,nan,2,2,0,0
565284284,565283288,59.396222847518075,24.660573316960853,30.459137,42.544044,0.06750712,0.39224213,0.58536345,nan,2,2,0,0
565294343,565293307,59.39622284473069,24.660573319839532,30.459824,42.54473,0.06750712,0.39258763,0.58554244,nan,2,2,0,0
565304316,565303326,59.396222841969,24.660573322362318,30.460508,42.545418,0.06750712,0.39293665,0.5857228,nan,2,2,0,0
565314554,565313346,59.39622283923522,24.660573324531327,30.461197,42.546104,0.06750712,0.3932892,0.5859044,nan,2,2,0,0
565324375,565323365,59.39622283653146,24.660573326314967,30.462023,42.54693,0.06750712,0.39364535,0.5860054,nan,2,2,0,0
565334368,565333384,59.39622283388557,24.660573327808002,30.46285,42.54776,0.06750712,0.39400506,0.5861892,nan,2,2,0,0
565344535,565343403,59.39622283127185,24.66057332895779,30.463676,42.548584,0.06750712,0.39436838,0.5863744,nan,2,2,0,0
565355123,565353423,59.39622282813067,24.660573334750936,30.464365,42.5467,0.06750712,0.39042723,0.5844802,nan,2,2,0,0
565364502,565363442,59.39622282507312,24.660573340171343,30.465065,42.5474,0.06750712,0.39075428,0.58465266,nan,2,2,0,0
565374553,565373461,59.396222822097045,24.660573345204284,30.465775,42.54811,0.06750712,0.39108473,0.58482635,nan,2,2,0,0
565384531,565383480,59.39622281914025,24.660573349780258,30.466604,42.54894,0.06750712,0.39141858,0.5849252,nan,2,2,0,0
565394536,565393500,59.396222816189905,24.660573353928747,30.46744,42.549774,0.06750712,0.39175585,0.58510095,nan,2,2,0,0
565404603,565403519,59.39622281331889,24.66057335776768,30.46828,42.550613,0.06750712,0.39209658,0.5852781,nan,2,2,0,0
565414665,565413538,59.396222810458596,24.66057336120019,30.469126,42.55146,0.06750712,0.3924408,0.58545655,nan,2,2,0,0
565424511,565423557,59.39622280759401,24.660573364302078,30.469973,42.552307,0.06750712,0.3927885,0.58563626,nan,2,2,0,0
565434541,565433577,59.39622280478304,24.66057336702071,30.470833,42.55317,0.06750712,0.39313975,0.58581734,nan,2,2,0,0
565444613,565443596,59.39622280205138,24.660573369433997,30.471704,42.55404,0.06750712,0.39349458,0.5859997,nan,2,2,0,0
565454692,565453616,59.39622279932618,24.660573371440854,30.472712,42.555046,0.06750712,0.39385298,0.5861009,nan,2,2,0,0
565464698,565463638,59.39622279668029,24.660573373171847,30.473715,42.55605,0.06750712,0.394215,0.5862854,nan,2,2,0,0
565474784,565473654,59.39622279408159,24.660573374530113,30.47473,42.557064,0.06750712,0.39458063,0.5864713,nan,2,2,0,0
565485116,565483673,59.396222790588766,24.66057337819847,30.475494,42.55384,0.06750712,0.39060023,0.58456457,nan,2,2,0,0
565494706,565493692,59.3962227871431,24.66057338153832,30.476261,42.554607,0.06750712,0.3909292,0.5847376,nan,2,2,0,0
565504805,565503712,59.396222783811105,24.660573384429632,30.477053,42.5554,0.06750712,0.39126155,0.584912,nan,2,2,0,0
565515118,565513735,59.39622278049411,24.660573386962948,30.477991,42.55634,0.06750712,0.39159733,0.58501095,nan,2,2,0,0
565524789,565523750,59.396222777189976,24.660573389163545,30.478931,42.557278,0.06750712,0.39193657,0.58518744,nan,2,2,0,0
565534812,565533769,59.39622277398875,24.660573391145135,30.479881,42.558228,0.06750712,0.3922793,0.58536524,nan,2,2,0,0
565545191,565543788,59.396222770766094,24.6605733927561,30.480843,42.55919,0.06750712,0.3926255,0.58554435,nan,2,2,0,0
565554826,565553808,59.39622276758203,24.660573393945896,30.481804,42.56015,0.06750712,0.39297524,0.5857247,nan,2,2,0,0
565564953,565563835,59.3962227645352,24.660573394851404,30.482763,42.56111,0.06750712,0.39332855,0.58590645,nan,2,2,0,0
565574859,565573846,59.39622276150552,24.660573395453675,30.483744,42.56209,0.06750712,0.39368543,0.5860895,nan,2,2,0,0
565584991,565583869,59.396222758525134,24.660573395691635,30.484863,42.56321,0.06750712,0.3940459,0.5861909,nan,2,2,0,0
565594907,565593885,59.39622275558123,24.660573395769553,30.485985,42.56433,0.06750712,0.39440998,0.5863761,nan,2,2,0,0
565605313,565603904,59.396222752504386,24.660573400836185,30.486881,42.561604,0.06750712,0.3904593,0.58448154,nan,2,2,0,0
565615702,565613924,59.39622274948541,24.660573405471126,30.487793,42.562515,0.06750712,0.390787,0.58465403,nan,2,2,0,0
565624900,565623947,59.39622274653292,24.660573409653306,30.488712,42.563435,0.06750712,0.3911181,0.5848278,nan,2,2,0,0
565635035,565633963,59.39622274361472,24.6605734134059,30.489641,42.564365,0.06750712,0.3914526,0.58500284,nan,2,2,0,0
565645334,565643981,59.39622274075443,24.660573416865784,30.490704,42.565426,0.06750712,0.39179057,0.5851021,nan,2,2,0,0
565655004,565654000,59.39622273797777,24.660573419866594,30.491762,42.566486,0.06750712,0.39213198,0.5852793,nan,2,2,0,0
565665074,565664019,59.396222735258974,24.660573422564166,30.492832,42.567554,0.06750712,0.3924769,0.58545774,nan,2,2,0,0
565675007,565674038,59.396222732572355,24.66057342494797,30.49392,42.56864,0.06750712,0.39282537,0.58563757,nan,2,2,0,0
565685108,565684057,59.39622272992862,24.66057342684743,30.495012,42.569736,0.06750712,0.39317733,0.5858187,nan,2,2,0,0
565695037,565694077,59.39622272729775,24.660573428401538,30.496124,42.570847,0.06750712,0.3935329,0.58600116,nan,2,2,0,0
565705013,565704096,59.396222724720495,24.660573429667142,30.497252,42.571976,0.06750712,0.39389205,0.5861849,nan,2,2,0,0
565715947,565714115,59.39622272221612,24.660573430684263,30.498531,42.573254,0.06750712,0.39425483,0.5862865,nan,2,2,0,0
565725849,565724134,59.39622271901061,24.660573436224706,30.499493,42.570404,0.06750712,0.39033073,0.58440334,nan,2,2,0,0
565735200,565734154,59.39622271593805,24.660573441314504,30.500477,42.57139,0.06750712,0.39065734,0.5845753,nan,2,2,0,0
565745413,565744173,59.396222712874064,24.660573445856784,30.501478,42.57239,0.06750712,0.39098734,0.58474857,nan,2,2,0,0
565755305,565754194,59.39622270981008,24.66057345010214,30.502499,42.57341,0.06750712,0.39132077,0.5849231,nan,2,2,0,0
565765260,565764211,59.39622270689402,24.660573453894745,30.503544,42.574455,0.06750712,0.39165762,0.58509886,nan,2,2,0,0
565775292,565774230,59.39622270398871,24.66057345739885,30.50474,42.575653,0.06750712,0.39199793,0.58519834,nan,2,2,0,0
565785181,565784250,59.39622270113056,24.660573460555494,30.505941,42.576855,0.06750712,0.39234176,0.5853763,nan,2,2,0,0
565795243,565794269,59.39622269836889,24.660573463263596,30.507156,42.57807,0.06750712,0.3926891,0.58555555,nan,2,2,0,0
565805243,565804289,59.39622269567155,24.66057346560739,30.508387,42.5793,0.06750712,0.39303997,0.58573616,nan,2,2,0,0
565815556,565814307,59.39622269296992,24.660573467610035,30.509624,42.580536,0.06750712,0.3933944,0.58591807,nan,2,2,0,0
565825437,565824326,59.396222690351905,24.660573469218892,30.510881,42.581795,0.06750712,0.39375246,0.58610123,nan,2,2,0,0
565835403,565834347,59.396222687712466,24.660573470547675,30.512152,42.583065,0.06750712,0.3941141,0.5862858,nan,2,2,0,0
565846231,565844365,59.396222684839316,24.6605734751426,30.513266,42.580334,0.06750712,0.39021352,0.5843297,nan,2,2,0,0
565855474,565854384,59.39622268207335,24.660573479350052,30.514399,42.581467,0.06750712,0.39053923,0.5845012,nan,2,2,0,0
565865405,565864403,59.39622267934813,24.660573483075268,30.515553,42.582623,0.06750712,0.3908683,0.584674,nan,2,2,0,0
565875338,565874423,59.39622267664651,24.6605734863351,30.516724,42.583794,0.06750712,0.3912008,0.584848,nan,2,2,0,0
565885411,565884442,59.39622267406282,24.660573489165337,30.517906,42.584976,0.06750712,0.39153677,0.58502334,nan,2,2,0,0
565895581,565894461,59.39622267147269,24.660573491673386,30.519108,42.586178,0.06750712,0.3918762,0.58519995,nan,2,2,0,0
565905550,565904480,59.39622266894901,24.66057349387398,30.520452,42.58752,0.06750712,0.39221907,0.5852997,nan,2,2,0,0
565915891,565914499,59.39622266650468,24.660573495632352,30.521812,42.588882,0.06750712,0.39256546,0.5854784,nan,2,2,0,0
565925506,565924518,59.39622266403891,24.660573497024306,30.523184,42.590252,0.06750712,0.39291543,0.5856585,nan,2,2,0,0
565935604,565934538,59.39622266161602,24.66057349815514,30.524563,42.591633,0.06750712,0.3932689,0.58583987,nan,2,2,0,0
565945542,565944557,59.396222659242454,24.66057349885849,30.525951,42.59302,0.06750712,0.39362603,0.5860226,nan,2,2,0,0
565955521,565954576,59.39622265687102,24.660573499267024,30.527351,42.59442,0.06750712,0.39398673,0.5862067,nan,2,2,0,0
565965715,565964595,59.3962226545382,24.660573499532358,30.528757,42.595825,0.06750712,0.3943511,0.58639205,nan,2,2,0,0
565976294,565974614,59.39622265163286,24.660573504843267,30.529808,42.592606,0.06750712,0.3904063,0.58442163,nan,2,2,0,0
565985558,565984636,59.396222648772564,24.66057350975828,30.530888,42.593685,0.06750712,0.39073423,0.58459383,nan,2,2,0,0
565995677,565994653,59.396222645905844,24.660573514298456,30.531979,42.594776,0.06750712,0.39106554,0.5847673,nan,2,2,0,0
566005661,566004672,59.39622264316134,24.660573518390088,30.533096,42.595894,0.06750712,0.39140028,0.5849421,nan,2,2,0,0
566015933,566014691,59.39622264038465,24.66057352206266,30.534239,42.59704,0.06750712,0.39173844,0.5851181,nan,2,2,0,0
566025741,566024711,59.3962226376187,24.660573525349864,30.535389,42.598186,0.06750712,0.39208013,0.5852955,nan,2,2,0,0
566035921,566034730,59.39622263500285,24.660573528310664,30.536678,42.599476,0.06750712,0.3924253,0.58539546,nan,2,2,0,0
566045717,566044749,59.396222632374105,24.66057353087557,30.53799,42.60079,0.06750712,0.392774,0.5855749,nan,2,2,0,0
566055699,566054768,59.39622262978828,24.66057353300878,30.539322,42.60212,0.06750712,0.39312625,0.58575577,nan,2,2,0,0
566065781,566064788,59.39622262728605,24.660573534790313,30.54066,42.60346,0.06750712,0.39348206,0.5859379,nan,2,2,0,0
566075723,566074807,59.396222624775255,24.660573536281245,30.54202,42.60482,0.06750712,0.39384148,0.5861214,nan,2,2,0,0
566085935,566084836,59.39622262224945,24.66057353744998,30.543402,42.6062,0.06750712,0.39420456,0.58630615,nan,2,2,0,0
566095991,566094845,59.39622261985229,24.660573538294422,30.5448,42.607597,0.06750712,0.39457127,0.5864923,nan,2,2,0,0
566106111,566104864,59.39622261745298,24.660573538742966,30.546356,42.609154,0.06750712,0.3949417,0.5865946,nan,2,2,0,0
566117019,566114883,59.396222615939216,24.660573541387894,30.547485,42.605568,0.06750712,0.3908895,0.5846712,nan,2,2,0,0
566125913,566124902,59.396222614539084,24.66057354364745,30.548637,42.60672,0.06750712,0.39122236,0.58484524,nan,2,2,0,0
566135989,566134922,59.39622261317111,24.660573545584814,30.54981,42.60789,0.06750712,0.39155862,0.58502054,nan,2,2,0,0
566145889,566144944,59.39622261172596,24.66057354715787,30.551016,42.609097,0.06750712,0.39189836,0.5851972,nan,2,2,0,0
566155891,566154960,59.39622261036441,24.660573548362407,30.552244,42.610325,0.06750712,0.3922416,0.5853751,nan,2,2,0,0
566166043,566164984,59.39622260906721,24.66057354920053,30.553627,42.61171,0.06750712,0.39258835,0.5854752,nan,2,2,0,0
566176373,566174998,59.39622260762849,24.660573549750154,30.55502,42.6131,0.06750712,0.3929386,0.5856553,nan,2,2,0,0
566186086,566185020,59.39622260630127,24.660573549870186,30.556433,42.614513,0.06750712,0.3932925,0.58583665,nan,2,2,0,0
566196194,566195037,59.396222604997625,24.660573549731204,30.557858,42.615936,0.06750712,0.39364994,0.58601934,nan,2,2,0,0
566206130,566205056,59.39622260360392,24.660573549255282,30.5593,42.61738,0.06750712,0.39401102,0.5862034,nan,2,2,0,0
566216150,566215075,59.39622260232172,24.660573548503507,30.560757,42.618835,0.06750712,0.3943757,0.58638877,nan,2,2,0,0
566226102,566225094,59.39622260106096,24.66057354741479,30.56223,42.620308,0.06750712,0.3947441,0.5865755,nan,2,2,0,0
566236270,566235114,59.39622259971443,24.66057354603126,30.563854,42.621933,0.06750712,0.39511618,0.58667785,nan,2,2,0,0
566246231,566245133,59.39622259851372,24.660573544352914,30.565489,42.62357,0.06750712,0.39549196,0.58686674,nan,2,2,0,0
566256085,566255152,59.396222597345144,24.66057354237343,30.56713,42.62521,0.06750712,0.39587152,0.58705705,nan,2,2,0,0
566266190,566265173,59.396222596075795,24.660573540155994,30.568768,42.626846,0.06750712,0.39625484,0.5872487,nan,2,2,0,0
566276881,566275191,59.39622259388018,24.660573542544007,30.569893,42.6221,0.06750712,0.39196196,0.5852398,nan,2,2,0,0
566286285,566285210,59.39622259174462,24.660573544561394,30.571037,42.623245,0.06750712,0.39230528,0.58541787,nan,2,2,0,0
566296405,566295229,59.396222589570456,24.66057354619131,30.572306,42.624516,0.06750712,0.39265212,0.5855179,nan,2,2,0,0
566306319,566305248,59.39622258746919,24.66057354749482,30.57359,42.625797,0.06750712,0.3930025,0.5856981,nan,2,2,0,0
566316365,566315268,59.396222585462276,24.660573548442446,30.574898,42.627106,0.06750712,0.3933564,0.5858797,nan,2,2,0,0
566326361,566325287,59.39622258338673,24.660573549141585,30.576216,42.628426,0.06750712,0.39371395,0.58606255,nan,2,2,0,0
566336242,566335306,59.39622258136479,24.66057354950168,30.577549,42.629757,0.06750712,0.3940751,0.5862468,nan,2,2,0,0
566346472,566345325,59.39622257938575,24.66057354946799,30.578896,42.631104,0.06750712,0.39443985,0.58643234,nan,2,2,0,0
566357094,566355344,59.396222576591924,24.66057355233824,30.579786,42.629143,0.06750712,0.39048195,0.584457,nan,2,2,0,0
566366396,566365364,59.396222573903145,24.66057355479364,30.580702,42.63006,0.06750712,0.3908102,0.5846293,nan,2,2,0,0
566376802,566375382,59.39622257127443,24.660573556931062,30.581646,42.631,0.06750712,0.39114177,0.5848029,nan,2,2,0,0
566386475,566385402,59.396222568643566,24.66057355873787,30.582611,42.631966,0.06750712,0.3914768,0.5849778,nan,2,2,0,0
566396450,566395421,59.396222566051286,24.66057356011719,30.583595,42.63295,0.06750712,0.3918153,0.585154,nan,2,2,0,0
566406474,566405442,59.39622256352332,24.660573561189057,30.584612,42.63397,0.06750712,0.39215723,0.58533144,nan,2,2,0,0
566416459,566415459,59.396222560935335,24.660573561915573,30.58564,42.634995,0.06750712,0.39250267,0.58551025,nan,2,2,0,0
566426453,566425479,59.39622255846957,24.660573562269352,30.586811,42.636166,0.06750712,0.39285165,0.5856105,nan,2,2,0,0
566436444,566435498,59.396222556080986,24.66057356243361,30.587997,42.637352,0.06750712,0.39320415,0.58579147,nan,2,2,0,0
566446542,566445517,59.3962225536238,24.660573562241982,30.5892,42.638554,0.06750712,0.39356026,0.58597374,nan,2,2,0,0
566456707,566455537,59.39622255132311,24.66057356179344,30.590414,42.63977,0.06750712,0.39391994,0.5861573,nan,2,2,0,0
566466622,566465556,59.396222549095356,24.660573560921627,30.591648,42.641003,0.06750712,0.39428324,0.5863422,nan,2,2,0,0
566476614,566475575,59.39622254674107,24.660573559776058,30.592903,42.642258,0.06750712,0.3946502,0.5865285,nan,2,2,0,0
566487314,566485594,59.39622254522515,24.66057356405932,30.593836,42.63847,0.06750712,0.390654,0.5845402,nan,2,2,0,0
566496666,566495613,59.39622254375428,24.660573567921414,30.594793,42.639427,0.06750712,0.390984,0.58471316,nan,2,2,0,0
566506602,566505634,59.39622254219118,24.660573571442367,30.59577,42.640404,0.06750712,0.3913174,0.58488744,nan,2,2,0,0
566516702,566515657,59.396222540761045,24.660573574609536,30.596767,42.6414,0.06750712,0.39165425,0.585063,nan,2,2,0,0
566526585,566525671,59.396222539410225,24.660573577336592,30.597786,42.642418,0.06750712,0.39199457,0.58523977,nan,2,2,0,0
566536625,566535690,59.396222538033676,24.660573579671958,30.598831,42.643463,0.06750712,0.39233834,0.5854179,nan,2,2,0,0
566546652,566545714,59.39622253665071,24.66057358170198,30.5999,42.64453,0.06750712,0.39268562,0.58559734,nan,2,2,0,0
566556916,566555729,59.396222535336335,24.66057358335506,30.601103,42.645737,0.06750712,0.39303643,0.58569777,nan,2,2,0,0
566566729,566565748,59.39622253396837,24.66057358471543,30.602325,42.646957,0.06750712,0.3933908,0.5858794,nan,2,2,0,0
566577056,566575773,59.39622253262399,24.660573585688322,30.603567,42.6482,0.06750712,0.39374876,0.58606225,nan,2,2,0,0
566586957,566585786,59.39622253138468,24.660573586261112,30.60483,42.649464,0.06750712,0.39411032,0.58624655,nan,2,2,0,0
566596947,566595806,59.396222530134615,24.660573586467482,30.606112,42.650745,0.06750712,0.39447555,0.58643216,nan,2,2,0,0
566607573,566605828,59.3962225275831,24.66057358998001,30.606888,42.64694,0.06750712,0.3905108,0.5845304,nan,2,2,0,0
566616852,566615846,59.39622252508302,24.66057359321036,30.607817,42.647865,0.06750712,0.39083937,0.5846286,nan,2,2,0,0
566626831,566625863,59.396222522608674,24.66057359618169,30.608782,42.648834,0.06750712,0.39117134,0.5848022,nan,2,2,0,0
566636876,566635883,59.39622252013218,24.660573598805556,30.609774,42.649826,0.06750712,0.39150673,0.5849772,nan,2,2,0,0
566646935,566645902,59.39622251772001,24.660573601008256,30.610796,42.65085,0.06750712,0.39184558,0.5851534,nan,2,2,0,0
566657072,566655922,59.396222515385034,24.660573602846647,30.611853,42.6519,0.06750712,0.3921879,0.5853309,nan,2,2,0,0
566666937,566665940,59.39622251309723,24.660573604341792,30.61293,42.65298,0.06750712,0.39253372,0.5855098,nan,2,2,0,0
566677207,566675959,59.39622251085659,24.660573605426293,30.614038,42.65409,0.06750712,0.3928831,0.5856899,nan,2,2,0,0
566687020,566685979,59.396222508624525,24.660573606279158,30.615326,42.655376,0.06750712,0.39323598,0.5857905,nan,2,2,0,0
566697011,566695998,59.39622250643535,24.66057360678456,30.616646,42.656696,0.06750712,0.39359245,0.58597285,nan,2,2,0,0
566706977,566706017,59.39622250424616,24.660573606959343,30.617987,42.658035,0.06750712,0.39395252,0.5861565,nan,2,2,0,0
566717399,566716037,59.396222502155624,24.66057360679088,30.619356,42.65941,0.06750712,0.39431623,0.58634144,nan,2,2,0,0
566727263,566726056,59.39622250006293,24.660573606300222,30.620747,42.660797,0.06750712,0.3946836,0.58652776,nan,2,2,0,0
566737739,566736075,59.396222498709975,24.66057360673192,30.621773,42.657284,0.06750712,0.39068082,0.5846136,nan,2,2,0,0
566747179,566746094,59.39622249742564,24.66057360689407,30.622944,42.658455,0.06750712,0.39101118,0.58471197,nan,2,2,0,0
566757247,566756114,59.39622249613272,24.660573606715072,30.624146,42.659657,0.06750712,0.39134496,0.58488625,nan,2,2,0,0
566767118,566766132,59.39622249483978,24.66057360627706,30.625378,42.66089,0.06750712,0.39168215,0.58506185,nan,2,2,0,0
566777479,566776152,59.39622249357688,24.66057360545368,30.626648,42.66216,0.06750712,0.39202282,0.5852387,nan,2,2,0,0
566787175,566786173,59.39622249237831,24.66057360438392,30.627947,42.663456,0.06750712,0.39236698,0.58541685,nan,2,2,0,0
566797257,566796190,59.39622249117758,24.660573602928793,30.62927,42.66478,0.06750712,0.39271468,0.5855963,nan,2,2,0,0
566807124,566806209,59.39622249000472,24.660573601164106,30.630621,42.66613,0.06750712,0.3930659,0.5857771,nan,2,2,0,0
566817274,566816228,59.39622248886833,24.66057359923306,30.632118,42.66763,0.06750712,0.3934207,0.58587795,nan,2,2,0,0
566827288,566826248,59.39622248777052,24.660573596914542,30.633642,42.66915,0.06750712,0.39377907,0.5860609,nan,2,2,0,0
566837272,566836267,59.39622248671561,24.660573594273828,30.635197,42.670708,0.06750712,0.39414108,0.5862452,nan,2,2,0,0
566847363,566846286,59.396222485645666,24.660573591447804,30.63679,42.6723,0.06750712,0.39450672,0.5864308,nan,2,2,0,0
566858075,566856306,59.39622248389818,24.660573593509415,30.63777,42.668648,0.06750712,0.3905355,0.58452916,nan,2,2,0,0
566867416,566866325,59.39622248217428,24.66057359529095,30.6388,42.669678,0.06750712,0.39086446,0.584702,nan,2,2,0,0
566877401,566876345,59.39622248046112,24.66057359677977,30.640001,42.67088,0.06750712,0.39119685,0.5848006,nan,2,2,0,0
566887273,566886363,59.396222478855144,24.66057359779689,30.641232,42.67211,0.06750712,0.39153263,0.58497554,nan,2,2,0,0
566897351,566896382,59.39622247726848,24.660573598485495,30.642504,42.67338,0.06750712,0.39187193,0.5851518,nan,2,2,0,0
566907375,566906402,59.396222475683956,24.66057359874873,30.64382,42.674698,0.06750712,0.39221466,0.58532935,nan,2,2,0,0
566917467,566916421,59.396222474215215,24.660573598765577,30.645172,42.67605,0.06750712,0.3925609,0.5855082,nan,2,2,0,0
566927551,566926440,59.39622247274218,24.660573598420218,30.64656,42.677437,0.06750712,0.3929107,0.5856884,nan,2,2,0,0
566937582,566936459,59.39622247126272,24.660573597660015,30.647991,42.67887,0.06750712,0.39326403,0.5858699,nan,2,2,0,0
566947535,566946478,59.396222469858294,24.660573596623948,30.64957,42.68045,0.06750712,0.39362097,0.5859709,nan,2,2,0,0
566957533,566956497,59.396222468498905,24.660573595217254,30.651175,42.682053,0.06750712,0.3939815,0.5861546,nan,2,2,0,0
566967511,566966517,59.3962224671824,24.66057359350732,30.652807,42.683685,0.06750712,0.39434567,0.58633953,nan,2,2,0,0
566978234,566976539,59.39622246524194,24.660573597569467,30.653881,42.68012,0.06750712,0.39040253,0.5844496,nan,2,2,0,0
566987466,566986556,59.39622246336367,24.66057360122309,30.654995,42.681232,0.06750712,0.3907303,0.58462185,nan,2,2,0,0
566997789,566996574,59.39622246142965,24.66057360451661,30.656174,42.68241,0.06750712,0.39106146,0.5847954,nan,2,2,0,0
567007771,567006593,59.39622245945703,24.660573607530054,30.657516,42.683754,0.06750712,0.39139608,0.58489424,nan,2,2,0,0
567017934,567016613,59.396222457372915,24.66057361000441,30.658901,42.68514,0.06750712,0.39173412,0.58506995,nan,2,2,0,0
567027726,567026637,59.396222455177316,24.660573612059704,30.660326,42.68656,0.06750712,0.39207566,0.585247,nan,2,2,0,0
567037656,567036651,59.396222452885205,24.660573614190806,30.66177,42.688007,0.06750712,0.39242068,0.58542526,nan,2,2,0,0
567047846,567046670,59.39622245086328,24.660573616100795,30.663284,42.68952,0.06750712,0.39276925,0.5856049,nan,2,2,0,0
567057643,567056689,59.396222448807045,24.66057361709264,30.66482,42.691055,0.06750712,0.39312136,0.5857858,nan,2,2,0,0
567067757,567066709,59.396222446941636,24.660573617785463,30.666386,42.692623,0.06750712,0.39347708,0.5859681,nan,2,2,0,0
567078584,567076729,59.39622244513197,24.660573617905495,30.668095,42.694332,0.06750712,0.39383638,0.5860693,nan,2,2,0,0
567087650,567086747,59.396222443290135,24.660573618048694,30.669832,42.696068,0.06750712,0.3941993,0.5862537,nan,2,2,0,0
567097857,567096767,59.39622244149121,24.660573617534872,30.671612,42.69785,0.06750712,0.3945659,0.5864395,nan,2,2,0,0
567108662,567106786,59.39622243974157,24.660573619508035,30.672794,42.693836,0.06750712,0.39058205,0.5845365,nan,2,2,0,0
567118139,567116805,59.396222437646735,24.660573621247458,30.674011,42.695053,0.06750712,0.3909118,0.5847094,nan,2,2,0,0
567127868,567126824,59.3962224353675,24.660573622797347,30.675224,42.696266,0.06750712,0.39124498,0.5848837,nan,2,2,0,0
567137894,567136843,59.39622243350639,24.660573623766034,30.676666,42.69771,0.06750712,0.39158154,0.5849827,nan,2,2,0,0
567148089,567146862,59.396222431649555,24.660573624218788,30.67815,42.699192,0.06750712,0.3919216,0.58515906,nan,2,2,0,0
567157842,567156881,59.39622242983131,24.660573624749457,30.679693,42.700733,0.06750712,0.3922652,0.58533674,nan,2,2,0,0
567167860,567166901,59.39622242745345,24.66057362467997,30.681288,42.702328,0.06750712,0.39261228,0.58551574,nan,2,2,0,0
567178160,567176920,59.39622242557732,24.660573623917657,30.682966,42.704006,0.06750712,0.39296287,0.58569604,nan,2,2,0,0
567187954,567186939,59.39622242328737,24.66057362271944,30.684702,42.70574,0.06750712,0.3933171,0.58587766,nan,2,2,0,0
567198165,567196958,59.396222421379065,24.660573621125327,30.686493,42.707535,0.06750712,0.39367485,0.5860606,nan,2,2,0,0
567208358,567206977,59.39622241937643,24.660573618905783,30.688444,42.709484,0.06750712,0.39403626,0.58616203,nan,2,2,0,0
567218147,567216996,59.39622241769542,24.660573616382997,30.69048,42.71152,0.06750712,0.39440134,0.5863471,nan,2,2,0,0
567228130,567227030,59.396222416140915,24.660573614117123,30.692587,42.713627,0.06750712,0.39477006,0.5865336,nan,2,2,0,0
567238040,567237035,59.39622241436127,24.66057361173543,30.694717,42.71576,0.06750712,0.39514247,0.5867214,nan,2,2,0,0
567248344,567247055,59.3962224130469,24.66057360932215,30.696995,42.718037,0.06750712,0.39551863,0.5869106,nan,2,2,0,0
567258029,567257073,59.396222411245816,24.660573607285812,30.699295,42.720337,0.06750712,0.39589858,0.5871011,nan,2,2,0,0
567268865,567267092,59.3962224088851,24.6605736108552,30.701176,42.715828,0.06750712,0.3916706,0.5850351,nan,2,2,0,0
567278310,567277111,59.39622240712047,24.66057361431929,30.703135,42.71779,0.06750712,0.39201126,0.5852117,nan,2,2,0,0
567288311,567287130,59.39622240523148,24.66057361716848,30.705341,42.719994,0.06750712,0.39235535,0.5853897,nan,2,2,0,0
567298196,567297149,59.39622240339179,24.660573620744184,30.707634,42.72229,0.06750712,0.39270303,0.58556896,nan,2,2,0,0
567308189,567307169,59.39622240200025,24.66057362307113,30.71011,42.724762,0.06750712,0.39305425,0.5857495,nan,2,2,0,0
567318263,567317188,59.39622240137844,24.66057362459154,30.712954,42.727608,0.06750712,0.39340907,0.5859314,nan,2,2,0,0
567328320,567327207,59.39622240057009,24.660573625796076,30.716042,42.730698,0.06750712,0.3937675,0.58611465,nan,2,2,0,0
567338255,567337226,59.39622239979176,24.660573627124855,30.719473,42.734127,0.06750712,0.39412957,0.58621603,nan,2,2,0,0
567348230,567347245,59.39622239944442,24.66057362746179,30.723091,42.737747,0.06750712,0.39449543,0.5864014,nan,2,2,0,0
567359026,567357264,59.39622239932007,24.660573629468647,30.726284,42.73687,0.06750712,0.39052424,0.58450365,nan,2,2,0,0
567368619,567367283,59.396222399322205,24.660573630188843,30.729925,42.740513,0.06750712,0.39085335,0.58467627,nan,2,2,0,0
567378542,567377303,59.39622239948303,24.66057363004775,30.73397,42.74456,0.06750712,0.39118594,0.5848502,nan,2,2,0,0
567388348,567387322,59.39622239931792,24.660573629363356,30.738287,42.748875,0.06750712,0.3915221,0.5850254,nan,2,2,0,0
567398458,567397340,59.39622239958164,24.660573627518644,30.74303,42.753616,0.06750712,0.3918618,0.5851247,nan,2,2,0,0
567408501,567407359,59.39622240041357,24.66057362469683,30.748055,42.758644,0.06750712,0.392205,0.585302,nan,2,2,0,0
567418401,567417379,59.39622240118547,24.66057362051886,30.753475,42.76406,0.06750712,0.39255193,0.5854807,nan,2,2,0,0
567428559,567427400,59.39622240123264,24.660573615890247,30.75939,42.769978,0.06750712,0.3929026,0.58566064,nan,2,2,0,0
567438361,567437417,59.39622240140846,24.660573610589868,30.765738,42.776325,0.06750712,0.39325696,0.5858419,nan,2,2,0,0
567448362,567447438,59.39622240173223,24.66057360449559,30.772474,42.783062,0.06750712,0.39361495,0.5860245,nan,2,2,0,0
567458377,567457457,59.3962224024784,24.66057359696935,30.779673,42.79026,0.06750712,0.39397684,0.58620846,nan,2,2,0,0
567468622,567467474,59.396222403248146,24.66057358869343,30.787548,42.798134,0.06750712,0.39434263,0.5863101,nan,2,2,0,0
567479819,567477493,59.396222403456115,24.66057358699192,30.794842,42.800026,0.06750712,0.39038855,0.5844239,nan,2,2,0,0
567488515,567487512,59.39622240328888,24.66057358383528,30.802437,42.807617,0.06750712,0.3907179,0.58459604,nan,2,2,0,0
567498673,567497531,59.396222403211695,24.66057358047016,30.810337,42.81552,0.06750712,0.39105085,0.58476937,nan,2,2,0,0
567508585,567507549,59.39622240331888,24.660573576942895,30.818607,42.82379,0.06750712,0.39138737,0.58494407,nan,2,2,0,0
567518590,567517569,59.39622240329316,24.660573572762818,30.82736,42.832542,0.06750712,0.39172766,0.58512,nan,2,2,0,0
567528670,567527598,59.39622240384205,24.66057356705812,30.836887,42.84207,0.06750712,0.39207175,0.58521956,nan,2,2,0,0
567538691,567537606,59.39622240408435,24.66057356087961,30.846733,42.851913,0.06750712,0.3924198,0.58539766,nan,2,2,0,0
567548938,567547625,59.396222404088626,24.660573554395754,30.85688,42.86206,0.06750712,0.39277163,0.5855771,nan,2,2,0,0
567558583,567557644,59.39622240376058,24.660573548644727,30.867216,42.8724,0.06750712,0.39312744,0.58575785,nan,2,2,0,0
567569018,567567663,59.39622240374986,24.660573543175886,30.877718,42.8829,0.06750712,0.39348727,0.5859399,nan,2,2,0,0
567578716,567577682,59.39622240382277,24.660573537264817,30.8885,42.893684,0.06750712,0.39385116,0.5861233,nan,2,2,0,0
567588782,567587701,59.396222403777735,24.660573530555638,30.899649,42.90483,0.06750712,0.39421904,0.586308,nan,2,2,0,0
567598844,567597722,59.396222403258854,24.660573524320274,30.9113,42.91648,0.06750712,0.39459088,0.5864098,nan,2,2,0,0
567609518,567607739,59.39622239995257,24.660573523981235,30.9216,42.920372,0.06750712,0.39057285,0.5845106,nan,2,2,0,0
567618980,567617758,59.39622239717589,24.6605735229936,30.931997,42.930767,0.06750712,0.3909069,0.5846834,nan,2,2,0,0
567628760,567627777,59.39622239425127,24.66057352169641,30.942528,42.9413,0.06750712,0.39124483,0.58485746,nan,2,2,0,0
567639036,567637796,59.39622239144028,24.660573520561368,30.953194,42.951965,0.06750712,0.39158654,0.5850328,nan,2,2,0,0
567648824,567647815,59.396222389167484,24.660573519097817,30.963943,42.962715,0.06750712,0.39193204,0.5852095,nan,2,2,0,0
567658962,567657834,59.39622238680892,24.660573517210995,30.974981,42.97375,0.06750712,0.39228135,0.5853092,nan,2,2,0,0
567669006,567667853,59.3962223845061,24.660573515446313,30.986006,42.984776,0.06750712,0.39263436,0.585488,nan,2,2,0,0
567678963,567677872,59.396222382730755,24.660573513096203,30.997139,42.99591,0.06750712,0.3929912,0.58566815,nan,2,2,0,0
567688917,567687891,59.396222380852485,24.660573509872176,31.008348,43.00712,0.06750712,0.39335203,0.5858496,nan,2,2,0,0
567698982,567697910,59.39622237904711,24.66057350708827,31.019428,43.018196,0.06750712,0.39371678,0.58603233,nan,2,2,0,0
567709150,567707928,59.396222377456134,24.660573503761057,31.03058,43.02935,0.06750712,0.39408538,0.58621645,nan,2,2,0,0
567718903,567717947,59.39622237600456,24.66057349990107,31.04177,43.040543,0.06750712,0.39445782,0.5864019,nan,2,2,0,0
567729148,567727966,59.39622237460443,24.66057349666862,31.052994,43.051765,0.06750712,0.39483416,0.58650386,nan,2,2,0,0
567739647,567737985,59.39622237375534,24.660573491810464,31.063189,43.055775,0.06750712,0.390763,0.58459246,nan,2,2,0,0
567749296,567748004,59.3962223728355,24.660573486844918,31.073349,43.065937,0.06750712,0.39110032,0.58476585,nan,2,2,0,0
567759091,567758023,59.396222372033584,24.660573481875158,31.083433,43.07602,0.06750712,0.39144123,0.58494055,nan,2,2,0,0
567769157,567768042,59.396222371281,24.66057347686117,31.093655,43.086243,0.06750712,0.39178574,0.58511657,nan,2,2,0,0
567779181,567778061,59.39622237087575,24.660573470929045,31.103815,43.0964,0.06750712,0.3921338,0.5852938,nan,2,2,0,0
567789441,567788080,59.39622237030325,24.66057346558234,31.114086,43.106674,0.06750712,0.39248562,0.5853937,nan,2,2,0,0
567799159,567798100,59.39622237023677,24.660573459662846,31.124401,43.11699,0.06750712,0.392841,0.58557314,nan,2,2,0,0
567809287,567808118,59.39622236987657,24.660573454059232,31.13476,43.127346,0.06750712,0.39319995,0.5857539,nan,2,2,0,0
567819085,567818137,59.39622236998805,24.660573447817544,31.145117,43.137703,0.06750712,0.39356282,0.58593595,nan,2,2,0,0
567829289,567828156,59.39622237018533,24.660573441577966,31.155548,43.148136,0.06750712,0.39392924,0.58611935,nan,2,2,0,0
567839205,567838175,59.39622237016602,24.660573435275214,31.165993,43.15858,0.06750712,0.39429942,0.5863041,nan,2,2,0,0
567849357,567848193,59.39622237078353,24.66057342874082,31.17643,43.169018,0.06750712,0.3946735,0.5864902,nan,2,2,0,0
567860107,567858212,59.39622236677826,24.660573432750326,31.185776,43.172226,0.06750712,0.39063624,0.5845067,nan,2,2,0,0
567869246,567868232,59.396222363186816,24.660573436224947,31.195118,43.18157,0.06750712,0.39097157,0.5846795,nan,2,2,0,0
567879558,567878250,59.39622235996416,24.66057343934158,31.204432,43.19088,0.06750712,0.39131048,0.58485353,nan,2,2,0,0
567889264,567888269,59.39622235640487,24.660573442270795,31.214052,43.2005,0.06750712,0.39165288,0.58502895,nan,2,2,0,0
567899267,567898289,59.39622235356816,24.66057344462512,31.223644,43.210094,0.06750712,0.39199883,0.5852056,nan,2,2,0,0
567909267,567908308,59.39622235128035,24.660573446722523,31.233118,43.219566,0.06750712,0.3923484,0.5853836,nan,2,2,0,0
567919635,567918326,59.39622234847795,24.660573448784138,31.24304,43.229492,0.06750712,0.39270157,0.5854837,nan,2,2,0,0
567929558,567928345,59.39622234646674,24.660573450205575,31.252972,43.23942,0.06750712,0.39305842,0.5856638,nan,2,2,0,0
567939423,567938364,59.39622234467639,24.66057345152172,31.2628,43.249252,0.06750712,0.39341897,0.58584523,nan,2,2,0,0
567949411,567948383,59.39622234273378,24.660573452568322,31.2729,43.25935,0.06750712,0.39378315,0.58602804,nan,2,2,0,0
567959464,567958403,59.39622234165527,24.66057345297264,31.283033,43.269485,0.06750712,0.39415112,0.58621216,nan,2,2,0,0
567969490,567968421,59.396222340525306,24.660573453244293,31.29314,43.27959,0.06750712,0.3945229,0.5863976,nan,2,2,0,0
567980417,567978440,59.396222345491154,24.66057344987496,31.302721,43.284206,0.06750712,0.39051664,0.58449996,nan,2,2,0,0
567989635,567988473,59.396222350917995,24.66057344627188,31.31249,43.293976,0.06750712,0.39085025,0.5845981,nan,2,2,0,0
567999437,567998478,59.39622235635341,24.660573442319226,31.32231,43.303795,0.06750712,0.39118755,0.58477163,nan,2,2,0,0
568009439,568008503,59.39622236202468,24.660573437867498,31.332146,43.313633,0.06750712,0.39152816,0.58494645,nan,2,2,0,0
568019498,568018516,59.39622236784605,24.660573433451564,31.341993,43.32348,0.06750712,0.3918724,0.5851226,nan,2,2,0,0
568029618,568028539,59.396222373517325,24.660573428629206,31.352015,43.3335,0.06750712,0.39222044,0.58529997,nan,2,2,0,0
568039562,568038554,59.39622237955954,24.66057342339621,31.362036,43.34352,0.06750712,0.39257187,0.5854787,nan,2,2,0,0
568049943,568048573,59.39622238584405,24.660573418114783,31.372137,43.353622,0.06750712,0.392927,0.58557904,nan,2,2,0,0
568059733,568058592,59.396222392017044,24.66057341264804,31.382355,43.363842,0.06750712,0.39328596,0.58575994,nan,2,2,0,0
568069956,568068611,59.39622239840233,24.660573406747496,31.392624,43.37411,0.06750712,0.3936485,0.58594215,nan,2,2,0,0
568079621,568078633,59.39622240483906,24.660573400724815,31.402855,43.384342,0.06750712,0.39401478,0.5861257,nan,2,2,0,0
568089866,568088649,59.39622241109783,24.66057339503275,31.413183,43.39467,0.06750712,0.3943848,0.5863105,nan,2,2,0,0
568099706,568098668,59.39622241811779,24.660573388555203,31.423573,43.40506,0.06750712,0.39475864,0.5864968,nan,2,2,0,0
568110498,568108687,59.39622241994888,24.66057338494581,31.432764,43.407913,0.06750712,0.39071178,0.5845861,nan,2,2,0,0
568120096,568118706,59.39622242137046,24.6605733819092,31.442,43.417145,0.06750712,0.3910471,0.58468455,nan,2,2,0,0
568130138,568128725,59.39622242336451,24.660573378398777,31.451435,43.426582,0.06750712,0.39138594,0.5848587,nan,2,2,0,0
568139743,568138744,59.39622242535857,24.6605733746883,31.461082,43.43623,0.06750712,0.3917284,0.5850342,nan,2,2,0,0
568150087,568148767,59.396222427622796,24.660573371249477,31.470486,43.445633,0.06750712,0.3920743,0.58521104,nan,2,2,0,0
568159846,568158783,59.39622243015933,24.660573367888567,31.479889,43.455036,0.06750712,0.39242378,0.5853891,nan,2,2,0,0
568170128,568168801,59.39622243208905,24.660573364611892,31.489695,43.464844,0.06750712,0.39277697,0.5855685,nan,2,2,0,0
568180111,568178825,59.39622243458699,24.66057336104672,31.499641,43.47479,0.06750712,0.3931337,0.58566904,nan,2,2,0,0
568189833,568188845,59.39622243727575,24.66057335750892,31.50952,43.484665,0.06750712,0.3934941,0.5858506,nan,2,2,0,0
568200048,568198858,59.396222439437054,24.66057335437123,31.51952,43.494667,0.06750712,0.3938583,0.5860335,nan,2,2,0,0
568210004,568208878,59.39622244214083,24.660573350692342,31.529648,43.504795,0.06750712,0.39422616,0.58621776,nan,2,2,0,0
568219942,568218896,59.396222444833874,24.660573346971336,31.53992,43.515068,0.06750712,0.39459762,0.5864033,nan,2,2,0,0
568230132,568228915,59.39622244709596,24.660573343427217,31.55034,43.52549,0.06750712,0.3949728,0.58659023,nan,2,2,0,0
568240011,568238934,59.39622244996483,24.660573339752542,31.560883,43.53603,0.06750712,0.39535204,0.5866927,nan,2,2,0,0
568249994,568248952,59.39622245279724,24.660573335490337,31.571583,43.54673,0.06750712,0.39573497,0.5868818,nan,2,2,0,0
568259990,568258971,59.396222454971415,24.660573331817766,31.582567,43.557716,0.06750712,0.39612144,0.5870723,nan,2,2,0,0
568270432,568268991,59.396222457396455,24.660573327844062,31.593756,43.5689,0.06750712,0.39651203,0.5872642,nan,2,2,0,0
568280655,568279009,59.396222457861725,24.660573330823812,31.60433,43.571396,0.06750712,0.39214385,0.5852528,nan,2,2,0,0
568290404,568289030,59.39622245812975,24.660573333544544,31.615278,43.582344,0.06750712,0.3924929,0.5854311,nan,2,2,0,0
568300122,568299047,59.39622245807185,24.66057333630529,31.62655,43.593616,0.06750712,0.39284554,0.5856107,nan,2,2,0,0
568310494,568309066,59.39622245816406,24.66057333885545,31.638163,43.60523,0.06750712,0.3932019,0.5857111,nan,2,2,0,0
568320128,568319085,59.39622245852642,24.66057334120135,31.6501,43.617165,0.06750712,0.39356187,0.58589286,nan,2,2,0,0
568330493,568329104,59.3962224589874,24.660573343677804,31.662466,43.62953,0.06750712,0.39392567,0.5860759,nan,2,2,0,0
568340266,568339126,59.39622245949987,24.660573346238497,31.675295,43.64236,0.06750712,0.3942932,0.5862603,nan,2,2,0,0
568350271,568349142,59.396222459963006,24.660573348946592,31.688568,43.655632,0.06750712,0.39466447,0.5864461,nan,2,2,0,0
568361194,568359161,59.39622245835703,24.660573345052914,31.700687,43.663464,0.06750712,0.39064088,0.58454233,nan,2,2,0,0
568370577,568369188,59.39622245656881,24.660573341218196,31.713324,43.6761,0.06750712,0.3909745,0.58464056,nan,2,2,0,0
568380135,568379199,59.39622245457689,24.660573337320304,31.72635,43.68913,0.06750712,0.39131173,0.5848143,nan,2,2,0,0
568390331,568389218,59.39622245236413,24.66057333362457,31.739742,43.70252,0.06750712,0.3916527,0.58498937,nan,2,2,0,0
568400272,568399237,59.39622245006347,24.66057333019207,31.753454,43.716232,0.06750712,0.39199743,0.58516574,nan,2,2,0,0
568410563,568409256,59.39622244799006,24.660573326677437,31.767471,43.730247,0.06750712,0.39234585,0.5853434,nan,2,2,0,0
568420372,568419275,59.39622244627474,24.66057332300276,31.781778,43.744556,0.06750712,0.39269802,0.58552235,nan,2,2,0,0
568430420,568429296,59.39622244501398,24.66057331916804,31.79638,43.759155,0.06750712,0.39305407,0.58570266,nan,2,2,0,0
568440360,568439313,59.39622244393334,24.660573315040615,31.811283,43.77406,0.06750712,0.39341408,0.5858034,nan,2,2,0,0
568450330,568449332,59.396222442625394,24.660573310475172,31.82636,43.78914,0.06750712,0.3937781,0.58598584,nan,2,2,0,0
568460390,568459351,59.39622244111592,24.660573306002387,31.841545,43.80432,0.06750712,0.39414614,0.5861696,nan,2,2,0,0
568470407,568469370,59.396222439919484,24.66057330139483,31.856897,43.819675,0.06750712,0.39451826,0.58635473,nan,2,2,0,0
568481137,568479389,59.39622244395263,24.66057330082625,31.871489,43.828987,0.06750712,0.3905077,0.5844626,nan,2,2,0,0
568490571,568489408,59.39622244774777,24.66057329962382,31.886179,43.843674,0.06750712,0.390842,0.58463496,nan,2,2,0,0
568500501,568499427,59.396222451813074,24.660573298099195,31.900845,43.85834,0.06750712,0.39117995,0.5847335,nan,2,2,0,0
568510857,568509446,59.39622245592556,24.6605732961513,31.915615,43.87311,0.06750712,0.39152163,0.584908,nan,2,2,0,0
568520470,568519465,59.3962224595406,24.660573293860153,31.930553,43.88805,0.06750712,0.3918671,0.5850838,nan,2,2,0,0
568530857,568529484,59.39622246378387,24.660573290794055,31.94539,43.902885,0.06750712,0.3922163,0.5852609,nan,2,2,0,0
568540469,568539502,59.39622246789635,24.660573287445782,31.960249,43.917747,0.06750712,0.3925693,0.5854393,nan,2,2,0,0
568550566,568549521,59.39622247145564,24.66057328428914,31.975174,43.93267,0.06750712,0.39292607,0.5856191,nan,2,2,0,0
568560599,568559540,59.396222475934756,24.660573279759493,31.990017,43.947514,0.06750712,0.3932866,0.5858001,nan,2,2,0,0
568570677,568569559,59.396222479862836,24.660573275164566,32.00502,43.962517,0.06750712,0.39365083,0.5859011,nan,2,2,0,0
568580593,568579579,59.396222483726596,24.66057327040328,32.02003,43.977528,0.06750712,0.39401895,0.5860843,nan,2,2,0,0
568591253,568589597,59.39622248823361,24.660573265098687,32.034885,43.992382,0.06750712,0.39439103,0.5862689,nan,2,2,0,0
568600667,568599616,59.39622249207591,24.660573259815152,32.04986,44.007355,0.06750712,0.39476678,0.5864548,nan,2,2,0,0
568612040,568609644,59.396222493711896,24.660573250604248,32.06352,44.014275,0.06750712,0.3907073,0.58454955,nan,2,2,0,0
568620872,568619654,59.39622249528356,24.660573241597604,32.077072,44.02783,0.06750712,0.39104417,0.5847226,nan,2,2,0,0
568630837,568629674,59.396222496861654,24.660573232519365,32.090645,44.0414,0.06750712,0.3913845,0.58482134,nan,2,2,0,0
568640641,568639692,59.39622249880855,24.660573222643013,32.10437,44.055126,0.06750712,0.39172828,0.5849965,nan,2,2,0,0
568650853,568649711,59.396222500225825,24.660573213187828,32.118248,44.069004,0.06750712,0.39207572,0.5851731,nan,2,2,0,0
568660885,568659730,59.39622250225847,24.660573203284102,32.131996,44.082752,0.06750712,0.3924267,0.5853509,nan,2,2,0,0
568671073,568669760,59.39622250436617,24.66057319298448,32.145798,44.096554,0.06750712,0.39278123,0.58553004,nan,2,2,0,0
568680898,568679772,59.39622250591424,24.660573183017576,32.159767,44.110523,0.06750712,0.3931395,0.58571047,nan,2,2,0,0
568691073,568689787,59.396222508118434,24.66057317257476,32.17377,44.124527,0.06750712,0.3935013,0.58589226,nan,2,2,0,0
568700903,568699806,59.396222509966684,24.660573161967683,32.187878,44.138634,0.06750712,0.39386678,0.5859934,nan,2,2,0,0
568711224,568709825,59.396222511819225,24.660573151202673,32.202026,44.152782,0.06750712,0.394236,0.58617735,nan,2,2,0,0
568720915,568719844,59.39622251417994,24.66057313990278,32.21626,44.167015,0.06750712,0.394609,0.58636266,nan,2,2,0,0
568730928,568729864,59.39622251593815,24.660573128415468,32.2307,44.181458,0.06750712,0.3949856,0.5865493,nan,2,2,0,0
568741555,568739882,59.39622251893779,24.660573121009257,32.244095,44.188625,0.06750712,0.39089295,0.5846316,nan,2,2,0,0
568751207,568749902,59.39622252248422,24.66057311309133,32.25745,44.20198,0.06750712,0.39123067,0.58480537,nan,2,2,0,0
568761249,568759920,59.39622252526089,24.660573104983875,32.27108,44.21561,0.06750712,0.39157185,0.58490425,nan,2,2,0,0
568771307,568769939,59.39622252783173,24.660573096497373,32.284927,44.229458,0.06750712,0.39191645,0.58508015,nan,2,2,0,0
568780997,568779958,59.396222531300964,24.660573086873722,32.298733,44.243263,0.06750712,0.39226466,0.5852573,nan,2,2,0,0
568791402,568789977,59.39622253432636,24.66057307713425,32.312607,44.257137,0.06750712,0.3926165,0.58543575,nan,2,2,0,0
568801019,568799996,59.396222536997975,24.660573067523234,32.326645,44.271175,0.06750712,0.39297193,0.5856155,nan,2,2,0,0
568811351,568810014,59.39622253999977,24.66057305726994,32.340797,44.285328,0.06750712,0.393331,0.5857966,nan,2,2,0,0
568821028,568820033,59.39622254236263,24.66057304709877,32.355038,44.29957,0.06750712,0.39369375,0.58597904,nan,2,2,0,0
568831985,568830059,59.396222545291536,24.660573036287428,32.369347,44.313877,0.06750712,0.39406025,0.5860804,nan,2,2,0,0
568841009,568840071,59.39622254402648,24.660573039008163,32.383804,44.328335,0.06750712,0.39443058,0.58626497,nan,2,2,0,0
568851449,568850107,59.396222546104156,24.66057302783041,32.398495,44.343025,0.06750712,0.39480388,0.58645093,nan,2,2,0,0
568861862,568860109,59.39622254681601,24.66057301378662,32.411415,44.349308,0.06750712,0.3907624,0.5845459,nan,2,2,0,0
568871843,568870128,59.39622254773371,24.66057299929429,32.424423,44.362316,0.06750712,0.39109626,0.58471906,nan,2,2,0,0
568881377,568880147,59.39622254768011,24.66057298501254,32.43775,44.375645,0.06750712,0.39143288,0.58489347,nan,2,2,0,0
568891408,568890167,59.39622254808534,24.660572970208545,32.45125,44.38914,0.06750712,0.39177227,0.5849926,nan,2,2,0,0
568901249,568900185,59.39622254931823,24.660572954922312,32.46473,44.402622,0.06750712,0.39211443,0.58516914,nan,2,2,0,0
568911517,568910204,59.39622254985641,24.660572939867723,32.478268,44.41616,0.06750712,0.39245933,0.585347,nan,2,2,0,0
568921172,568920223,59.39622255017374,24.660572925030035,32.491997,44.42989,0.06750712,0.39280704,0.58552617,nan,2,2,0,0
568931550,568930243,59.39622255092634,24.660572909516375,32.505898,44.44379,0.06750712,0.39315748,0.58570665,nan,2,2,0,0
568941306,568940281,59.39622255121579,24.660572893827933,32.519913,44.457806,0.06750712,0.39351073,0.58588845,nan,2,2,0,0
568951454,568950280,59.396222551479525,24.660572878048935,32.53398,44.471874,0.06750712,0.39386672,0.5860716,nan,2,2,0,0
568961534,568960299,59.39622255238219,24.660572861438137,32.548283,44.486176,0.06750712,0.3942255,0.5861731,nan,2,2,0,0
568972790,568970319,59.39622255066688,24.66057284832723,32.5614,44.493347,0.06750712,0.39033487,0.58430374,nan,2,2,0,0
568981385,568980337,59.39622254941685,24.660572835258446,32.574455,44.5064,0.06750712,0.39065722,0.58447516,nan,2,2,0,0
568991449,568990356,59.39622254812606,24.660572822170703,32.587723,44.51967,0.06750712,0.39098215,0.58464783,nan,2,2,0,0
569001362,569000375,59.396222545878985,24.66057280944727,32.60128,44.533226,0.06750712,0.3913097,0.5848218,nan,2,2,0,0
569012151,569010409,59.39622254457749,24.66057279558037,32.61489,44.546837,0.06750712,0.39163986,0.58499706,nan,2,2,0,0
569021456,569020412,59.3962225435976,24.660572781494466,32.628563,44.56051,0.06750712,0.39197263,0.58509654,nan,2,2,0,0
569032182,569030432,59.39622254183939,24.660572768076108,32.64246,44.574406,0.06750712,0.39230806,0.5852739,nan,2,2,0,0
569041480,569040450,59.39622254060437,24.660572754577732,32.656406,44.588352,0.06750712,0.39264607,0.5854527,nan,2,2,0,0
569051680,569050469,59.39622253963091,24.66057274086877,32.670403,44.60235,0.06750712,0.39298674,0.5856327,nan,2,2,0,0
569061620,569060488,59.39622253791347,24.660572727364073,32.68464,44.616585,0.06750712,0.39333007,0.58581406,nan,2,2,0,0
569071580,569070507,59.396222536348226,24.660572713680384,32.69907,44.631016,0.06750712,0.39367607,0.58599675,nan,2,2,0,0
569081545,569080526,59.39622253566853,24.660572699809272,32.713497,44.645443,0.06750712,0.39402473,0.58618075,nan,2,2,0,0
569092289,569090545,59.39622253499097,24.66057268566651,32.727966,44.659912,0.06750712,0.39437607,0.5862826,nan,2,2,0,0
569101514,569100564,59.39622253352865,24.660572672368183,32.74257,44.674515,0.06750712,0.39473012,0.5864688,nan,2,2,0,0
569112621,569110583,59.39622253111434,24.660572663772182,32.756,44.680473,0.06750712,0.39080194,0.5845611,nan,2,2,0,0
569121590,569120603,59.39622252920391,24.660572654348588,32.769547,44.69402,0.06750712,0.39112043,0.58473444,nan,2,2,0,0
569131914,569130621,59.39622252694611,24.660572645080826,32.78319,44.707664,0.06750712,0.39144143,0.5849091,nan,2,2,0,0
569141713,569140640,59.39622252496278,24.660572635627748,32.79696,44.72143,0.06750712,0.39176503,0.58508503,nan,2,2,0,0
569151752,569150666,59.39622252369343,24.660572625755613,32.810787,44.73526,0.06750712,0.39209113,0.5851847,nan,2,2,0,0
569161741,569160678,59.39622252196311,24.660572616035097,32.82461,44.749084,0.06750712,0.39241984,0.5853628,nan,2,2,0,0
569171811,569170697,59.39622251996048,24.660572606853673,32.83859,44.76306,0.06750712,0.39275113,0.5855422,nan,2,2,0,0
569181736,569180716,59.39622251847243,24.660572597173168,32.852783,44.777256,0.06750712,0.39308497,0.5857229,nan,2,2,0,0
569191727,569190735,59.39622251699511,24.66057258690724,32.867092,44.791565,0.06750712,0.39342147,0.58590496,nan,2,2,0,0
569201785,569200754,59.39622251540413,24.660572576792934,32.881424,44.805897,0.06750712,0.39376062,0.58608836,nan,2,2,0,0
569211942,569210775,59.39622251414981,24.660572566994503,32.89582,44.820293,0.06750712,0.39410236,0.5862731,nan,2,2,0,0
569222004,569220793,59.39622251323426,24.660572557345585,32.9103,44.834774,0.06750712,0.39444682,0.5863751,nan,2,2,0,0
569232007,569230811,59.39622251191561,24.66057254772825,32.92486,44.84933,0.06750712,0.394794,0.58656204,nan,2,2,0,0
569241844,569240830,59.39622251042971,24.660572538102496,32.939568,44.86404,0.06750712,0.39514384,0.5867503,nan,2,2,0,0
569251883,569250849,59.3962225095892,24.6605725282451,32.954414,44.878887,0.06750712,0.39549637,0.58693993,nan,2,2,0,0
569261989,569260868,59.39622250896953,24.660572518038137,32.969296,44.89377,0.06750712,0.39585167,0.58713096,nan,2,2,0,0
569272742,569270887,59.39622250819336,24.660572514456117,32.982685,44.89782,0.06750712,0.39177585,0.5851367,nan,2,2,0,0
569281978,569280906,59.39622250767018,24.66057251097097,32.996216,44.91135,0.06750712,0.39209506,0.5852364,nan,2,2,0,0
569292107,569290926,59.39622250749436,24.66057250667507,33.00999,44.925125,0.06750712,0.3924169,0.58541477,nan,2,2,0,0
569301929,569300944,59.39622250699048,24.660572502141218,33.023853,44.938988,0.06750712,0.3927413,0.5855945,nan,2,2,0,0
569312264,569310965,59.3962225070634,24.660572497194618,33.03773,44.952866,0.06750712,0.39306828,0.58577543,nan,2,2,0,0
569322051,569320990,59.39622250740859,24.66057249182054,33.051796,44.96693,0.06750712,0.39339793,0.58595777,nan,2,2,0,0
569332063,569331001,59.3962225070205,24.660572486901312,33.066006,44.98114,0.06750712,0.39373022,0.58614147,nan,2,2,0,0
569342058,569341023,59.396222507498635,24.660572481655688,33.080116,44.99525,0.06750712,0.39406523,0.5863265,nan,2,2,0,0
569352378,569351039,59.39622250839918,24.660572476083658,33.094345,45.00948,0.06750712,0.39440292,0.5864285,nan,2,2,0,0
569362839,569361057,59.39622250447968,24.66057247905499,33.107822,45.018166,0.06750712,0.39060175,0.58452624,nan,2,2,0,0
569372048,569371076,59.396222501501455,24.660572480731233,33.12132,45.031662,0.06750712,0.39090624,0.5846993,nan,2,2,0,0
569382069,569381095,59.396222499453806,24.66057248173361,33.134804,45.045147,0.06750712,0.39121327,0.58487356,nan,2,2,0,0
569392080,569391114,59.39622249670499,24.660572482965524,33.148567,45.05891,0.06750712,0.39152288,0.5850492,nan,2,2,0,0
569402201,569401133,59.39622249436358,24.660572483744684,33.162346,45.07269,0.06750712,0.39183512,0.5852261,nan,2,2,0,0
569412256,569411152,59.39622249300635,24.660572484193228,33.176098,45.08644,0.06750712,0.39214996,0.585326,nan,2,2,0,0
569422224,569421171,59.396222490735674,24.66057248464177,33.19022,45.100563,0.06750712,0.39246747,0.5855051,nan,2,2,0,0
569432558,569431190,59.39622248841785,24.660572484357484,33.20454,45.114883,0.06750712,0.39278767,0.58568555,nan,2,2,0,0
569442456,569441209,59.39622248733505,24.660572483125573,33.21875,45.129093,0.06750712,0.39311057,0.5858672,nan,2,2,0,0
569452217,569451228,59.39622248585775,24.66057248174836,33.233135,45.14348,0.06750712,0.39343616,0.5860503,nan,2,2,0,0
569462285,569461247,59.39622248417031,24.66057248047644,33.24778,45.158123,0.06750712,0.3937646,0.5862347,nan,2,2,0,0
569472232,569471266,59.39622248375862,24.660572478524333,33.26234,45.172684,0.06750712,0.3940958,0.5864204,nan,2,2,0,0
569483015,569481285,59.39622248262866,24.660572477936807,33.275345,45.178715,0.06750712,0.3903661,0.5844456,nan,2,2,0,0
569492431,569491304,59.396222481018405,24.660572477812565,33.288593,45.191963,0.06750712,0.39066482,0.5846181,nan,2,2,0,0
569502528,569501337,59.39622247979837,24.66057247699129,33.302177,45.205547,0.06750712,0.39096618,0.58479184,nan,2,2,0,0
569512414,569511342,59.39622247817311,24.66057247610895,33.315872,45.219242,0.06750712,0.3912702,0.5849669,nan,2,2,0,0
569522388,569521361,59.39622247733689,24.660572474533787,33.3295,45.23287,0.06750712,0.39157692,0.5851433,nan,2,2,0,0
569532411,569531380,59.39622247733904,24.66057247267855,33.34318,45.24655,0.06750712,0.39188638,0.58532095,nan,2,2,0,0
569542738,569541401,59.39622247631198,24.66057247143611,33.357216,45.260586,0.06750712,0.3921986,0.58542114,nan,2,2,0,0
569552396,569551418,59.3962224752442,24.660572470275795,33.37142,45.27479,0.06750712,0.39251357,0.585601,nan,2,2,0,0
569562369,569561437,59.39622247528708,24.66057246849216,33.38555,45.28892,0.06750712,0.39283141,0.5857821,nan,2,2,0,0
569572581,569571456,59.39622247501049,24.660572466569533,33.399914,45.303284,0.06750712,0.39315212,0.5859646,nan,2,2,0,0
569582497,569581482,59.39622247408421,24.6605724650407,33.41458,45.31795,0.06750712,0.39347565,0.58614844,nan,2,2,0,0
569592583,569591494,59.39622247443585,24.660572462915916,33.429142,45.33251,0.06750712,0.39380214,0.58633363,nan,2,2,0,0
569603331,569601513,59.39622247396843,24.660572463356036,33.442417,45.338562,0.06750712,0.3901324,0.58444345,nan,2,2,0,0
569612961,569611532,59.39622247244607,24.660572464366837,33.456078,45.352222,0.06750712,0.39042684,0.58454174,nan,2,2,0,0
569622575,569621550,59.39622247127537,24.660572464958577,33.46995,45.366096,0.06750712,0.390724,0.584715,nan,2,2,0,0
569632935,569631569,59.39622247080366,24.660572464798534,33.483803,45.379948,0.06750712,0.39102393,0.5848896,nan,2,2,0,0
569642667,569641588,59.396222469675834,24.6605724650028,33.49784,45.393986,0.06750712,0.39132673,0.5850654,nan,2,2,0,0
569652546,569651607,59.396222468595184,24.66057246515442,33.51212,45.408264,0.06750712,0.3916324,0.5852426,nan,2,2,0,0
569662591,569661626,59.39622246855659,24.66057246432051,33.52638,45.422523,0.06750712,0.39194095,0.5854211,nan,2,2,0,0
569672652,569671645,59.39622246820495,24.660572463674022,33.540684,45.43683,0.06750712,0.39225242,0.5855215,nan,2,2,0,0
569682688,569681664,59.39622246759386,24.660572463063332,33.55526,45.451405,0.06750712,0.3925669,0.5857022,nan,2,2,0,0
569692738,569691684,59.39622246746521,24.66057246187775,33.569996,45.46614,0.06750712,0.39288437,0.58588415,nan,2,2,0,0
569702753,569701702,59.396222467083554,24.660572460683742,33.584724,45.48087,0.06750712,0.39320484,0.58606744,nan,2,2,0,0
569713025,569711721,59.396222466631144,24.66057245983509,33.599487,45.495632,0.06750712,0.39352843,0.58625215,nan,2,2,0,0
569722807,569721741,59.396222466549666,24.66057245889168,33.614437,45.510582,0.06750712,0.39385515,0.5864381,nan,2,2,0,0
569733713,569731759,59.39622246533608,24.66057246307597,33.628197,45.516827,0.06750712,0.39017892,0.5845342,nan,2,2,0,0
569742880,569741778,59.39622246422111,24.66057246695491,33.641975,45.530605,0.06750712,0.39047307,0.58463275,nan,2,2,0,0
569752734,569751797,59.396222463513546,24.66057247051166,33.65586,45.54449,0.06750712,0.39077017,0.5848068,nan,2,2,0,0
569762842,569761816,59.39622246249508,24.660572474428506,33.669933,45.558563,0.06750712,0.39107028,0.5849821,nan,2,2,0,0
569772874,569771835,59.39622246144873,24.660572478360095,33.684055,45.572685,0.06750712,0.39137337,0.5851587,nan,2,2,0,0
569782906,569781854,59.39622246110139,24.6605724819379,33.698223,45.586853,0.06750712,0.3916795,0.58533657,nan,2,2,0,0
569792941,569791873,59.39622246075404,24.660572485351455,33.712597,45.601227,0.06750712,0.39198878,0.5855158,nan,2,2,0,0
569803126,569801892,59.39622245995855,24.660572489053507,33.727146,45.615776,0.06750712,0.39230117,0.58561647,nan,2,2,0,0
569813223,569811911,59.39622245974844,24.66057249247127,33.741673,45.630302,0.06750712,0.39261675,0.5857979,nan,2,2,0,0
569822977,569821930,59.39622246006791,24.660572495682665,33.756275,45.644905,0.06750712,0.3929355,0.5859806,nan,2,2,0,0
569833002,569831949,59.39622245985563,24.660572499271,33.771164,45.659794,0.06750712,0.39325756,0.5861647,nan,2,2,0,0
569843135,569841968,59.396222459621924,24.660572503067815,33.78613,45.67476,0.06750712,0.39358288,0.5863501,nan,2,2,0,0
569853013,569851987,59.39622246018584,24.66057250670248,33.801,45.68963,0.06750712,0.39391154,0.5865369,nan,2,2,0,0
569863702,569862006,59.39622246041956,24.6605725137886,33.814713,45.696175,0.06750712,0.39021957,0.58462,nan,2,2,0,0
569873309,569872025,59.39622246008936,24.660572520982125,33.82874,45.7102,0.06750712,0.39051488,0.58471876,nan,2,2,0,0
569883131,569882044,59.396222460093654,24.660572528133528,33.842823,45.724285,0.06750712,0.39081335,0.5848934,nan,2,2,0,0
