timestamp,timestamp_sample,position[0],position[1],position[2],q[0],q[1],q[2],q[3],velocity[0],velocity[1],velocity[2],angular_velocity[0],angular_velocity[1],angular_velocity[2],position_variance[0],position_variance[1],position_variance[2],orientation_variance[0],orientation_variance[1],orientation_variance[2],velocity_variance[0],velocity_variance[1],velocity_variance[2],pose_frame,velocity_frame,reset_counter,quality
564943991,564942637,2.338156,-1.3193864,-2.3802004,0.99632156,-0.013726171,-0.03581514,-0.07663042,-0.023101142,-0.027668508,-0.037425105,-0.001460168,0.000562889,-0.0001618207,0.017543316,0.017542878,0.034172673,2.4708379e-05,2.4350233e-05,0.00034871788,0.0062190704,0.0062178452,0.0067882445,1,1,8,0
564953642,564952652,2.3379128,-1.3192545,-2.380831,0.9963214,-0.013731964,-0.035817713,-0.07663049,-0.023125734,-0.027687574,-0.038036197,-0.0009498899,-0.0005502507,-0.00036332873,0.01768405,0.0176836,0.034387387,2.4745546e-05,2.4386947e-05,0.0003489024,0.006268452,0.0062672086,0.0068226443,1,1,8,0
564963732,564962672,2.337673,-1.3191398,-2.38146,0.9963184,-0.013744503,-0.03582237,-0.07666487,-0.022463927,-0.027701313,-0.03899823,-0.006093445,-0.0051809503,-0.011884268,0.01782633,0.017825866,0.034603734,2.4782654e-05,2.442377e-05,0.0003490869,0.006318012,0.006316751,0.0068571386,1,1,8,0
564974480,564972691,2.3374312,-1.3187946,-2.3819227,0.9963182,-0.013754772,-0.0358141,-0.07666974,-0.02327364,-0.028065983,-0.039672513,-0.0021329357,0.002856757,0.0033906202,0.016294992,0.01629466,0.03239852,2.4372383e-05,2.401269e-05,0.0003492711,0.005777084,0.0057760016,0.006488531,1,1,8,0
564984149,564982710,2.3371906,-1.318471,-2.3823826,0.9963289,-0.013719504,-0.03581062,-0.07653959,-0.0229906,-0.027692443,-0.039341424,0.005933337,0.0031773625,0.032897465,0.016421985,0.016421642,0.032599453,2.440699e-05,2.4048997e-05,0.00034810422,0.0058239996,0.0058229016,0.0065220576,1,1,8,0
564993905,564992730,2.3369558,-1.3181728,-2.3829806,0.9963401,-0.013672592,-0.03582858,-0.076393306,-0.022609364,-0.026974259,-0.039564397,0.012615072,0.00042378195,0.016004516,0.0165504,0.016550045,0.032714337,2.444349e-05,2.4085406e-05,0.0003482887,0.0058712335,0.0058701187,0.0065472955,1,1,8,0
565003963,565002749,2.3367152,-1.3178883,-2.3835852,0.99632984,-0.013713218,-0.03582357,-0.07652198,-0.023351522,-0.027290653,-0.040626217,-0.011534256,-0.0064275027,-0.03762222,0.016680248,0.016679885,0.03291784,2.4480116e-05,2.412193e-05,0.00034847294,0.0059185964,0.0059174667,0.0065809977,1,1,8,0
565014197,565012770,2.3364847,-1.3176304,-2.3841918,0.99630976,-0.013772219,-0.03580563,-0.07678055,-0.021836149,-0.028288208,-0.04274501,-0.009356204,-0.010197032,-0.047999993,0.016811544,0.01681117,0.033122905,2.451656e-05,2.4158504e-05,0.00034865766,0.0059661902,0.0059650447,0.006614798,1,1,8,0
565023930,565022788,2.3362513,-1.3173909,-2.3847926,0.99630725,-0.013797764,-0.03577478,-0.07682332,-0.023877416,-0.026810972,-0.04186763,-0.021129886,0.019486153,0.003292954,0.016944302,0.016943917,0.033329546,2.4553216e-05,2.4195015e-05,0.0003488422,0.006014163,0.0060130013,0.0066486984,1,1,8,0
565033921,565032807,2.3360193,-1.3171744,-2.3853884,0.9963195,-0.013720977,-0.035820056,-0.07665716,-0.022244906,-0.028611986,-0.04261317,0.021053387,-0.0029083726,0.038714472,0.017078536,0.017078139,0.03353777,2.4590225e-05,2.4231622e-05,0.0003490268,0.0060623414,0.0060611637,0.006682697,1,1,8,0
565044186,565042827,2.335785,-1.316979,-2.3859854,0.9963305,-0.013706088,-0.035820108,-0.07651504,-0.023247566,-0.028160226,-0.043024544,0.0061968756,-0.011865846,0.019246118,0.017214255,0.017213847,0.033747595,2.4627128e-05,2.426828e-05,0.00034921148,0.0061106584,0.006109465,0.0067167925,1,1,8,0
565054033,565052847,2.3355558,-1.3168055,-2.3865802,0.99632883,-0.013697306,-0.035797365,-0.07655009,-0.02303876,-0.028745605,-0.044199757,0.004323362,0.0096257115,-0.019153802,0.017351476,0.017351056,0.033959024,2.4662235e-05,2.4304916e-05,0.0003480451,0.0061593335,0.006158124,0.006750985,1,1,8,0
565064058,565062864,2.3353262,-1.316645,-2.387318,0.99631745,-0.013763065,-0.03577556,-0.076697014,-0.022888482,-0.0272215,-0.044945832,-0.022260182,0.0002389612,-0.029865922,0.01749021,0.017489778,0.034077,2.469923e-05,2.4341747e-05,0.0003482292,0.006208419,0.006207195,0.0067759985,1,1,8,0
565074003,565072883,2.3350961,-1.3165083,-2.3880432,0.9963126,-0.013759069,-0.035750356,-0.07677073,-0.023033148,-0.028800128,-0.045541625,-0.00015537292,0.00026214443,-0.0069644474,0.017630473,0.01763003,0.034291063,2.4735938e-05,2.4378593e-05,0.00034841383,0.0062576346,0.0062563885,0.006810361,1,1,8,0
565084023,565082905,2.334871,-1.3163872,-2.3887687,0.9963191,-0.0137384385,-0.03575931,-0.076685764,-0.02263473,-0.028186647,-0.04580481,0.0072734095,-0.0020532212,0.027425397,0.017772278,0.017771823,0.03450675,2.4772698e-05,2.4414954e-05,0.00034859852,0.0063068112,0.0063055446,0.006844835,1,1,8,0
565094811,565092922,2.3345711,-1.3160157,-2.3893049,0.99632883,-0.013706818,-0.03577737,-0.076557,-0.02349478,-0.028820029,-0.04463242,0.007732384,-0.006330777,0.021724373,0.016250398,0.016250072,0.03231404,2.4363851e-05,2.4004477e-05,0.00034878223,0.0057683066,0.005767226,0.0064779962,1,1,8,0
565104112,565102941,2.334277,-1.3156646,-2.3898494,0.9963287,-0.013687901,-0.035786778,-0.07655795,-0.022627192,-0.028676236,-0.047373798,-0.0015081003,-0.0046022953,-0.010029842,0.016377008,0.01637667,0.032514405,2.4400333e-05,2.4041366e-05,0.0003489669,0.005815252,0.0058141616,0.006511477,1,1,8,0
565114982,565112967,2.3339913,-1.3153386,-2.390406,0.99631983,-0.013726761,-0.035797384,-0.07666115,-0.021958327,-0.029214446,-0.04791894,-0.007173743,0.0017639747,-0.02269228,0.016505037,0.016504688,0.03271632,2.4436622e-05,2.4078596e-05,0.00034915144,0.005862945,0.0058618337,0.0065450976,1,1,8,0
565124266,565122980,2.3337061,-1.31504,-2.3910697,0.9963123,-0.013738607,-0.03582587,-0.07674314,-0.022848317,-0.0285956,-0.04791179,-0.00030407266,-0.005519587,-0.007656174,0.016634502,0.016634142,0.03283156,2.4470657e-05,2.4115237e-05,0.0003479851,0.0059094625,0.0059083374,0.0065703043,1,1,8,0
565134052,565132999,2.333423,-1.3147643,-2.3917303,0.99631494,-0.013734612,-0.035829365,-0.076708496,-0.02250832,-0.029027218,-0.048722353,0.008524115,0.0025916505,0.013864387,0.016765404,0.016765034,0.033036053,2.4508387e-05,2.4150928e-05,0.00034816907,0.0059575248,0.0059563653,0.0066041225,1,1,8,0
565144267,565143019,2.3331447,-1.3145088,-2.3923898,0.99632007,-0.013721043,-0.035864007,-0.07662885,-0.022316946,-0.028357008,-0.04881594,-0.0004757842,-0.0059931935,0.014153966,0.01689777,0.016897388,0.033242114,2.4544968e-05,2.4187184e-05,0.00034835358,0.0060053198,0.00600415,0.0066379765,1,1,8,0
565154113,565153037,2.3328655,-1.3142729,-2.3930452,0.9963222,-0.013722066,-0.03585839,-0.07660273,-0.022552107,-0.028714014,-0.049628094,-0.0057698446,-0.003001115,-0.00013429864,0.017031606,0.017031213,0.033449758,2.458119e-05,2.4223778e-05,0.0003485384,0.006053514,0.0060523315,0.00667194,1,1,8,0
565164189,565163057,2.332593,-1.3140566,-2.393699,0.99631786,-0.013747076,-0.03583409,-0.07666706,-0.022471726,-0.029532934,-0.050319575,-0.009093016,0.0037237224,-0.013231185,0.017166927,0.017166523,0.033658992,2.461746e-05,2.4261104e-05,0.000348723,0.006101849,0.0061006625,0.0067059994,1,1,8,0
565174146,565173076,2.3323162,-1.313865,-2.394354,0.9963143,-0.013732168,-0.035806455,-0.0767279,-0.0228846,-0.02998744,-0.050898306,0.0033911958,0.006889263,-0.009767235,0.017303748,0.01730333,0.033869825,2.465374e-05,2.429786e-05,0.00034890798,0.006150614,0.0061493963,0.0067401817,1,1,8,0
565184173,565183095,2.3320465,-1.3136892,-2.3950086,0.9963165,-0.0137087125,-0.035794407,-0.076708734,-0.02252857,-0.02884132,-0.0509562,0.0069440478,0.011093707,0.005867861,0.017442081,0.01744165,0.034082267,2.4690766e-05,2.4334295e-05,0.00034909276,0.006199441,0.006198206,0.0067744586,1,1,8,0
565194416,565193114,2.3317742,-1.3135307,-2.395805,0.9963197,-0.013680942,-0.03580941,-0.07666498,-0.022960816,-0.029474929,-0.050970998,0.008939998,-0.001691229,0.010424331,0.01758194,0.017581495,0.03420058,2.4726174e-05,2.4370458e-05,0.0003479255,0.006248008,0.0062467516,0.006799445,1,1,8,0
565204199,565203134,2.3315063,-1.3133937,-2.3965993,0.9963204,-0.013701189,-0.03579227,-0.076659985,-0.022771152,-0.02902238,-0.05285365,-0.0026839024,0.0030508577,-0.0022680606,0.017723331,0.017722873,0.034415666,2.4763376e-05,2.4407114e-05,0.00034810966,0.0062982203,0.0062969523,0.006833885,1,1,8,0
565214516,565213153,2.3312438,-1.3132783,-2.3973978,0.9963172,-0.013723645,-0.03579856,-0.07669526,-0.021904727,-0.02970649,-0.05367249,-0.008880138,-0.0065754815,-0.0075859735,0.017866282,0.01786581,0.03463239,2.4800644e-05,2.4444354e-05,0.00034829348,0.006347878,0.00634659,0.00686843,1,1,8,0
565224374,565223172,2.3309824,-1.3131796,-2.398192,0.9963139,-0.013731991,-0.035822194,-0.07672495,-0.023079121,-0.029208204,-0.053799283,-0.0042412756,-0.0032700752,-0.0026645574,0.0180108,0.018010315,0.034850754,2.4838422e-05,2.4481402e-05,0.00034847748,0.0063976855,0.0063963826,0.0069030565,1,1,8,0
565234188,565233192,2.33072,-1.3130916,-2.3989794,0.99631494,-0.013748608,-0.03582593,-0.07670765,-0.02199122,-0.02975204,-0.05373383,-0.004463738,0.0011081224,0.0050340993,0.018156897,0.018156396,0.03507077,2.4875537e-05,2.4518225e-05,0.00034866194,0.006447992,0.0064466633,0.0069378032,1,1,8,0
565244517,565243211,2.3304613,-1.3130248,-2.3997562,0.99631804,-0.013719198,-0.035824396,-0.07667276,-0.022370372,-0.029129332,-0.054501668,0.000392535,-0.005407668,0.008305401,0.01830459,0.018304074,0.035292443,2.4913432e-05,2.455493e-05,0.00034884608,0.0064983154,0.006496974,0.0069726342,1,1,8,0
565254427,565253230,2.3302023,-1.3129718,-2.4006598,0.9963176,-0.013708437,-0.035829164,-0.07667906,-0.022961672,-0.029947426,-0.055292003,0.004354747,-0.002138944,-0.0045823413,0.018453889,0.018453358,0.035413116,2.4950401e-05,2.459187e-05,0.00034903077,0.0065491227,0.0065477625,0.0069973585,1,1,8,0
565265132,565263250,2.3298814,-1.3127509,-2.401342,0.9963155,-0.013720375,-0.035822935,-0.07670775,-0.022327533,-0.030434556,-0.055897612,-0.004875331,-0.0037582768,-0.005906061,0.016802408,0.016802033,0.033099856,2.450468e-05,2.4147857e-05,0.00034786417,0.0059635006,0.0059623374,0.0066101844,1,1,8,0
565274345,565273269,2.3295689,-1.312551,-2.4020224,0.99631315,-0.013732432,-0.035814073,-0.07673871,-0.0226857,-0.030229408,-0.05636788,-0.0030236903,0.00047474002,-0.004127962,0.016935037,0.016934652,0.03330629,2.4540817e-05,2.4184403e-05,0.00034804887,0.0060114395,0.006010256,0.0066440664,1,1,8,0
565284368,565283288,2.329258,-1.3123717,-2.4027057,0.99631566,-0.013734904,-0.035803225,-0.076712094,-0.022651602,-0.030148724,-0.057132997,0.0029756674,0.002792832,0.007863452,0.01706914,0.017068744,0.033514306,2.45773e-05,2.4220803e-05,0.00034823353,0.006059371,0.0060581784,0.006678049,1,1,8,0
565294429,565293307,2.328948,-1.3122088,-2.4033926,0.9963185,-0.013727166,-0.03580662,-0.07667422,-0.022786023,-0.030311907,-0.05721699,0.0033498406,0.0077272016,0.007709813,0.017204728,0.017204318,0.033723913,2.4614475e-05,2.4257148e-05,0.00034841776,0.006107664,0.0061064493,0.0067121307,1,1,8,0
565304404,565303326,2.328641,-1.312066,-2.4040773,0.99631834,-0.013734845,-0.035830826,-0.07666374,-0.023027178,-0.030273475,-0.05789474,-0.00035646977,-0.00080311537,0.0004504894,0.017341813,0.017341392,0.033935126,2.4650859e-05,2.4293962e-05,0.00034860248,0.0061566983,0.006155473,0.0067463038,1,1,8,0
565314739,565313346,2.328337,-1.3119432,-2.4047658,0.99631476,-0.013730363,-0.03582461,-0.07671456,-0.022957569,-0.030320022,-0.059300184,-0.00033718013,0.005619732,-0.012189184,0.017480416,0.017479982,0.034147948,2.4687886e-05,2.4330866e-05,0.00034878677,0.0062057474,0.006204501,0.0067805946,1,1,8,0
565324468,565323365,2.3280363,-1.3118422,-2.4055917,0.9963116,-0.013723212,-0.035824798,-0.07675635,-0.02260215,-0.03070934,-0.060498662,-5.92084e-05,-0.0002412549,-0.0057115904,0.017620547,0.0176201,0.03426627,2.4725397e-05,2.4367675e-05,0.00034897105,0.0062547503,0.0062534907,0.006805547,1,1,8,0
565334481,565333384,2.327742,-1.3117577,-2.4064202,0.99631137,-0.013735008,-0.035837654,-0.07675192,-0.022452675,-0.030825853,-0.061712805,-0.0021339543,-0.0039048945,0.003736305,0.017762218,0.017761756,0.034481738,2.4760637e-05,2.4404475e-05,0.00034780684,0.0063039176,0.0063026357,0.006840015,1,1,8,0
565344623,565343403,2.3274515,-1.3116926,-2.4072456,0.9963145,-0.013755797,-0.035841502,-0.076704994,-0.022557069,-0.03095975,-0.062040117,-0.0013280321,-0.00221561,0.010200763,0.01790544,0.017904963,0.03469884,2.4797619e-05,2.4441018e-05,0.00034799115,0.006353765,0.006352471,0.006874555,1,1,8,0
565355210,565353423,2.3271022,-1.3113647,-2.4079344,0.9963178,-0.013753517,-0.03581979,-0.07667323,-0.022942735,-0.031052826,-0.06359989,-0.0008811974,-0.001148079,0.0056863413,0.016358877,0.016358538,0.03248106,2.4381872e-05,2.4024266e-05,0.00034817486,0.005806447,0.005805334,0.006503714,1,1,8,0
565364591,565363442,2.3267622,-1.3110578,-2.4086351,0.9963171,-0.013753,-0.03581455,-0.07668459,-0.022123083,-0.03015556,-0.065088905,-0.0024668393,-0.0011752778,-0.0013768206,0.016486626,0.016486278,0.032682646,2.4418336e-05,2.40608e-05,0.00034835926,0.0058534797,0.005852347,0.0065372977,1,1,8,0
565374676,565373461,2.3264313,-1.3107729,-2.4093432,0.99631345,-0.013752886,-0.035832506,-0.07672399,-0.021671658,-0.030605199,-0.065176465,0.0013630848,-0.00016722501,-0.008349379,0.016615806,0.016615447,0.03288579,2.445477e-05,2.4097395e-05,0.0003485438,0.005900731,0.0058995835,0.0065709637,1,1,8,0
565384615,565383480,2.3261025,-1.3105139,-2.4101741,0.99631006,-0.013749237,-0.03584992,-0.07675965,-0.023132017,-0.030960886,-0.066074684,0.0014068955,0.003109395,-0.005803466,0.01674643,0.016746059,0.033001352,2.449115e-05,2.4133873e-05,0.00034872844,0.005948376,0.0059472118,0.0065961643,1,1,8,0
565394620,565393500,2.3257744,-1.310279,-2.411009,0.99631,-0.013742988,-0.035864312,-0.07675565,-0.021535551,-0.030538399,-0.06794777,-0.002531649,-0.012921027,-0.00024276065,0.016878508,0.016878126,0.033207078,2.4527926e-05,2.4170286e-05,0.00034891305,0.0059959902,0.005994809,0.00663001,1,1,8,0
565404698,565403519,2.3254552,-1.3100617,-2.4118502,0.9963113,-0.013755774,-0.03585903,-0.07673867,-0.022167405,-0.030768633,-0.068929896,-0.00898205,-0.0031541507,0.003751421,0.017012054,0.017011661,0.033414382,2.4563431e-05,2.4206758e-05,0.0003477475,0.0060441536,0.006042958,0.0066639506,1,1,8,0
565414850,565413538,2.3251371,-1.3098674,-2.4126945,0.9963124,-0.013766334,-0.035865616,-0.07671991,-0.022659168,-0.03106812,-0.06948004,-0.0005051579,0.001554453,0.0034294596,0.017147083,0.017146677,0.03362328,2.4600136e-05,2.42434e-05,0.0003479318,0.00609276,0.0060915505,0.00669799,1,1,8,0
565424598,565423557,2.3248186,-1.3096918,-2.4135423,0.99631274,-0.013778415,-0.03584869,-0.07672096,-0.022781897,-0.030893883,-0.07099073,-0.00078677665,-3.2635686e-05,-0.0013360059,0.01728361,0.01728319,0.033833772,2.4637035e-05,2.4280042e-05,0.00034811598,0.0061416253,0.006140395,0.0067321407,1,1,8,0
565434623,565433577,2.324506,-1.3095379,-2.4144027,0.9963124,-0.013756585,-0.03584313,-0.07673097,-0.02180015,-0.031173117,-0.07327298,-0.0026543103,-0.000720467,-0.0014588957,0.017421648,0.017421214,0.03404587,2.4674202e-05,2.4316787e-05,0.00034830006,0.0061907275,0.0061894776,0.0067663854,1,1,8,0
565444705,565443596,2.3242023,-1.3094013,-2.415274,0.99631065,-0.013749929,-0.03584215,-0.076756336,-0.022473099,-0.03160181,-0.07409325,0.0025392072,0.003805049,-0.0038774165,0.01756121,0.017560763,0.034259588,2.471112e-05,2.4353585e-05,0.00034848438,0.0062397397,0.0062384713,0.0068007237,1,1,8,0
565454780,565453616,2.3238993,-1.3092877,-2.4162807,0.99630857,-0.013769541,-0.035852768,-0.07677345,-0.021700911,-0.031309847,-0.075212486,-0.00700767,-0.0049530375,-0.0033356266,0.017702308,0.017701847,0.03437818,2.474751e-05,2.4390281e-05,0.00034866933,0.0062895147,0.0062882286,0.0068256706,1,1,8,0
565464799,565463638,2.323605,-1.3091897,-2.4172845,0.99630827,-0.013772918,-0.035882358,-0.07676353,-0.021306295,-0.031943556,-0.07652234,-0.0067408346,-0.011764528,0.0029676757,0.017844958,0.017844485,0.034594543,2.478437e-05,2.442711e-05,0.000348854,0.00633952,0.0063382275,0.0068601836,1,1,8,0
565474873,565473654,2.323316,-1.3091128,-2.4182985,0.9963088,-0.01377335,-0.03588772,-0.07675431,-0.021506017,-0.03200047,-0.0778439,0.001083128,-0.0012511518,0.002883961,0.017989175,0.01798869,0.03481255,2.4819969e-05,2.4463803e-05,0.000347687,0.0063892915,0.0063879793,0.006894799,1,1,8,0
565485432,565483673,2.3229277,-1.3089051,-2.4190626,0.9963101,-0.0137776295,-0.035892975,-0.076733686,-0.021739429,-0.032336857,-0.07803814,0.0004803161,-0.0052890424,0.003800271,0.016426437,0.016426092,0.03257965,2.4399284e-05,2.4041807e-05,0.0003478701,0.005835403,0.0058342745,0.006521308,1,1,8,0
565494796,565493692,2.3225446,-1.308716,-2.4198306,0.9963107,-0.0137578705,-0.035888173,-0.076732665,-0.020815508,-0.032145347,-0.07917613,0.0045442376,-0.0011584773,-0.0030661821,0.016554987,0.016554631,0.032782022,2.4436262e-05,2.407819e-05,0.00034805428,0.005883162,0.005882021,0.0065549547,1,1,8,0
565504890,565503712,2.322174,-1.3085524,-2.4206219,0.99630797,-0.013744553,-0.03589769,-0.076765485,-0.021354735,-0.032409932,-0.08205304,-0.00043098937,0.0059498833,-0.006550094,0.01668498,0.016684612,0.032985955,2.4472742e-05,2.4114737e-05,0.0003482386,0.0059306673,0.005929506,0.0065886737,1,1,8,0
565515505,565513735,2.3218052,-1.308409,-2.4215598,0.99630666,-0.013762974,-0.03588888,-0.076782964,-0.022045095,-0.03307646,-0.08292073,-0.005118596,4.4616518e-05,-0.0009688085,0.016816422,0.016816044,0.033101767,2.4509549e-05,2.4151288e-05,0.00034842285,0.005978397,0.005977217,0.0066138534,1,1,8,0
565524929,565523750,2.3214378,-1.3082844,-2.4225004,0.9963064,-0.013781996,-0.035871476,-0.07679053,-0.020777177,-0.033096284,-0.083258994,-0.005866486,0.002157237,0.001203114,0.01694933,0.01694894,0.03330829,2.4545843e-05,2.4187946e-05,0.00034860754,0.0060267285,0.006025535,0.0066477493,1,1,8,0
565534895,565533769,2.3210819,-1.3081722,-2.4234502,0.9963088,-0.013796852,-0.035879225,-0.076753475,-0.022390563,-0.032339327,-0.08604357,-0.0045651873,0.012228255,0.009157894,0.017083716,0.017083313,0.033516396,2.4582525e-05,2.4224393e-05,0.00034879232,0.0060755964,0.0060743857,0.0066817612,1,1,8,0
565545599,565543788,2.3207235,-1.308081,-2.4244113,0.9963125,-0.013786762,-0.035878938,-0.07670866,-0.021683287,-0.03236072,-0.08603446,0.00527507,-0.0027705724,0.007338281,0.017219597,0.017219182,0.033726092,2.46175e-05,2.4260873e-05,0.00034762756,0.006124194,0.0061229635,0.006715851,1,1,8,0
565554910,565553808,2.3203695,-1.3080137,-2.4253728,0.9963132,-0.013781258,-0.03586434,-0.07670695,-0.021375004,-0.032604218,-0.08648604,0.003726139,0.0020415324,-0.002462773,0.017356982,0.017356556,0.033937395,2.4654588e-05,2.4297695e-05,0.00034781147,0.006173161,0.006171917,0.0067500537,1,1,8,0
565565053,565563835,2.3200307,-1.3079624,-2.426333,0.9963097,-0.013775079,-0.035897404,-0.07673805,-0.021368079,-0.032641113,-0.08835101,0.0007784479,-0.005117885,-0.0063243792,0.01749589,0.017495448,0.03415031,2.469218e-05,2.4334382e-05,0.00034799534,0.00622252,0.0062212525,0.0067843576,1,1,8,0
565574942,565573846,2.3196938,-1.3079283,-2.4273121,0.9963064,-0.013784782,-0.035908896,-0.0767738,-0.020435171,-0.03353716,-0.08984494,-0.002615829,-0.0021668773,-0.0060623386,0.017636329,0.017635874,0.034364846,2.4729228e-05,2.4371115e-05,0.0003481796,0.006272036,0.0062707514,0.0068187444,1,1,8,0
565585075,565583869,2.3193624,-1.3079149,-2.4284317,0.99630517,-0.013802136,-0.0359279,-0.076776706,-0.021530868,-0.03355607,-0.091096476,-0.0008598222,-0.002840089,0.0008740958,0.017778315,0.017777847,0.034483664,2.4766287e-05,2.4407884e-05,0.00034836386,0.0063215187,0.006320213,0.0068436777,1,1,8,0
565594996,565593885,2.319035,-1.3079104,-2.4295547,0.9963065,-0.013833126,-0.035971504,-0.07673435,-0.021509478,-0.0335593,-0.092672534,-0.0007052673,-0.0077562034,0.009383913,0.01792186,0.017921377,0.034700852,2.4803208e-05,2.4444558e-05,0.00034854846,0.0063715875,0.0063702706,0.006878249,1,1,8,0
565605617,565603904,2.318693,-1.3076236,-2.43045,0.9963093,-0.013839421,-0.035949036,-0.07670726,-0.02167266,-0.0336705,-0.09534104,0.0033596975,0.005016916,0.0034738686,0.016371394,0.016371053,0.03248261,2.4384002e-05,2.4024348e-05,0.0003487325,0.005822036,0.0058209053,0.0065070544,1,1,8,0
565615800,565613924,2.3183572,-1.3073612,-2.4313629,0.99631083,-0.01381121,-0.03592141,-0.07670473,-0.022000926,-0.03381446,-0.09652841,0.0074367486,0.012191549,-0.003062312,0.01649941,0.016499057,0.032684278,2.4418603e-05,2.4060864e-05,0.00034757,0.005869327,0.0058681723,0.006540641,1,1,8,0
565625047,565623947,2.318029,-1.3071245,-2.432281,0.99630946,-0.013789137,-0.035926946,-0.076724194,-0.021513926,-0.033140525,-0.0967626,0.0010632359,-8.857621e-05,-0.005773609,0.01662886,0.016628496,0.0328875,2.4454805e-05,2.4097484e-05,0.0003477543,0.005916617,0.0059154485,0.006574343,1,1,8,0
565635120,565633963,2.3177044,-1.3069121,-2.433211,0.9963084,-0.013789026,-0.03590396,-0.07674966,-0.021066908,-0.03385861,-0.099044286,-0.004650286,0.0054193665,-0.0056145582,0.016759753,0.016759379,0.03309229,2.4491614e-05,2.4134028e-05,0.00034793824,0.005965,0.0059638186,0.006608104,1,1,8,0
565645711,565643981,2.3173864,-1.3067162,-2.434273,0.99630815,-0.013796499,-0.035894502,-0.0767558,-0.02137869,-0.03356719,-0.09916968,0.0037629206,0.0051503303,0.0023687326,0.016892113,0.016891727,0.03320838,2.4528304e-05,2.4170418e-05,0.00034812264,0.0060128816,0.006011687,0.0066332854,1,1,8,0
565655088,565654000,2.3170776,-1.3065463,-2.4353313,0.9963077,-0.013820869,-0.03593731,-0.076737106,-0.02055725,-0.033852845,-0.10007004,-0.007989212,-0.016289428,0.00078100665,0.017025944,0.017025547,0.033415765,2.456472e-05,2.4206953e-05,0.00034830713,0.006060987,0.0060597765,0.0066672466,1,1,8,0
565665162,565664019,2.3167753,-1.3063936,-2.4364007,0.99630886,-0.013812752,-0.035941873,-0.07672116,-0.020064695,-0.03358922,-0.10204092,0.0025978999,-0.0021218278,0.0031226166,0.017161261,0.017160853,0.03362474,2.460238e-05,2.4243529e-05,0.000348491,0.006109973,0.0061087473,0.0067013036,1,1,8,0
565675090,565674038,2.3164766,-1.3062587,-2.437489,0.9963095,-0.013830715,-0.035926968,-0.076716624,-0.020679183,-0.033943184,-0.10376179,0.0006005358,0.0004972822,-0.002701296,0.017298084,0.017297663,0.03383531,2.463953e-05,2.4280287e-05,0.00034867547,0.006158959,0.006157711,0.0067354757,1,1,8,0
565685192,565684057,2.3161826,-1.3061512,-2.4385817,0.9963076,-0.013792403,-0.03594576,-0.0767396,-0.020685134,-0.034757216,-0.10517632,-0.00026615924,-0.0034474602,-0.007074327,0.017436422,0.017435987,0.034047488,2.4675028e-05,2.431697e-05,0.0003475118,0.0062081935,0.006206926,0.0067697177,1,1,8,0
565695122,565694077,2.31589,-1.3060632,-2.4396935,0.99630576,-0.013784859,-0.03595986,-0.07675748,-0.020691816,-0.034166716,-0.10746264,-0.0022365276,-0.008695347,-0.0041750553,0.01757629,0.01757584,0.034261283,2.471292e-05,2.4353829e-05,0.00034769517,0.0062578125,0.0062565273,0.0068040723,1,1,8,0
565705127,565704096,2.3156035,-1.3059915,-2.440821,0.99630594,-0.013821216,-0.03594733,-0.076754116,-0.020631323,-0.034691334,-0.108978555,-0.0110951075,0.0038643333,0.0011762906,0.0177177,0.017717237,0.034476705,2.4749294e-05,2.4390607e-05,0.00034787963,0.006308072,0.006306769,0.0068385173,1,1,8,0
565716076,565714115,2.315325,-1.305934,-2.4421,0.99630535,-0.013853441,-0.035979245,-0.07674223,-0.019817088,-0.0332803,-0.11044062,-0.0112946555,-0.0056227306,0.0027584007,0.01786067,0.017860195,0.03459578,2.4785633e-05,2.4427223e-05,0.00034806438,0.006358094,0.0063567725,0.006863424,1,1,8,0
565725935,565724134,2.3149686,-1.3056203,-2.4430616,0.9963064,-0.013839574,-0.035973314,-0.076732434,-0.020432439,-0.03438504,-0.11156834,0.00076992123,-0.005604283,0.0007934863,0.016321199,0.01632086,0.032391224,2.4367828e-05,2.4008452e-05,0.00034824808,0.005810767,0.00580964,0.0064943093,1,1,8,0
565735285,565734154,2.314627,-1.3053322,-2.444047,0.99630696,-0.0138304755,-0.035966516,-0.07673138,-0.020316133,-0.03456159,-0.1135668,0.0079154195,0.01001581,-0.0014570489,0.016448747,0.016448397,0.032592244,2.4403862e-05,2.4044915e-05,0.00034843292,0.005858418,0.0058572683,0.006527873,1,1,8,0
565745556,565744173,2.3142862,-1.305075,-2.445047,0.9963055,-0.013797042,-0.035973452,-0.076752305,-0.019679248,-0.03487118,-0.11498826,0.0061568893,-0.000118235046,-0.0035674253,0.016577728,0.016577367,0.03279482,2.4440242e-05,2.4081439e-05,0.00034861767,0.005905663,0.0059044985,0.0065615224,1,1,8,0
565755389,565754194,2.3139455,-1.3048347,-2.4460678,0.9963061,-0.013761886,-0.03593742,-0.07676832,-0.020540506,-0.034996428,-0.11724626,0.005605133,0.0069465945,-0.0038207758,0.01670815,0.016707778,0.032998953,2.4476109e-05,2.4117984e-05,0.00034745559,0.005953497,0.0059523145,0.006595287,1,1,8,0
565765349,565764211,2.3136213,-1.30462,-2.4471133,0.9963034,-0.013807816,-0.035957705,-0.07678618,-0.019437851,-0.034048807,-0.119718604,-0.0129202455,-0.004027612,-0.0012701253,0.016840031,0.016839648,0.033204656,2.4512912e-05,2.4154428e-05,0.00034763955,0.0060018334,0.006000639,0.0066291383,1,1,8,0
565775376,565774230,2.3132982,-1.3044217,-2.4483087,0.99630415,-0.013842491,-0.035940498,-0.07677791,-0.019847872,-0.034374032,-0.12010177,-0.011819107,0.007469989,0.0041135736,0.016973386,0.01697299,0.03332106,2.4549232e-05,2.4191111e-05,0.00034782384,0.006050367,0.0060491515,0.006654289,1,1,8,0
565785268,565784250,2.3129804,-1.304243,-2.44951,0.99630535,-0.013841967,-0.035951555,-0.076756835,-0.019541668,-0.034614418,-0.12173115,0.0014217012,-0.0040196236,0.0030562913,0.017108226,0.01710782,0.033529367,2.4586561e-05,2.4227455e-05,0.000348008,0.0060991123,0.006097873,0.006688317,1,1,8,0
565795356,565794269,2.3126733,-1.3040897,-2.4507256,0.9963039,-0.013841114,-0.035960022,-0.07677196,-0.01920122,-0.034401756,-0.123301916,-0.0016891795,-0.0024374237,-0.0027337903,0.017244566,0.017244147,0.03373927,2.4623741e-05,2.4264044e-05,0.00034819214,0.006148435,0.0061471853,0.0067224354,1,1,8,0
565805414,565804289,2.3123734,-1.303957,-2.4519565,0.9963018,-0.013813936,-0.035992056,-0.07679007,-0.018699383,-0.035621252,-0.124535084,0.0066726836,-0.0076299733,-0.0016297314,0.01738242,0.017381988,0.033950772,2.4660207e-05,2.4300987e-05,0.00034837658,0.006197572,0.006196299,0.006756659,1,1,8,0
565815702,565814307,2.312073,-1.3038436,-2.453193,0.9963019,-0.013780461,-0.035975415,-0.07680138,-0.019231297,-0.03642779,-0.12602039,0.0054904637,-0.0012833084,-0.0022234567,0.017521802,0.017521355,0.03416389,2.46978e-05,2.4337895e-05,0.00034856045,0.0062471363,0.0062458646,0.0067909784,1,1,8,0
565825521,565824326,2.311782,-1.3037525,-2.4544504,0.9963013,-0.013778793,-0.035975467,-0.07680886,-0.019331269,-0.03560856,-0.12786761,-0.0057144263,0.0024924828,0.0027592587,0.017662723,0.017662263,0.034378625,2.4732757e-05,2.4374413e-05,0.00034739787,0.0062969383,0.0062956363,0.0068253945,1,1,8,0
565835493,565834347,2.3114884,-1.3036773,-2.4557214,0.99630046,-0.013806484,-0.035993837,-0.076807134,-0.018947372,-0.035970345,-0.12932682,-0.0025956493,-0.0058787125,0.005859442,0.017805198,0.017804723,0.034594998,2.4769566e-05,2.4411152e-05,0.000347582,0.006347188,0.0063458667,0.006859909,1,1,8,0
565846321,565844365,2.311169,-1.3034172,-2.4568355,0.99630064,-0.013843438,-0.03598656,-0.07680131,-0.019768778,-0.034713797,-0.12998089,-0.003915608,-0.0004558123,0.002812253,0.01627546,0.01627512,0.032305185,2.4352608e-05,2.3993149e-05,0.0003477657,0.005802732,0.0058015967,0.0064829756,1,1,8,0
565855559,565854384,2.3108613,-1.303179,-2.4579685,0.99630046,-0.013850302,-0.035988063,-0.076801285,-0.018533563,-0.03484991,-0.1327247,-0.0025442864,-0.0029066242,0.00055555993,0.016402612,0.016402263,0.032505613,2.438837e-05,2.4029341e-05,0.0003479506,0.0058503863,0.00584923,0.0065164915,1,1,8,0
565865494,565864403,2.3105583,-1.3029681,-2.459122,0.9963004,-0.013818619,-0.035981204,-0.07681215,-0.018437305,-0.035672106,-0.13342476,0.0022815045,-0.002589208,-0.0003939736,0.016531195,0.016530836,0.03270759,2.4425406e-05,2.4066117e-05,0.00034813432,0.005898385,0.0058972244,0.0065501253,1,1,8,0
565875422,565874423,2.310258,-1.3027836,-2.4602923,0.9962999,-0.013788896,-0.035968125,-0.076829106,-0.019405685,-0.03646358,-0.13528927,0.0015011491,0.005970069,-0.002158909,0.016661223,0.016660854,0.03291113,2.4461557e-05,2.410285e-05,0.00034831886,0.0059458455,0.0059446623,0.0065838452,1,1,8,0
565885537,565884442,2.3099706,-1.3026234,-2.4614758,0.9963005,-0.013783965,-0.035972685,-0.07681944,-0.018116076,-0.036526978,-0.13571075,-0.0050649527,-0.008096176,0.0025241058,0.016792705,0.016792325,0.033116233,2.4498491e-05,2.4139319e-05,0.0003485032,0.005994254,0.0059930542,0.006617672,1,1,8,0
565895665,565894461,2.3096826,-1.3024814,-2.4626768,0.9963019,-0.01380229,-0.035956126,-0.076806895,-0.018619785,-0.03650445,-0.13691042,-0.004876402,0.0010601998,0.004830662,0.016925659,0.016925268,0.03332291,2.4533603e-05,2.4175755e-05,0.00034734074,0.00604271,0.0060414984,0.006651591,1,1,8,0
565905636,565904480,2.309402,-1.3023568,-2.464022,0.99630076,-0.013836614,-0.035974387,-0.07680674,-0.018521657,-0.03593096,-0.13856624,-0.007248874,-0.0035397161,0.0015531443,0.017060095,0.017059693,0.033439644,2.4571213e-05,2.4212137e-05,0.00034752436,0.0060914373,0.0060901986,0.0066767503,1,1,8,0
565916275,565914499,2.3091302,-1.3022573,-2.465381,0.9962986,-0.013859561,-0.036015794,-0.07681039,-0.018048283,-0.036819264,-0.13944344,-0.0057371487,-0.015917344,-0.0008743189,0.01719603,0.017195614,0.03364893,2.4607689e-05,2.4248548e-05,0.00034770896,0.00614037,0.006139103,0.0067108413,1,1,8,0
565925590,565924518,2.308856,-1.3021785,-2.4667537,0.99629766,-0.013825151,-0.036002237,-0.076835684,-0.018593138,-0.036546875,-0.14164956,0.00011847125,-0.0023300066,-0.0008528433,0.017333472,0.017333046,0.033859823,2.4644538e-05,2.4285197e-05,0.000347893,0.006189646,0.0061883694,0.006745027,1,1,8,0
565935693,565934538,2.3085866,-1.3021145,-2.4681318,0.99629617,-0.013803037,-0.036024936,-0.07684857,-0.01871472,-0.03774649,-0.14115886,0.009651287,-0.0001565156,0.000987362,0.01747244,0.017472,0.03407232,2.4681822e-05,2.4322087e-05,0.0003480769,0.0062392405,0.006237944,0.006779325,1,1,8,0
565945627,565944557,2.3083227,-1.3020747,-2.4695199,0.9962956,-0.013813444,-0.03604487,-0.07684431,-0.017634148,-0.0373879,-0.14319237,-0.008856585,-0.008352747,0.0051400107,0.017612947,0.017612493,0.03428644,2.4718483e-05,2.4359077e-05,0.00034826115,0.006288684,0.006287381,0.0068136924,1,1,8,0
565955605,565954576,2.308059,-1.3020515,-2.4709198,0.9962989,-0.013795738,-0.0359901,-0.076831274,-0.019206,-0.037385225,-0.14377058,0.0031403743,0.018715823,0.006133871,0.017755002,0.017754532,0.034502186,2.4755453e-05,2.4395913e-05,0.0003484456,0.0063392865,0.00633797,0.0068481937,1,1,8,0
565965842,565964595,2.3077996,-1.3020365,-2.4723258,0.9962994,-0.013845534,-0.035986807,-0.07681783,-0.017812245,-0.03759294,-0.1447549,-0.0020116868,0.010128243,0.0016533238,0.017898627,0.017898142,0.03471957,2.4790514e-05,2.4432407e-05,0.00034728413,0.006389382,0.006388039,0.006882784,1,1,8,0
565976382,565974614,2.3074765,-1.3017359,-2.4733768,0.99629724,-0.0138574615,-0.036011722,-0.07683071,-0.017698843,-0.036957394,-0.1461351,-0.0075810184,-0.005537005,-0.004622567,0.016350714,0.01635037,0.032412585,2.4366456e-05,2.400789e-05,0.00034746793,0.005837197,0.005836034,0.0065027955,1,1,8,0
565985676,565984636,2.3071585,-1.3014576,-2.4744565,0.9962967,-0.0137994485,-0.035990804,-0.07685843,-0.019162446,-0.037829105,-0.14739074,0.01239256,0.0051580123,-0.0015104231,0.016478792,0.016478436,0.03261389,2.4403147e-05,2.4044246e-05,0.0003476519,0.0058845007,0.0058833254,0.006536401,1,1,8,0
565995760,565994653,2.3068397,-1.3012006,-2.475548,0.9962954,-0.013797236,-0.036000315,-0.07687128,-0.018150039,-0.036990065,-0.14824764,0.0033112278,-0.005101186,-0.00024316607,0.016608305,0.016607936,0.032816745,2.4439318e-05,2.4080824e-05,0.00034783632,0.0059322054,0.005931011,0.0065700784,1,1,8,0
566005745,566004672,2.3065345,-1.300969,-2.4766653,0.9962932,-0.013796653,-0.036048163,-0.07687769,-0.017527033,-0.0377425,-0.15001045,-0.003157038,-0.012842613,0.0013176154,0.01673927,0.01673889,0.03302117,2.4476361e-05,2.411754e-05,0.00034802008,0.0059804,0.005979197,0.0066038575,1,1,8,0
566016084,566014691,2.3062258,-1.3007611,-2.4778078,0.99629486,-0.013800091,-0.036036536,-0.076860674,-0.019624637,-0.037706353,-0.15105794,8.822078e-05,-0.0022218816,0.0076408633,0.0168717,0.016871309,0.033227164,2.451404e-05,2.41542e-05,0.00034820373,0.006028669,0.006027444,0.00663775,1,1,8,0
566025857,566024711,2.3059182,-1.300575,-2.4789574,0.99629784,-0.01382356,-0.03602002,-0.0768252,-0.018589301,-0.037765544,-0.15013506,-0.004321091,0.001738195,0.0069491183,0.017005607,0.017005205,0.03343474,2.4550529e-05,2.4190549e-05,0.0003483885,0.006077503,0.006076262,0.006671718,1,1,8,0
566036033,566034730,2.3056273,-1.3004074,-2.480247,0.99629533,-0.013847915,-0.03605548,-0.07683732,-0.017170342,-0.03747768,-0.15278324,0.00039379927,-0.011513338,-0.0027391086,0.01714101,0.017140595,0.03355176,2.4586081e-05,2.422686e-05,0.00034722663,0.0061257333,0.0061244615,0.006696852,1,1,8,0
566045807,566044749,2.305335,-1.3002622,-2.4815607,0.9962942,-0.013811778,-0.036037456,-0.07686562,-0.019560143,-0.038425222,-0.15393573,0.009212763,0.010893892,-0.0033233035,0.017277915,0.017277485,0.033761952,2.4623361e-05,2.4263549e-05,0.0003474103,0.006175053,0.0061737723,0.006731018,1,1,8,0
566055789,566054768,2.3050475,-1.3001415,-2.482892,0.99629325,-0.013799702,-0.036041535,-0.07687948,-0.017676143,-0.03853148,-0.1548435,0.0026577106,0.007467602,-0.0022232449,0.01741634,0.017415896,0.03397375,2.4658899e-05,2.4300116e-05,0.0003475953,0.0062240055,0.0062227016,0.0067652455,1,1,8,0
566065871,566064788,2.3047693,-1.3000406,-2.4842296,0.996291,-0.013807728,-0.036076933,-0.07689162,-0.016710825,-0.037660662,-0.15532109,-0.0056767007,-0.0054682163,-0.0013862025,0.017556293,0.017555837,0.034187164,2.46956e-05,2.4337167e-05,0.00034777925,0.00627355,0.0062722345,0.0067996127,1,1,8,0
566075849,566074807,2.30449,-1.2999562,-2.4855902,0.99629235,-0.01381138,-0.036057375,-0.0768809,-0.019984826,-0.037998524,-0.15766515,-0.0022326373,0.0054677376,0.002128705,0.017697794,0.017697323,0.0344022,2.4733146e-05,2.4374003e-05,0.00034796316,0.0063236435,0.006322319,0.006834058,1,1,8,0
566086019,566084836,2.3042092,-1.29989,-2.4869716,0.99629635,-0.013810145,-0.036023464,-0.07684572,-0.017910305,-0.03797246,-0.15901703,0.006267864,0.002274673,0.004005979,0.017840857,0.017840372,0.03461887,2.4769744e-05,2.4410441e-05,0.00034814808,0.0063739344,0.0063725743,0.006868591,1,1,8,0
566096078,566094845,2.3039427,-1.2998422,-2.488368,0.99629545,-0.013832934,-0.03603637,-0.076846264,-0.016799938,-0.038484156,-0.16022749,0.00066902314,0.0002823295,-0.0019110198,0.017985495,0.017984996,0.034837183,2.4807012e-05,2.4447285e-05,0.00034833243,0.006424287,0.006422922,0.006903244,1,1,8,0
566106227,566104864,2.303676,-1.2998168,-2.4899251,0.99629444,-0.013820633,-0.036026716,-0.07686717,-0.019307872,-0.039618585,-0.162395,0.0077501447,0.007174295,-0.007513865,0.01813172,0.018131206,0.034957107,2.4843426e-05,2.4484025e-05,0.00034717107,0.006475279,0.0064738886,0.0069281063,1,1,8,0
566117135,566114883,2.3035076,-1.2996671,-2.4910548,0.9962929,-0.013794481,-0.036010303,-0.07689853,-0.016915884,-0.038367916,-0.16320032,0.0059511852,0.0019723177,-0.006346378,0.016539475,0.01653911,0.03270437,2.4407169e-05,2.4047495e-05,0.00034735494,0.005906257,0.0059050582,0.0065504974,1,1,8,0
566125997,566124902,2.3033519,-1.2995392,-2.4922073,0.9962912,-0.0137934275,-0.036054794,-0.07690066,-0.01558997,-0.038717862,-0.1647293,-0.0066172164,-0.0042179218,0.0011593918,0.016669642,0.016669266,0.0329079,2.4443332e-05,2.4084095e-05,0.00034753926,0.005953359,0.0059521464,0.006584233,1,1,8,0
566136074,566134922,2.3031998,-1.2994295,-2.4933796,0.99629194,-0.013822306,-0.036069043,-0.07687947,-0.018104324,-0.038919043,-0.1650502,0.00023073197,0.0065023163,0.0033290645,0.016801262,0.016800875,0.033113,2.4480845e-05,2.4120753e-05,0.00034772255,0.006002163,0.0060009477,0.006618068,1,1,8,0
566145974,566144944,2.303039,-1.2993405,-2.4945858,0.9962956,-0.013832067,-0.036043808,-0.07684277,-0.015963867,-0.03814038,-0.16748975,-0.004151689,0.004667254,0.0041718404,0.016934358,0.016933959,0.033319674,2.4517223e-05,2.4157087e-05,0.00034790728,0.0060504586,0.0060492028,0.0066519612,1,1,8,0
566155976,566154960,2.3028877,-1.2992723,-2.4958134,0.99629545,-0.013839862,-0.0360458,-0.076841146,-0.015551125,-0.039120857,-0.16867605,-0.0025875228,-0.00025706872,-0.0017095907,0.017068937,0.017068524,0.033527937,2.455412e-05,2.4193587e-05,0.00034809153,0.0060990183,0.006097752,0.0066860034,1,1,8,0
566166186,566164984,2.3027434,-1.2992249,-2.4971952,0.996292,-0.01382934,-0.036069486,-0.07687668,-0.016839523,-0.039086986,-0.1692551,0.0036284276,0.0028319452,-0.00994995,0.017205013,0.017204586,0.033645127,2.4591789e-05,2.4230245e-05,0.00034827544,0.0061477306,0.0061464636,0.006711119,1,1,8,0
566176754,566174998,2.3025835,-1.2991937,-2.4985886,0.9962927,-0.01378013,-0.03603428,-0.076893486,-0.016353877,-0.040071845,-0.17009233,0.013009739,0.008868425,-0.002270406,0.0173426,0.01734216,0.033856004,2.4626312e-05,2.4266821e-05,0.00034711557,0.006197297,0.006195991,0.0067452714,1,1,8,0
566186169,566185020,2.3024359,-1.299187,-2.5000014,0.9962908,-0.013791589,-0.036072392,-0.0768979,-0.015330773,-0.039541006,-0.17129117,-0.00012000865,-0.002242342,0.0016618157,0.017481713,0.017481258,0.034068495,2.4662315e-05,2.4303476e-05,0.00034729997,0.006246928,0.006245616,0.006779587,1,1,8,0
566196282,566195037,2.302291,-1.2991948,-2.501427,0.9962891,-0.013815191,-0.036122937,-0.07689154,-0.016638815,-0.03925621,-0.17169295,-0.007760059,-0.0070184143,0.0006441963,0.017622368,0.017621899,0.034282606,2.4699508e-05,2.4340356e-05,0.0003474837,0.0062966147,0.006295287,0.006813991,1,1,8,0
566206214,566205056,2.302136,-1.2992218,-2.502869,0.996292,-0.013831543,-0.03609426,-0.07686481,-0.01641543,-0.039235454,-0.1725619,-0.002373278,0.004082958,0.006384163,0.017764576,0.017764091,0.034498345,2.4736275e-05,2.4377068e-05,0.00034766798,0.0063469657,0.006345594,0.0068484503,1,1,8,0
566216252,566215075,2.3019934,-1.2992643,-2.5043266,0.9962933,-0.013856894,-0.03608596,-0.07684745,-0.014992085,-0.04000596,-0.17415944,-0.0094740465,0.00026912964,0.0025218485,0.017908351,0.017907854,0.03471572,2.4772942e-05,2.4413728e-05,0.00034785247,0.006397163,0.0063958024,0.0068830554,1,1,8,0
566226186,566225094,2.3018532,-1.299326,-2.5057986,0.9962903,-0.013829647,-0.03610702,-0.07688034,-0.016429184,-0.04039673,-0.1742657,0.0014418924,-0.0032783218,-0.006818215,0.018053707,0.018053195,0.03493474,2.4811017e-05,2.4450535e-05,0.0003480362,0.0064478763,0.0064464984,0.006917759,1,1,8,0
566236355,566235114,2.3017035,-1.2994043,-2.5074236,0.9962899,-0.013816953,-0.036093045,-0.07689539,-0.016108705,-0.04099591,-0.17533238,0.003629423,-0.005577201,-0.002412133,0.018200658,0.018200131,0.035054818,2.48465e-05,2.4487494e-05,0.00034687814,0.006498366,0.0064969505,0.0069425474,1,1,8,0
566246381,566245133,2.30157,-1.2994993,-2.5090587,0.9962906,-0.013793652,-0.036068078,-0.07690231,-0.0143880155,-0.041168552,-0.17587797,0.0059884293,0.0101206405,0.0021055946,0.018349217,0.018348673,0.03527652,2.4882876e-05,2.4524454e-05,0.00034706236,0.0065499777,0.0065485663,0.0069774217,1,1,8,0
566256202,566255152,2.30144,-1.2996113,-2.510698,0.99628806,-0.013794535,-0.036127873,-0.0769073,-0.015531477,-0.041258577,-0.17560618,0.0009490374,0.0001085856,-0.00037060634,0.018499404,0.018498845,0.035499897,2.4919998e-05,2.4561465e-05,0.00034724627,0.0066014314,0.006599993,0.007012383,1,1,8,0
566266339,566265173,2.3012989,-1.2997369,-2.512337,0.99628973,-0.013837457,-0.036125366,-0.07687936,-0.015132705,-0.041042797,-0.17566058,-0.00935193,-0.0020108907,0.007182774,0.018651228,0.018650655,0.035724953,2.4957766e-05,2.4598408e-05,0.00034743003,0.0066528786,0.006651416,0.0070474115,1,1,8,0
566276967,566275191,2.3010547,-1.2996017,-2.5134614,0.99629027,-0.013861654,-0.036109816,-0.0768738,-0.014233148,-0.041163217,-0.1757434,-0.004011906,0.004424812,0.00024031519,0.016959284,0.016958881,0.03336958,2.4495297e-05,2.4135981e-05,0.00034761417,0.006048342,0.00604709,0.006653365,1,1,8,0
566286369,566285210,2.3008173,-1.2994875,-2.5146055,0.996288,-0.013858178,-0.036119364,-0.076899864,-0.014569065,-0.042180084,-0.17652465,0.008775178,-0.0014741302,-0.0072287833,0.01709392,0.017093506,0.033578046,2.4532892e-05,2.4172576e-05,0.00034779764,0.006097001,0.0060957437,0.0066873846,1,1,8,0
566296516,566295229,2.3005755,-1.2993952,-2.5158746,0.9962876,-0.013826326,-0.03609957,-0.07692105,-0.014830088,-0.041038062,-0.17571117,0.0021653941,0.0043082545,-0.0057762708,0.017230054,0.017229628,0.03369517,2.4570807e-05,2.420927e-05,0.0003479811,0.006145595,0.006144316,0.0067124465,1,1,8,0
566306403,566305248,2.3003418,-1.2993214,-2.5171595,0.99628747,-0.013791124,-0.036099553,-0.076928645,-0.014670871,-0.042107057,-0.17690317,0.009277117,0.002893047,0.0011637084,0.017367698,0.017367257,0.033906255,2.4604988e-05,2.4245888e-05,0.00034682333,0.006194583,0.006193288,0.0067466307,1,1,8,0
566316449,566315268,2.3001187,-1.2992678,-2.5184667,0.9962865,-0.013825744,-0.0361178,-0.07692633,-0.014160841,-0.042231336,-0.17703407,-0.00017838615,-0.0015832463,0.0015276744,0.017506864,0.01750641,0.03411895,2.4641518e-05,2.4282712e-05,0.0003470073,0.0062441607,0.006242849,0.0067809327,1,1,8,0
566326446,566325287,2.299888,-1.2992282,-2.519785,0.9962872,-0.013851347,-0.036137156,-0.076903686,-0.01521467,-0.0409186,-0.17724875,-0.011647052,-0.006905918,0.004838475,0.01764757,0.0176471,0.034333263,2.4678951e-05,2.431923e-05,0.000347191,0.006293538,0.006292199,0.0068152924,1,1,8,0
566336327,566335306,2.299663,-1.2992078,-2.5211182,0.9962874,-0.013864184,-0.03613137,-0.07690097,-0.015128343,-0.041402854,-0.17774458,-0.008673532,0.0033737828,0.0011206076,0.017789826,0.017789342,0.034549206,2.471554e-05,2.4355908e-05,0.00034737532,0.0063434667,0.006342104,0.006849778,1,1,8,0
566346648,566345325,2.299443,-1.2992097,-2.5224652,0.9962858,-0.013879935,-0.036142867,-0.07691429,-0.014454624,-0.041990846,-0.17700581,-0.0031517937,-0.0007599311,-0.005400972,0.017933646,0.017933147,0.03476679,2.4751891e-05,2.4392528e-05,0.00034755984,0.0063933097,0.006391939,0.0068843737,1,1,8,0
566357187,566355344,2.2991323,-1.2990472,-2.5233562,0.99628496,-0.013841212,-0.036132153,-0.076935835,-0.015360147,-0.04151539,-0.1769499,0.0031134272,-0.0029806208,-0.0029025783,0.016380254,0.016379898,0.0324539,2.4329103e-05,2.3967788e-05,0.00034774258,0.0058395374,0.0058383564,0.0065039564,1,1,8,0
566366480,566365364,2.2988334,-1.2989082,-2.5242712,0.996282,-0.01383127,-0.036149997,-0.07696906,-0.014249399,-0.042595726,-0.17680731,-0.0020896809,-0.0025073965,-0.0029372915,0.016508475,0.016508108,0.032655366,2.4365456e-05,2.4004416e-05,0.00034792672,0.0058865524,0.0058853594,0.0065375385,1,1,8,0
566377157,566375382,2.298541,-1.2987872,-2.5252142,0.9962826,-0.013811873,-0.03613685,-0.076970816,-0.013958545,-0.041844945,-0.1773674,0.009640877,0.0073970603,0.00087162753,0.016638132,0.016637754,0.032858387,2.4399755e-05,2.404087e-05,0.00034676862,0.005933951,0.005932748,0.006571223,1,1,8,0
566386573,566385402,2.2982485,-1.298685,-2.5261798,0.99628544,-0.013819137,-0.03612473,-0.07693724,-0.015337481,-0.041564945,-0.17640904,0.0034885146,0.0030375808,0.0063990788,0.016769236,0.016768847,0.033062976,2.4436638e-05,2.4077317e-05,0.00034695218,0.0059820064,0.0059807743,0.006604998,1,1,8,0
566396534,566395421,2.2979603,-1.2986069,-2.527164,0.9962854,-0.013851765,-0.03613895,-0.076926894,-0.014145856,-0.04187997,-0.17732365,-0.012595283,-0.010060544,0.0017139018,0.016901808,0.016901406,0.033269133,2.4472902e-05,2.4113624e-05,0.00034713658,0.006029497,0.00602826,0.0066388585,1,1,8,0
566406562,566405442,2.2976792,-1.2985462,-2.528181,0.99628556,-0.013865357,-0.036119852,-0.076930955,-0.016023992,-0.041746113,-0.17745014,-0.0052811266,0.001858177,-0.0025903631,0.017035853,0.017035436,0.033476874,2.4509674e-05,2.4149907e-05,0.00034732075,0.006078129,0.0060768616,0.00667284,1,1,8,0
566416549,566415459,2.2973914,-1.2985051,-2.5292084,0.9962846,-0.0138576785,-0.036108647,-0.07694931,-0.015090787,-0.04182545,-0.17668387,-0.007561705,-0.0032081048,-0.0029078494,0.01717139,0.01717096,0.033686206,2.45468e-05,2.4186706e-05,0.00034750442,0.006126551,0.0061252676,0.0067069163,1,1,8,0
566426540,566425479,2.2971172,-1.298485,-2.5303807,0.9962828,-0.013814862,-0.036118004,-0.07697523,-0.014494943,-0.042639267,-0.17578116,0.0022728764,-0.00647972,-0.006290189,0.017308429,0.017307987,0.0338036,2.4583982e-05,2.4223435e-05,0.00034768804,0.00617523,0.006173938,0.0067319614,1,1,8,0
566436528,566435498,2.2968516,-1.2984757,-2.5315669,0.9962828,-0.013827228,-0.036127135,-0.076969706,-0.015346186,-0.04210133,-0.1754627,-0.00092247315,-0.0021974102,0.00090649456,0.017446985,0.01744653,0.03401556,2.4620647e-05,2.426017e-05,0.0003478723,0.00622426,0.006222947,0.0067662047,1,1,8,0
566446694,566445517,2.2965784,-1.2984866,-2.5327687,0.99628466,-0.013821002,-0.036109924,-0.076954626,-0.014700806,-0.04202127,-0.17517792,-0.0056080525,0.0066060144,0.005824505,0.017587071,0.017586602,0.03422913,2.465592e-05,2.4296829e-05,0.00034671364,0.0062732105,0.0062718797,0.006800555,1,1,8,0
566456864,566455537,2.2963226,-1.298512,-2.5339825,0.996284,-0.013824231,-0.0361472,-0.07694506,-0.01438073,-0.041485336,-0.17497458,0.0024994265,-0.0078463135,8.0006525e-05,0.0177287,0.017728215,0.03444433,2.4692661e-05,2.4333303e-05,0.00034689775,0.006322755,0.0063214065,0.00683498,1,1,8,0
566466715,566465556,2.2960749,-1.2985613,-2.5352182,0.99628305,-0.013856066,-0.036146205,-0.076952174,-0.014514739,-0.04271477,-0.17625254,-0.0044070594,0.0006613404,-0.0031133916,0.017871883,0.017871385,0.03466116,2.473011e-05,2.4370029e-05,0.00034708143,0.006372465,0.00637109,0.0068695387,1,1,8,0
566476703,566475575,2.295813,-1.2986262,-2.5364718,0.99628305,-0.013839534,-0.03611504,-0.07696988,-0.015664255,-0.041988704,-0.17588887,0.0031412235,0.0076521304,-0.00052796473,0.018016638,0.018016126,0.034879636,2.4766821e-05,2.4406698e-05,0.0003472655,0.006422692,0.006421312,0.006904172,1,1,8,0
566487458,566485594,2.2956445,-1.2983837,-2.5374053,0.99628246,-0.013842153,-0.036102206,-0.07698305,-0.014754009,-0.042460877,-0.17555085,-0.0015980412,0.00041193145,0.00096994406,0.016447445,0.01644708,0.0325512,2.4338402e-05,2.3978311e-05,0.00034744956,0.0058629964,0.005861809,0.0065210876,1,1,8,0
566496751,566495613,2.295481,-1.2981651,-2.5383623,0.99628216,-0.013846196,-0.036129832,-0.07697336,-0.014521787,-0.04172577,-0.1749764,-0.006587649,-0.0021173584,0.0028709762,0.016576422,0.016576046,0.032753438,2.437527e-05,2.4014913e-05,0.0003476332,0.0059106164,0.0059094164,0.006554734,1,1,8,0
566506687,566505634,2.2953072,-1.2979658,-2.5393384,0.9962865,-0.013821119,-0.036078934,-0.07694516,-0.015729353,-0.04126642,-0.17507108,0.0017652996,0.0063372585,0.0070036002,0.016706843,0.016706455,0.032957233,2.4411413e-05,2.405146e-05,0.00034781758,0.005958153,0.0059569282,0.0065884343,1,1,8,0
566516796,566515657,2.2951481,-1.2977865,-2.5403364,0.9962868,-0.013812766,-0.036105353,-0.076930866,-0.013993559,-0.04277493,-0.1746243,0.0027679924,-0.0014583315,0.0020059932,0.01683872,0.016838321,0.033162598,2.4445999e-05,2.4087774e-05,0.00034666006,0.006005676,0.0060044397,0.006622272,1,1,8,0
566526671,566525671,2.294998,-1.2976321,-2.5413556,0.9962839,-0.013823613,-0.03614209,-0.07694859,-0.012631743,-0.042508546,-0.17492701,-0.0028403648,-0.008542404,-0.004667499,0.016972065,0.016971653,0.03336954,2.4483046e-05,2.4123996e-05,0.0003468438,0.0060534575,0.0060522,0.0066562076,1,1,8,0
566536742,566535690,2.2948449,-1.2974999,-2.5424004,0.99628335,-0.013808357,-0.03612782,-0.07696588,-0.015158418,-0.04175071,-0.17510508,0.0018608145,0.0036092661,0.0004589951,0.01710689,0.017106468,0.03357807,2.4519992e-05,2.416061e-05,0.00034702747,0.0061015473,0.0061002737,0.0066902163,1,1,8,0
566546797,566545714,2.294691,-1.297385,-2.5434678,0.996281,-0.01381368,-0.03615418,-0.07698172,-0.01386924,-0.0416808,-0.17626134,-0.00017144486,-0.012538966,-0.0017558147,0.017243212,0.017242774,0.033788197,2.4556359e-05,2.419714e-05,0.00034721164,0.006149865,0.0061485786,0.0067243436,1,1,8,0
566557052,566555729,2.294545,-1.2972914,-2.5446715,0.9962803,-0.0138395205,-0.036174335,-0.07697695,-0.013369133,-0.041730724,-0.17616586,-0.009065929,-0.011840643,0.0019764605,0.01738104,0.01738059,0.033905823,2.4594081e-05,2.4233728e-05,0.00034739505,0.0061987163,0.0061974255,0.006749392,1,1,8,0
566566818,566565748,2.2943928,-1.2972144,-2.5458953,0.9962841,-0.013842254,-0.03614046,-0.07694435,-0.015343586,-0.04190564,-0.17722298,-0.002141734,0.007003869,0.010314563,0.017520392,0.017519927,0.034118574,2.4630881e-05,2.4270636e-05,0.000347579,0.0062481365,0.0062468126,0.00678369,1,1,8,0
566577161,566575773,2.2942433,-1.2971593,-2.5471365,0.99628633,-0.013816557,-0.036130887,-0.076923564,-0.013602765,-0.043044943,-0.17706497,0.0031414228,0.0018721188,0.0014511395,0.017661283,0.017660804,0.034332946,2.4667068e-05,2.4307252e-05,0.00034776362,0.0062972647,0.006295927,0.0068180608,1,1,8,0
566587092,566585786,2.2941055,-1.2971269,-2.5483992,0.9962849,-0.013818549,-0.03614641,-0.07693553,-0.012292221,-0.04236513,-0.17732674,-0.005234959,-0.0022163643,-0.0026175461,0.017803721,0.01780323,0.03454895,2.470189e-05,2.4343919e-05,0.0003466071,0.0063467897,0.0063454313,0.0068525667,1,1,8,0
566597043,566595806,2.2939665,-1.2971152,-2.5496812,0.99628395,-0.013791524,-0.03616238,-0.0769448,-0.014075769,-0.043376062,-0.17824927,0.000994553,-0.0020243085,0.0002309722,0.017947724,0.01794722,0.034766592,2.4739473e-05,2.4380712e-05,0.0003467905,0.0063964343,0.006395067,0.006887153,1,1,8,0
566607666,566605828,2.2936828,-1.2969164,-2.550457,0.99628276,-0.013781744,-0.03614572,-0.07696951,-0.012762891,-0.043310475,-0.17803945,0.003328972,0.0016223409,-0.007867139,0.016391512,0.016391153,0.03253976,2.4314197e-05,2.3956087e-05,0.0003469744,0.0058420203,0.005840845,0.006514692,1,1,8,0
566616947,566615846,2.2934048,-1.2967335,-2.5513864,0.99628025,-0.013811642,-0.03616339,-0.07698865,-0.011996894,-0.04278344,-0.1806299,-0.011268378,-0.010301329,-0.004059131,0.016519884,0.016519513,0.032654535,2.4351359e-05,2.399237e-05,0.00034715797,0.005889107,0.0058879075,0.0065399795,1,1,8,0
566626947,566625863,2.2931297,-1.2965653,-2.5523517,0.9962822,-0.013836299,-0.03615608,-0.07696207,-0.014697866,-0.041758005,-0.1804131,-0.0029098324,-0.0053223404,0.0071642166,0.016649693,0.016649311,0.032857608,2.4388815e-05,2.4028874e-05,0.00034734135,0.0059366156,0.005935413,0.0065736794,1,1,8,0
566637024,566635883,2.2928543,-1.2964168,-2.5533423,0.99628454,-0.013834492,-0.036131762,-0.076943785,-0.013328562,-0.042473674,-0.1809217,-0.00062425446,0.0018605252,0.002844908,0.016780954,0.01678056,0.033062246,2.4425108e-05,2.4065268e-05,0.00034752564,0.005984254,0.0059830244,0.0066074273,1,1,8,0
566647019,566645902,2.292586,-1.2962921,-2.5543656,0.9962836,-0.013806298,-0.036141664,-0.0769551,-0.012539856,-0.04253365,-0.18240027,0.0041088443,-0.0052402746,-0.0058229393,0.016913677,0.016913272,0.033268455,2.4462397e-05,2.410181e-05,0.0003477095,0.006032701,0.006031464,0.006641326,1,1,8,0
566657162,566655922,2.2923265,-1.296188,-2.5554225,0.9962841,-0.013790351,-0.036140166,-0.07695331,-0.013997783,-0.042200454,-0.18181364,0.0038297165,-0.0030842223,0.0011847977,0.017047882,0.017047465,0.03347625,2.4497678e-05,2.4138397e-05,0.00034655252,0.0060807383,0.0060794847,0.006675314,1,1,8,0
566667021,566665940,2.292072,-1.2961034,-2.5564995,0.9962829,-0.013788323,-0.036146287,-0.07696691,-0.012729538,-0.04239451,-0.18215418,-0.0012913356,0.006065857,-0.00276086,0.017183576,0.017183146,0.033685632,2.4533527e-05,2.4174982e-05,0.00034673687,0.00612942,0.006128132,0.006709369,1,1,8,0
566677368,566675959,2.291823,-1.296042,-2.5576081,0.99628264,-0.013813971,-0.036151487,-0.07696268,-0.012867679,-0.042340953,-0.18311112,-0.010825058,-0.0032031331,-0.00079303555,0.017320774,0.017320331,0.033896618,2.4570065e-05,2.4211391e-05,0.0003469208,0.0061781197,0.006176814,0.0067435727,1,1,8,0
566687103,566685979,2.2915747,-1.2959937,-2.558896,0.99628335,-0.0138310185,-0.036138974,-0.07695608,-0.013808317,-0.04221387,-0.18491665,-0.006323513,0.00348384,-7.886608e-05,0.017459491,0.017459035,0.0340145,2.4607236e-05,2.4248053e-05,0.00034710445,0.006227076,0.006225772,0.006768614,1,1,8,0
566697095,566695998,2.2913313,-1.2959651,-2.560214,0.99628353,-0.013827196,-0.03616415,-0.07694362,-0.01327166,-0.042556953,-0.18566562,0.0033642747,-0.00088705454,-5.9991038e-05,0.01759974,0.017599268,0.034228124,2.4644505e-05,2.4284545e-05,0.00034728835,0.0062766373,0.0062752888,0.006802949,1,1,8,0
566707066,566706017,2.2910879,-1.2959552,-2.5615559,0.9962842,-0.013804542,-0.03614761,-0.07694662,-0.01292783,-0.04297783,-0.1866227,0.010111159,-0.0032321601,-0.0024369734,0.017741535,0.017741049,0.03444337,2.4681007e-05,2.4321253e-05,0.00034747273,0.0063260854,0.0063247303,0.0068374122,1,1,8,0
566717735,566716037,2.2908554,-1.2959647,-2.5629253,0.9962833,-0.013775364,-0.036132917,-0.076970264,-0.013754071,-0.042527564,-0.18796144,0.011447645,0.008181929,-0.0050357087,0.01788489,0.017884389,0.034660254,2.4718345e-05,2.4358253e-05,0.00034765643,0.006376846,0.0063754846,0.0068719694,1,1,8,0
566727377,566726056,2.2906227,-1.2959925,-2.5643153,0.9962821,-0.013765777,-0.036158722,-0.07697567,-0.012426568,-0.043381296,-0.18810391,0.0006737257,-0.00093274633,-0.0003450892,0.018029824,0.018029308,0.03487878,2.4753255e-05,2.4395109e-05,0.0003465007,0.0064267856,0.0064253975,0.0069065765,1,1,8,0
566737835,566736075,2.2904723,-1.295968,-2.565341,0.99628246,-0.013780784,-0.036163587,-0.0769646,-0.01268243,-0.043079443,-0.1891431,-0.0014529313,0.0041688015,0.0033278796,0.016457932,0.016457565,0.03263703,2.4324461e-05,2.3966524e-05,0.00034668462,0.005866626,0.0058654384,0.0065315897,1,1,8,0
566747264,566746094,2.2903295,-1.2959589,-2.5665135,0.99628305,-0.013824706,-0.036157217,-0.076953106,-0.0128572825,-0.043015063,-0.19093244,-0.008517843,2.5604363e-06,0.0019430955,0.016587054,0.016586676,0.03275205,2.4361343e-05,2.4002722e-05,0.0003468683,0.0059145167,0.0059133205,0.0065568425,1,1,8,0
566757343,566756114,2.2901857,-1.295969,-2.5677137,0.99628437,-0.013842377,-0.036140457,-0.07694094,-0.012553,-0.042926915,-0.19079769,-0.0025827354,0.0020710514,1.736619e-05,0.016717626,0.016717236,0.032955885,2.4397954e-05,2.4039045e-05,0.00034705226,0.0059618205,0.0059605995,0.006590561,1,1,8,0
566767201,566766132,2.290042,-1.2959938,-2.5689478,0.9962831,-0.01383569,-0.036144316,-0.07695553,-0.01272427,-0.043222047,-0.19285567,0.001767709,-0.0010704924,-0.005758291,0.016849652,0.016849251,0.033161294,2.4434778e-05,2.4075516e-05,0.00034723614,0.006009632,0.0060084,0.006624411,1,1,8,0
566777588,566776152,2.2899015,-1.2960404,-2.5702174,0.99628365,-0.0137901595,-0.036113124,-0.07697176,-0.0123253865,-0.043623555,-0.19426167,0.0066788713,0.0056335274,-0.0028452256,0.016983151,0.016982736,0.03336828,2.447155e-05,2.4112192e-05,0.00034741987,0.0060580303,0.006056781,0.0066583436,1,1,8,0
566787259,566786173,2.2897682,-1.296101,-2.571516,0.99628264,-0.013774329,-0.03614216,-0.07697474,-0.011664259,-0.04347931,-0.19483654,0.004793769,-0.00918864,0.000234653,0.017118135,0.017117707,0.03357685,2.4507954e-05,2.4148865e-05,0.0003476042,0.0061069448,0.0061056735,0.006692361,1,1,8,0
566797344,566796190,2.2896347,-1.2961833,-2.57284,0.9962826,-0.01376974,-0.03615324,-0.0769703,-0.011810966,-0.04442012,-0.19502394,0.00045810617,-0.007365557,0.0022694776,0.01725462,0.017254181,0.03378702,2.4543515e-05,2.4185261e-05,0.00034644816,0.0061558452,0.0061545577,0.006726499,1,1,8,0
566807212,566806209,2.2895043,-1.2962832,-2.5741909,0.99628305,-0.013817117,-0.036134843,-0.07696516,-0.012224696,-0.043664757,-0.19611661,-0.00834908,0.008751256,-0.0014568135,0.01739262,0.017392168,0.03399879,2.4579978e-05,2.4221734e-05,0.00034663215,0.0062050526,0.0062037464,0.0067607327,1,1,8,0
566817425,566816228,2.289378,-1.2963926,-2.5756874,0.9962831,-0.013863692,-0.03615227,-0.076947294,-0.010501496,-0.043204397,-0.1967457,-0.0106772045,-0.0066079274,0.0025612665,0.017532147,0.017531682,0.034116898,2.4616555e-05,2.4258215e-05,0.00034681623,0.0062545193,0.0062531964,0.0067857294,1,1,8,0
566827379,566826248,2.2892559,-1.2965238,-2.577211,0.99628067,-0.013867238,-0.036169887,-0.07696927,-0.011321286,-0.04474947,-0.19771323,0.0049502226,-0.0126383975,-0.007865597,0.017673215,0.017672738,0.034331314,2.465411e-05,2.4294828e-05,0.0003469997,0.0063038943,0.006302552,0.006820156,1,1,8,0
566837357,566836267,2.2891386,-1.2966733,-2.5787656,0.99628043,-0.013824821,-0.036152165,-0.076988004,-0.011481327,-0.044574928,-0.20107737,0.0071546356,0.006146893,-0.0054965415,0.017815836,0.017815346,0.03454736,2.4691133e-05,2.433164e-05,0.0003471834,0.006353869,0.00635251,0.0068546482,1,1,8,0
566847449,566846286,2.2890196,-1.2968333,-2.580358,0.99628174,-0.013789864,-0.036150455,-0.076979846,-0.0101332,-0.045563225,-0.20213081,0.0075153788,0.0015402911,0.0007437088,0.017960027,0.017959522,0.034765042,2.4727808e-05,2.436871e-05,0.00034736737,0.0064044343,0.006403057,0.006889241,1,1,8,0
566858226,566856306,2.2888253,-1.2967166,-2.5813382,0.9962812,-0.013787884,-0.03616381,-0.07698043,-0.010854016,-0.04494719,-0.20384823,-0.0012496698,-0.006196744,-0.0032747462,0.016401174,0.016400814,0.032538272,2.4302044e-05,2.3943294e-05,0.00034755122,0.0058485223,0.005847348,0.006516612,1,1,8,0
566867505,566866325,2.2886336,-1.2966157,-2.5823681,0.99628353,-0.0138062015,-0.0361462,-0.07695515,-0.011818979,-0.045098715,-0.20498271,-0.000120681674,0.008865018,0.005799928,0.016529702,0.016529331,0.032740366,2.4336863e-05,2.39795e-05,0.0003463957,0.00589646,0.005895267,0.006550226,1,1,8,0
566877485,566876345,2.288443,-1.2965314,-2.58357,0.9962842,-0.013868899,-0.036148913,-0.07693378,-0.009501006,-0.044041406,-0.20640457,-0.016708685,-0.0014702242,0.0020989368,0.016659673,0.016659291,0.032855656,2.437276e-05,2.4015606e-05,0.00034658,0.0059443605,0.0059431493,0.0065754633,1,1,8,0
566887357,566886363,2.2882645,-1.2964739,-2.5848014,0.9962823,-0.013882131,-0.03615226,-0.076954596,-0.011161191,-0.044707444,-0.20649663,-0.0014379508,-0.003437269,-0.008198005,0.016791102,0.016790709,0.033060327,2.4410092e-05,2.4051898e-05,0.00034676332,0.0059923357,0.0059911157,0.0066092648,1,1,8,0
566897435,566896382,2.288088,-1.2964349,-2.5860727,0.9962803,-0.01384806,-0.03615241,-0.07698585,-0.010599934,-0.045613524,-0.20904823,0.008343405,-0.0024140347,-0.008961666,0.016924,0.016923591,0.033266574,2.4447008e-05,2.4088322e-05,0.00034694702,0.006040288,0.0060390374,0.0066431593,1,1,8,0
566907461,566906402,2.287912,-1.29642,-2.5873885,0.9962809,-0.013799834,-0.036144305,-0.07699014,-0.009732863,-0.046142288,-0.21043144,0.008328579,0.0024007102,-0.0011742867,0.017058374,0.017057953,0.033474404,2.448314e-05,2.412517e-05,0.00034713114,0.006088679,0.0060874186,0.006677133,1,1,8,0
566917558,566916421,2.2877486,-1.296419,-2.588742,0.9962803,-0.013801336,-0.036173437,-0.07698498,-0.0099644065,-0.04555045,-0.21088426,0.007631683,0.0009087043,0.0019670713,0.017194243,0.017193811,0.033683825,2.452017e-05,2.4162007e-05,0.0003473147,0.006137417,0.0061361603,0.00671124,1,1,8,0
566927652,566926440,2.2875848,-1.2964386,-2.590129,0.9962819,-0.013826965,-0.036176726,-0.07695787,-0.010492335,-0.045579024,-0.21294563,-0.0049618026,0.005595798,0.0047919913,0.017331619,0.017331176,0.033894844,2.4557368e-05,2.419863e-05,0.00034749848,0.0061866054,0.0061853104,0.006745421,1,1,8,0
