timestamp,timestamp_sample,accel_device_id,gyro_device_id,delta_angle[0],delta_angle[1],delta_angle[2],delta_velocity[0],delta_velocity[1],delta_velocity[2],delta_angle_dt,delta_velocity_dt,delta_angle_clipping,delta_velocity_clipping,accel_calibration_count,gyro_calibration_count
564943286,564942637,3670026,3670026,-2.8117685e-05,-1.9714519e-06,-1.1815788e-06,-0.0036997185,0.00114273,-0.04918564,5014,5014,0,0,1,1
564948167,564947643,3670026,3670026,-3.401591e-05,-6.950407e-06,5.388005e-07,-0.0037453948,0.0012102427,-0.049351152,5006,5006,0,0,1,1
564953138,564952652,3670026,3670026,-2.5533649e-05,-7.5451994e-06,-2.189754e-06,-0.0037930312,0.0011258423,-0.049465194,5009,5009,0,0,1,1
564958224,564957662,3670026,3670026,-2.3642908e-05,1.1806705e-05,-1.0008855e-05,-0.0036832548,0.0014328234,-0.04950992,5010,5010,0,0,1,1
564963177,564962672,3670026,3670026,-5.130796e-05,-3.0746512e-05,-5.99101e-05,-0.0033559243,0.0012265902,-0.049741123,5010,5010,0,0,1,1
564968276,564967681,3670026,3670026,-3.845997e-05,-2.972243e-06,-2.7006916e-05,-0.004233267,0.00037721117,-0.049386185,5009,5009,0,0,1,1
564973193,564972691,3670026,3670026,-3.1491283e-05,9.531473e-06,1.6619055e-05,-0.0038984527,0.0010758652,-0.04943029,5010,5010,0,0,1,1
564978282,564977700,3670026,3670026,1.7834254e-05,-8.44198e-06,9.290616e-05,-0.0030008415,0.0010279418,-0.04911898,5009,5009,0,0,1,1
564983232,564982710,3670026,3670026,8.921112e-06,1.1137631e-05,0.00016445482,-0.0038061729,0.0010491693,-0.04898582,5010,5010,0,0,1,1
564988196,564987720,3670026,3670026,1.2436165e-05,-3.6026242e-05,0.00021124523,-0.0030222288,0.000117583775,-0.049561497,5010,5010,0,0,1,1
564993225,564992730,3670026,3670026,4.2396532e-05,-2.6579974e-06,7.9821155e-05,-0.004478383,0.0032980784,-0.04908858,5010,5010,0,0,1,1
564998310,564997739,3670026,3670026,-6.460893e-05,3.664497e-05,-6.42873e-05,-0.005887917,0.0015394582,-0.050509606,5009,5009,0,0,1,1
565003344,565002749,3670026,3670026,-7.8591605e-05,-3.6982936e-05,-0.0001888488,-0.0031536047,0.0012343373,-0.04853137,5010,5010,0,0,1,1
565008276,565007758,3670026,3670026,-0.00012346743,8.137164e-05,-0.0002708097,-0.0033792031,0.0012332135,-0.049872417,5009,5009,0,0,1,1
565013484,565012770,3670026,3670026,-6.770659e-05,-5.589058e-05,-0.00024093759,-0.0027621512,0.0005645012,-0.050765213,5012,5012,0,0,1,1
565018276,565017777,3670026,3670026,1.6543467e-05,-4.1263545e-05,-9.717291e-05,-0.0042140945,0.0006209553,-0.04763783,5007,5007,0,0,1,1
565023343,565022788,3670026,3670026,-0.00012669101,9.286301e-05,1.613945e-05,-0.0048997025,0.001613832,-0.048736624,5011,5011,0,0,1,1
565028432,565027797,3670026,3670026,3.6541067e-05,-6.977038e-05,0.00013453179,-0.0014394817,-0.00029124937,-0.051172107,5009,5009,0,0,1,1
565033358,565032807,3670026,3670026,8.467249e-05,-1.9352092e-05,0.00019359803,-0.003505499,0.0006613509,-0.04912341,5010,5010,0,0,1,1
565038424,565037816,3670026,3670026,-2.0686171e-05,5.624596e-05,0.00018970105,-0.0056381025,0.001821652,-0.048826683,5009,5009,0,0,1,1
565043440,565042827,3670026,3670026,1.024349e-05,-6.424184e-05,9.608076e-05,-0.0031771094,0.0010642186,-0.049723778,5011,5011,0,0,1,1
565048304,565047835,3670026,3670026,-3.9615104e-05,-3.055654e-06,2.8231892e-05,-0.0038321405,0.0018119973,-0.048642863,5008,5008,0,0,1,1
565053358,565052847,3670026,3670026,8.560006e-07,4.3460946e-05,-9.635222e-05,-0.0042244815,0.00076303096,-0.050349627,5012,5012,0,0,1,1
565058337,565057854,3670026,3670026,-6.246639e-05,3.2940618e-05,-0.00013365505,-0.004182931,0.0022725773,-0.050102774,5007,5007,0,0,1,1
565063357,565062864,3670026,3670026,-0.00013232794,-3.5841908e-06,-0.00014998148,-0.0035376046,0.0016112877,-0.048583694,5010,5010,0,0,1,1
565068367,565067874,3670026,3670026,-2.9003084e-05,4.8663485e-05,-0.00010639706,-0.0037136732,-0.0007682186,-0.048848353,5010,5010,0,0,1,1
565073381,565072883,3670026,3670026,-2.157855e-05,-3.467352e-06,-3.5238063e-05,-0.0033601343,0.0012297318,-0.050348163,5009,5009,0,0,1,1
565078408,565077893,3670026,3670026,-1.585949e-05,-8.843965e-06,3.7059828e-05,-0.002997429,0.0012828398,-0.049760528,5010,5010,0,0,1,1
565083401,565082905,3670026,3670026,1.564158e-05,-1.50740425e-05,0.00013710273,-0.0036553564,0.001070313,-0.04892293,5012,5012,0,0,1,1
565088431,565087913,3670026,3670026,8.978648e-06,-4.991024e-06,0.00015242667,-0.0037547764,0.00016323404,-0.047910586,5008,5008,0,0,1,1
565093466,565092922,3670026,3670026,1.7902974e-05,-3.649618e-05,0.00010846626,-0.004409175,0.0013612371,-0.04927351,5009,5009,0,0,1,1
565098451,565097932,3670026,3670026,1.4129789e-05,3.3578526e-06,5.2885942e-05,-0.0034115794,0.0026458236,-0.050586738,5010,5010,0,0,1,1
565103503,565102941,3670026,3670026,-2.838262e-05,-2.783822e-05,-5.0590614e-05,-0.00391152,0.00048132156,-0.050345253,5009,5009,0,0,1,1
565108458,565107951,3670026,3670026,-7.941324e-05,-3.773568e-05,-8.467258e-05,-0.0035745949,0.0019778458,-0.049388133,5010,5010,0,0,1,1
565113795,565112967,3670026,3670026,-5.684111e-05,4.056097e-06,-0.0001141761,-0.0034295092,4.1399453e-05,-0.049381386,5016,5016,0,0,1,1
565118469,565117970,3670026,3670026,-5.5194847e-05,-3.3327706e-05,-0.00012025698,-0.004150667,0.0009990757,-0.049370408,5003,5003,0,0,1,1
565123533,565122980,3670026,3670026,-2.2355964e-05,-3.243957e-05,-3.870617e-05,-0.0039792513,0.001442548,-0.049020637,5010,5010,0,0,1,1
565128550,565127991,3670026,3670026,-6.250518e-05,-2.4417632e-05,6.373265e-06,-0.0029299825,-6.9645057e-06,-0.049583223,5011,5011,0,0,1,1
565133530,565132999,3670026,3670026,2.1864516e-05,8.194456e-06,6.908425e-05,-0.0039200443,0.0015160773,-0.049507394,5008,5008,0,0,1,1
565138483,565138009,3670026,3670026,1.02041695e-05,-4.3157524e-05,9.324612e-05,-0.0032577773,0.00080388156,-0.049757816,5010,5010,0,0,1,1
565143581,565143019,3670026,3670026,-2.321623e-05,-3.4812336e-05,7.056263e-05,-0.004052675,0.0020646127,-0.0486555,5010,5010,0,0,1,1
565148507,565148032,3670026,3670026,-2.01544e-06,2.094341e-05,5.9748825e-05,-0.0044615404,0.00047636678,-0.049386535,5013,5013,0,0,1,1
565153546,565153037,3670026,3670026,-4.968982e-05,-1.9802237e-05,-1.0205562e-06,-0.0034836086,0.0016747914,-0.049542256,5005,5005,0,0,1,1
565158532,565158048,3670026,3670026,-4.2223295e-05,2.2728369e-05,-5.387827e-05,-0.003551757,0.0018381445,-0.04876768,5011,5011,0,0,1,1
565163544,565163057,3670026,3670026,-6.6375345e-05,1.3866638e-05,-6.662368e-05,-0.0040139346,-8.988474e-05,-0.050049838,5009,5009,0,0,1,1
565168554,565168066,3670026,3670026,-2.503592e-05,1.9465197e-05,-6.7225985e-05,-0.0045493892,0.0017503015,-0.04927438,5009,5009,0,0,1,1
565173550,565173076,3670026,3670026,-3.8426965e-06,2.9728764e-05,-4.928259e-05,-0.0032589557,6.9560636e-05,-0.049694896,5010,5010,0,0,1,1
565178658,565178086,3670026,3670026,-1.7125623e-05,-3.3223416e-05,1.3369456e-05,-0.0028090419,0.0021217677,-0.049652286,5010,5010,0,0,1,1
565183585,565183095,3670026,3670026,1.3954365e-05,5.0782903e-05,2.9043447e-05,-0.0042648064,0.001066806,-0.04863849,5009,5009,0,0,1,1
565188656,565188105,3670026,3670026,-1.2207411e-05,-2.3144468e-05,3.8278224e-05,-0.004053956,0.0010429308,-0.049609367,5010,5010,0,0,1,1
565193622,565193114,3670026,3670026,2.3951756e-05,-1.325703e-05,5.1863903e-05,-0.0035555759,0.0004906563,-0.048928883,5009,5009,0,0,1,1
565198641,565198124,3670026,3670026,-5.7192643e-05,1.0549711e-05,2.6971713e-05,-0.0034951044,0.0014443768,-0.049619302,5010,5010,0,0,1,1
565203646,565203134,3670026,3670026,-3.4279212e-05,1.0498176e-05,-1.1714627e-05,-0.0042083347,0.0015618436,-0.050219845,5010,5010,0,0,1,1
565208832,565208143,3670026,3670026,-2.9340941e-05,1.2525393e-05,-2.8064362e-05,-0.0031524003,0.00027916144,-0.049740862,5009,5009,0,0,1,1
565213835,565213153,3670026,3670026,-6.5322216e-05,-3.772975e-05,-3.8357368e-05,-0.0034048462,0.0015885102,-0.049498867,5010,5010,0,0,1,1
565218725,565218163,3670026,3670026,-2.0846028e-05,-3.6625253e-05,-4.341698e-05,-0.0040019895,0.0009215929,-0.049669463,5010,5010,0,0,1,1
565223800,565223172,3670026,3670026,-4.2073243e-05,-2.116547e-05,-1.3698342e-05,-0.00464631,0.0016689237,-0.048597578,5009,5009,0,0,1,1
565228691,565228182,3670026,3670026,-3.523318e-05,-2.1195689e-05,1.3051646e-05,-0.0033903446,0.0013527971,-0.04990198,5010,5010,0,0,1,1
565233685,565233192,3670026,3670026,-4.3196185e-05,7.6507376e-07,2.4869194e-05,-0.0028244678,0.00046797737,-0.048277542,5010,5010,0,0,1,1
565238697,565238201,3670026,3670026,3.3179647e-05,2.8670636e-05,2.8503786e-05,-0.0043238765,0.0009196627,-0.049526203,5009,5009,0,0,1,1
565243834,565243211,3670026,3670026,-1.8866242e-05,-3.1879033e-05,4.1258412e-05,-0.0035538846,0.0019843332,-0.049643606,5010,5010,0,0,1,1
565248845,565248222,3670026,3670026,-2.5416799e-05,-2.2784382e-06,1.1239463e-05,-0.004117237,0.0009124192,-0.048358846,5011,5011,0,0,1,1
565253728,565253230,3670026,3670026,9.839592e-07,-1.5496722e-05,-2.3299865e-05,-0.004080301,0.0008754716,-0.0506063,5008,5008,0,0,1,1
565258746,565258240,3670026,3670026,-2.7272574e-05,2.4725628e-05,-2.5436191e-05,-0.0037442544,0.0011620768,-0.048863225,5010,5010,0,0,1,1
565263736,565263250,3670026,3670026,-4.527287e-05,-2.3614264e-05,-2.9939438e-05,-0.0030569676,0.0007067027,-0.050016392,5010,5010,0,0,1,1
565268846,565268259,3670026,3670026,-3.9774233e-05,8.982704e-06,-3.876255e-05,-0.0037185955,0.0018278748,-0.04880359,5009,5009,0,0,1,1
565273759,565273269,3670026,3670026,-3.5996156e-05,-2.406851e-06,-2.1031165e-05,-0.0041546463,0.0006100296,-0.049896594,5010,5010,0,0,1,1
565278907,565278278,3670026,3670026,-4.6353078e-05,1.5604127e-06,1.5641945e-05,-0.0032177863,0.001023784,-0.049473766,5009,5009,0,0,1,1
565283806,565283288,3670026,3670026,-5.9393788e-06,9.2067885e-06,3.904582e-05,-0.004096686,0.0011869491,-0.04965011,5010,5010,0,0,1,1
565288820,565288297,3670026,3670026,-2.4473293e-05,-5.0246974e-05,3.7446836e-05,-0.0039457055,0.0017629996,-0.05012803,5009,5009,0,0,1,1
565293818,565293307,3670026,3670026,-4.064778e-06,3.392798e-05,3.8276088e-05,-0.003659397,0.0003857844,-0.04816959,5010,5010,0,0,1,1
565298825,565298317,3670026,3670026,-3.5098004e-05,-5.0805436e-05,1.8996798e-05,-0.0036827493,0.0018233309,-0.050468195,5010,5010,0,0,1,1
565303840,565303326,3670026,3670026,-2.262886e-05,-8.807147e-06,1.9064969e-06,-0.004107574,0.00064865814,-0.04862561,5009,5009,0,0,1,1
565308897,565308336,3670026,3670026,-1.9738342e-05,-1.9042225e-05,-4.0636685e-05,-0.003592675,0.0016345199,-0.05012888,5010,5010,0,0,1,1
565314030,565313346,3670026,3670026,-2.2536742e-05,2.336956e-05,-6.1417886e-05,-0.004136698,0.00096958183,-0.049467232,5010,5010,0,0,1,1
565318954,565318362,3670026,3670026,-1.3851399e-05,-2.2156544e-06,-5.5630575e-05,-0.003344182,0.0005841312,-0.0506538,5016,5016,0,0,1,1
565323849,565323365,3670026,3670026,-2.1114627e-05,-5.985785e-06,-2.892467e-05,-0.003637137,0.001328402,-0.048978377,5003,5003,0,0,1,1
565328885,565328374,3670026,3670026,-3.5546767e-05,-1.3092754e-05,-9.591371e-06,-0.003403131,0.0012151285,-0.05020592,5009,5009,0,0,1,1
565333867,565333384,3670026,3670026,-3.1537846e-05,-2.4349072e-05,1.8379493e-05,-0.0037978597,0.00086528144,-0.049334977,5010,5010,0,0,1,1
565338900,565338394,3670026,3670026,-5.5119806e-05,-5.9637277e-06,4.856787e-05,-0.003253663,0.00078905455,-0.049142286,5010,5010,0,0,1,1
565343998,565343403,3670026,3670026,-2.7494692e-05,-1.5882588e-05,5.0756298e-05,-0.0042281146,0.0013246185,-0.04942915,5009,5009,0,0,1,1
565349059,565348413,3670026,3670026,-1.6099377e-05,4.3611202e-05,3.9888164e-05,-0.0041124555,0.0010665611,-0.049386356,5010,5010,0,0,1,1
565353978,565353423,3670026,3670026,-2.5291827e-05,-1.053533e-05,2.8151373e-05,-0.0038900943,0.0011271143,-0.05048056,5010,5010,0,0,1,1
565358930,565358432,3670026,3670026,-1.7968741e-05,1.186881e-05,-1.13244105e-05,-0.0032259393,0.0015928744,-0.04958977,5009,5009,0,0,1,1
565363943,565363442,3670026,3670026,-3.323588e-05,-1.06715925e-05,-7.2350676e-06,-0.0037640263,0.0018196553,-0.050249457,5010,5010,0,0,1,1
565368947,565368452,3670026,3670026,-3.628435e-05,-3.8882812e-05,-3.3468456e-05,-0.0033899029,0.00060562923,-0.0496507,5010,5010,0,0,1,1
565374027,565373461,3670026,3670026,-1.4045161e-05,-5.6201275e-06,-4.215917e-05,-0.0036667574,0.0014392749,-0.04886017,5009,5009,0,0,1,1
565379191,565378481,3670026,3670026,-2.8965207e-05,-5.371534e-05,-3.9161376e-05,-0.0037577257,0.00040409557,-0.05013918,5020,5020,0,0,1,1
565383985,565383480,3670026,3670026,-1.37981715e-05,1.0770753e-05,-2.9347979e-05,-0.0051302025,0.0012381165,-0.04889804,4999,4999,0,0,1,1
565389020,565388490,3670026,3670026,-1.2540568e-06,3.2128173e-05,1.2363358e-05,-0.0028413006,0.00017262732,-0.050065838,5010,5010,0,0,1,1
565394022,565393500,3670026,3670026,-3.3560646e-05,-6.951796e-05,-1.5534245e-06,-0.0030229408,0.002645654,-0.05048141,5010,5010,0,0,1,1
565399052,565398509,3670026,3670026,-8.619092e-06,1.9236588e-05,2.0252075e-05,-0.0042571393,0.00027733168,-0.04882997,5009,5009,0,0,1,1
565404100,565403519,3670026,3670026,-6.587708e-05,-2.0585921e-05,1.8458531e-05,-0.00387107,0.0015598428,-0.050104797,5010,5010,0,0,1,1
565409052,565408529,3670026,3670026,-4.4408076e-05,-2.7702154e-05,2.532248e-05,-0.0034798954,0.00047355547,-0.049643103,5010,5010,0,0,1,1
565414129,565413538,3670026,3670026,-2.3403163e-05,3.0035874e-06,1.6842143e-05,-0.0044986196,0.00153464,-0.049209613,5009,5009,0,0,1,1
565419074,565418548,3670026,3670026,-5.0817747e-05,2.7377499e-05,1.02798585e-05,-0.0036502997,0.0010306198,-0.049746722,5010,5010,0,0,1,1
565424055,565423557,3670026,3670026,-2.4813799e-05,-4.946142e-06,-7.028075e-06,-0.0041221557,0.0015599958,-0.050069857,5009,5009,0,0,1,1
565429073,565428567,3670026,3670026,2.7422719e-05,1.358073e-05,-9.851176e-06,-0.0033728953,0.00045119206,-0.050411325,5010,5010,0,0,1,1
565434086,565433577,3670026,3670026,-3.41751e-05,-8.393165e-06,-7.645156e-06,-0.0032339713,0.0017748211,-0.05023207,5010,5010,0,0,1,1
565439104,565438586,3670026,3670026,-2.903911e-05,-2.0196187e-05,-2.761267e-05,-0.0036839251,0.0012894778,-0.049911767,5009,5009,0,0,1,1
565444091,565443596,3670026,3670026,-8.155582e-06,1.4279669e-05,-1.9761945e-05,-0.004501864,0.00061732193,-0.049153786,5010,5010,0,0,1,1
565449190,565448606,3670026,3670026,-3.1004944e-05,-3.6893014e-06,-1.2645941e-05,-0.0032385532,0.00053937535,-0.04983032,5010,5010,0,0,1,1
565454107,565453616,3670026,3670026,-5.5985485e-05,-2.959852e-05,-1.7047574e-05,-0.0035006835,0.0021387883,-0.049628142,5010,5010,0,0,1,1
565459150,565458625,3670026,3670026,5.1002385e-06,-5.4904117e-06,7.968146e-06,-0.0034141815,0.0007473914,-0.04896607,5009,5009,0,0,1,1
565464125,565463638,3670026,3670026,-5.468137e-05,-6.376225e-05,1.4540672e-05,-0.0035034744,0.00093087484,-0.05081689,5013,5013,0,0,1,1
565469183,565468644,3670026,3670026,-3.1530544e-05,-9.384498e-06,7.3257347e-06,-0.0038706767,0.0010282836,-0.05002893,5006,5006,0,0,1,1
565474183,565473654,3670026,3670026,-1.5451446e-05,-1.1051987e-05,1.410102e-05,-0.003958811,0.0013331284,-0.04940007,5010,5010,0,0,1,1
565479344,565478663,3670026,3670026,-3.5280435e-05,1.030011e-05,2.0579322e-05,-0.0037263394,0.0012185014,-0.049003832,5009,5009,0,0,1,1
565484201,565483673,3670026,3670026,-1.8480212e-05,-3.128506e-05,1.8692335e-05,-0.0038437147,0.00069107657,-0.049650297,5010,5010,0,0,1,1
565489230,565488682,3670026,3670026,-1.20092145e-05,1.31358875e-05,1.4257997e-05,-0.0042443313,0.002120218,-0.049088284,5009,5009,0,0,1,1
565494230,565493692,3670026,3670026,1.8800521e-06,-1.0590926e-05,-1.5708594e-05,-0.0025307261,0.0007307372,-0.050472293,5010,5010,0,0,1,1
565499328,565498702,3670026,3670026,1.6459677e-07,-5.1314477e-05,-3.6426412e-05,-0.003930941,0.0009334432,-0.05106048,5010,5010,0,0,1,1
565504352,565503712,3670026,3670026,-2.304584e-05,2.502196e-05,-3.3162993e-05,-0.0043216846,0.0011416671,-0.0499494,5010,5010,0,0,1,1
565509216,565508721,3670026,3670026,-4.0842828e-05,9.613826e-06,-3.1060412e-05,-0.0033240914,0.001238649,-0.049294055,5009,5009,0,0,1,1
565514327,565513735,3670026,3670026,-4.6567966e-05,-4.5672496e-06,-5.204902e-06,-0.004621841,0.00019677586,-0.049977977,5014,5014,0,0,1,1
565519208,565518740,3670026,3670026,-3.850474e-05,1.5817359e-05,-2.2026077e-05,-0.0041822344,0.0022614633,-0.04929706,5005,5005,0,0,1,1
565524318,565523750,3670026,3670026,-5.027775e-05,6.020621e-06,5.680582e-06,-0.0020030697,0.00021756515,-0.049372643,5010,5010,0,0,1,1
565529260,565528762,3670026,3670026,-2.9249755e-05,-8.513518e-05,2.6200287e-05,-0.0038353414,0.002902147,-0.05075699,5012,5012,0,0,1,1
565534252,565533769,3670026,3670026,-4.3732027e-05,5.644261e-05,4.5506767e-05,-0.0054710177,-0.00013663007,-0.050027903,5007,5007,0,0,1,1
565539290,565538779,3670026,3670026,-2.9097459e-05,9.6927815e-06,4.9136463e-05,-0.0030787874,0.0014275733,-0.050083954,5010,5010,0,0,1,1
565544363,565543788,3670026,3670026,5.5402606e-06,-1.8663966e-05,3.6409278e-05,-0.0035646814,0.0011487264,-0.04875932,5009,5009,0,0,1,1
565549362,565548798,3670026,3670026,-3.5539495e-05,1.4384488e-05,1.1802374e-05,-0.004544983,0.00012543556,-0.050094143,5010,5010,0,0,1,1
565554309,565553808,3670026,3670026,-2.2187637e-06,5.440957e-06,-1.26867335e-05,-0.0027737925,0.00226388,-0.048603784,5010,5010,0,0,1,1
565559375,565558818,3670026,3670026,-1.4247604e-05,-4.397759e-05,-3.6409558e-05,-0.0027145382,0.0007731312,-0.049646076,5010,5010,0,0,1,1
565564423,565563835,3670026,3670026,-1.701037e-05,-3.0470223e-05,-3.2078136e-05,-0.004861047,0.001678067,-0.050729584,5017,5017,0,0,1,1
565569397,565568837,3670026,3670026,-3.216474e-05,-1.8107952e-05,-4.5518995e-05,-0.0039563403,0.00075161865,-0.05057161,5002,5002,0,0,1,1
565574356,565573846,3670026,3670026,-3.398525e-05,-1.5640057e-05,-3.0714426e-05,-0.0025583087,0.000900239,-0.049148683,5009,5009,0,0,1,1
565579371,565578856,3670026,3670026,-5.2358835e-05,-3.1623236e-05,-1.43876e-05,-0.004354335,0.0009142331,-0.04974296,5010,5010,0,0,1,1
565584440,565583869,3670026,3670026,-2.5209596e-05,-1.9027539e-05,4.0333957e-06,-0.0041540368,0.001201375,-0.049795568,5013,5013,0,0,1,1
565589550,565588884,3670026,3670026,-7.294369e-05,-5.9328504e-05,3.3973363e-05,-0.0028390314,0.002209544,-0.04978804,5015,5015,0,0,1,1
565594411,565593885,3670026,3670026,-2.4376324e-05,-4.356748e-05,4.658134e-05,-0.004540843,6.733259e-05,-0.05014437,5001,5001,0,0,1,1
565599424,565598896,3670026,3670026,-5.486087e-05,1.2772278e-05,3.34491e-05,-0.0050237156,0.0017257094,-0.05022284,5011,5011,0,0,1,1
565604382,565603904,3670026,3670026,-4.0886034e-06,2.0346117e-05,1.7051563e-05,-0.0029917464,0.0005887451,-0.050648917,5008,5008,0,0,1,1
565609494,565608914,3670026,3670026,-1.5644693e-05,-5.7680004e-06,1.51926115e-05,-0.0040043406,0.0018387412,-0.049751427,5010,5010,0,0,1,1
565614559,565613924,3670026,3670026,1.6336578e-05,5.6299097e-05,-1.5678193e-05,-0.004021369,0.00041545334,-0.0497748,5010,5010,0,0,1,1
565619404,565618933,3670026,3670026,8.118288e-06,-1.0933526e-05,-1.168792e-05,-0.0028416878,0.0011592277,-0.049290817,5009,5009,0,0,1,1
565624442,565623947,3670026,3670026,-1.560726e-05,-5.228521e-06,-2.9285156e-05,-0.0042270035,0.0018539157,-0.049572255,5014,5014,0,0,1,1
565629548,565628952,3670026,3670026,-1.1486597e-05,1.5166566e-05,-2.196111e-05,-0.004062652,-0.00018404986,-0.049834166,5005,5005,0,0,1,1
565634464,565633963,3670026,3670026,-4.422839e-05,2.2374908e-05,-2.8470631e-05,-0.0030683524,0.0018074772,-0.050677627,5011,5011,0,0,1,1
565639538,565638971,3670026,3670026,-6.498775e-05,-1.20402165e-05,-2.3064104e-05,-0.004103479,0.001601163,-0.0495958,5008,5008,0,0,1,1
565644591,565643981,3670026,3670026,-2.069454e-06,2.1022412e-05,1.1531341e-05,-0.0036001576,0.0008199642,-0.048999082,5010,5010,0,0,1,1
565649600,565648993,3670026,3670026,-2.9764327e-05,-1.2128061e-05,3.4235156e-05,-0.0027884415,0.00022426118,-0.049275115,5012,5012,0,0,1,1
565654507,565654000,3670026,3670026,-6.091113e-05,-8.6339045e-05,3.5746932e-06,-0.0037515992,0.0018719223,-0.05032739,5007,5007,0,0,1,1
565659549,565659010,3670026,3670026,-2.3802575e-05,-1.6453904e-06,1.6164962e-05,-0.004206452,0.0010058327,-0.049366977,5010,5010,0,0,1,1
565664523,565664019,3670026,3670026,-7.904453e-06,-1.5407984e-05,1.5305248e-05,-0.0030488905,0.0017149035,-0.05085721,5009,5009,0,0,1,1
565669533,565669029,3670026,3670026,-6.934257e-05,2.0334686e-05,2.509827e-05,-0.004756243,0.000923204,-0.050024744,5010,5010,0,0,1,1
565674575,565674038,3670026,3670026,-1.7909422e-05,-2.2889014e-06,-1.3866734e-05,-0.0035107352,0.0010974485,-0.04993829,5009,5009,0,0,1,1
565679745,565679049,3670026,3670026,5.046864e-05,-1.7804285e-05,-1.3010364e-05,-0.003246612,0.0004227549,-0.04922253,5011,5011,0,0,1,1
565684577,565684057,3670026,3670026,-2.2245966e-05,-2.2043718e-05,-3.5761215e-05,-0.0042558243,0.0012116026,-0.050645053,5008,5008,0,0,1,1
565689583,565689067,3670026,3670026,-1.0178888e-06,1.2970519e-05,-1.3610297e-05,-0.0037303332,0.0008148427,-0.050031558,5010,5010,0,0,1,1
565694553,565694077,3670026,3670026,-3.2126463e-05,-4.834445e-05,-2.1250145e-05,-0.0039319727,0.0020755318,-0.050676018,5010,5010,0,0,1,1
565699569,565699086,3670026,3670026,-4.6418667e-05,-4.0224872e-06,6.33263e-06,-0.0032743947,0.00032357636,-0.049271718,5009,5009,0,0,1,1
565704571,565704096,3670026,3670026,-7.650795e-05,1.4579547e-05,5.5600967e-06,-0.004198979,0.0013646835,-0.050216123,5010,5010,0,0,1,1
565709593,565709106,3670026,3670026,-2.9613126e-05,-4.468752e-05,1.39095855e-05,-0.0027537702,0.0012809968,-0.05023216,5010,5010,0,0,1,1
565714738,565714115,3670026,3670026,-7.7492274e-05,-3.2944252e-05,1.3483781e-05,-0.004150743,0.002597514,-0.049740583,5009,5009,0,0,1,1
565719633,565719126,3670026,3670026,-3.6099734e-06,3.78062e-05,1.7743097e-05,-0.004907802,-0.00015774266,-0.04961386,5011,5011,0,0,1,1
565724621,565724134,3670026,3670026,-1.7087074e-05,-3.2849835e-05,3.642843e-06,-0.0030972546,0.001340342,-0.05018608,5008,5008,0,0,1,1
565729866,565729152,3670026,3670026,-5.494659e-05,-4.0111983e-05,1.21918e-05,-0.0025481598,0.0014572256,-0.051097002,5018,5018,0,0,1,1
565734627,565734154,3670026,3670026,1.8675111e-05,4.5321212e-05,-7.6187e-06,-0.0050761527,0.00076125556,-0.04920381,5002,5002,0,0,1,1
565739743,565739163,3670026,3670026,3.250731e-06,-1.2618848e-05,-2.3498445e-05,-0.003482739,0.00019743099,-0.05026321,5009,5009,0,0,1,1
565744871,565744173,3670026,3670026,9.894721e-06,-5.3778763e-06,-1.8203871e-05,-0.0033553327,0.0018841892,-0.049881816,5010,5010,0,0,1,1
565749694,565749182,3670026,3670026,3.6809092e-06,3.7832e-05,-1.1150289e-05,-0.0054090284,0.001518142,-0.04983367,5009,5009,0,0,1,1
565754719,565754194,3670026,3670026,7.1341738e-06,3.0028807e-05,-1.9468489e-05,-0.0031011137,0.00051161065,-0.05070581,5012,5012,0,0,1,1
565759705,565759202,3670026,3670026,-5.5834626e-05,-3.2152206e-05,-1.8545483e-05,-0.002101401,0.0007082791,-0.050290268,5008,5008,0,0,1,1
565764731,565764211,3670026,3670026,-8.566372e-05,-2.495897e-05,-6.6806274e-06,-0.0044731973,0.0025131477,-0.050617244,5009,5009,0,0,1,1
565769795,565769221,3670026,3670026,-4.2300264e-05,-1.38126425e-05,7.248527e-06,-0.0042372188,0.00023340696,-0.049483266,5010,5010,0,0,1,1
565774788,565774230,3670026,3670026,-8.014819e-05,3.263234e-05,2.0286325e-05,-0.0036081611,0.001558225,-0.04908352,5009,5009,0,0,1,1
565779854,565779242,3670026,3670026,-3.2834105e-05,-7.587214e-06,3.4757944e-05,-0.003650148,0.001183843,-0.050259423,5012,5012,0,0,1,1
565784738,565784250,3670026,3670026,-1.3822216e-05,-2.4914158e-05,1.4987403e-05,-0.0035115897,0.0010778087,-0.050271433,5008,5008,0,0,1,1
565789829,565789259,3670026,3670026,-1.9275665e-05,-9.510695e-06,-8.841484e-06,-0.0032247864,0.00042853353,-0.049563803,5009,5009,0,0,1,1
565794754,565794269,3670026,3670026,-2.9413233e-05,-1.6997283e-05,-1.40149195e-05,-0.004148343,0.0022639455,-0.050353497,5010,5010,0,0,1,1
565804787,565804289,3670026,3670026,1.2482188e-05,-4.3020544e-05,-8.485278e-06,-0.0035631016,0.000858724,-0.04952725,5011,5011,0,0,1,1
565809827,565809298,3670026,3670026,6.9559646e-06,3.9661823e-05,-5.5749697e-06,-0.005061971,0.0020382723,-0.048516765,5009,5009,0,0,1,1
565814916,565814307,3670026,3670026,6.555462e-06,-1.1212929e-05,-1.1455862e-05,-0.0029715493,-0.0005707522,-0.05119951,5009,5009,0,0,1,1
565819936,565819325,3670026,3670026,2.7947144e-06,-1.7569479e-05,-2.1329968e-05,-0.0030685007,0.002263336,-0.050460197,5018,5018,0,0,1,1
565824818,565824326,3670026,3670026,-4.949066e-05,7.6877095e-06,1.3481091e-05,-0.0047092093,0.0006952943,-0.049497705,5001,5001,0,0,1,1
565829928,565829337,3670026,3670026,-6.744856e-05,-1.6961334e-05,-1.709807e-05,-0.004105662,0.0015314252,-0.050121877,5011,5011,0,0,1,1
565834878,565834347,3670026,3670026,-3.395464e-05,-3.423814e-05,2.9037272e-05,-0.002923658,0.0004977771,-0.05001394,5010,5010,0,0,1,1
565839899,565839358,3670026,3670026,-8.230811e-05,5.518301e-06,7.64194e-06,-0.004926969,0.0019180165,-0.049527712,5011,5011,0,0,1,1
565844909,565844365,3670026,3670026,-4.0562867e-05,-7.0615242e-06,1.3763963e-05,-0.0036903021,0.0015027357,-0.049399063,5007,5007,0,0,1,1
565850204,565849374,3670026,3670026,-3.152553e-05,5.714392e-06,4.952346e-06,-0.0026124392,0.00067055784,-0.05073995,5009,5009,0,0,1,1
565854955,565854384,3670026,3670026,-3.3716813e-05,-1.9344314e-05,2.4661772e-06,-0.0038463813,0.001761744,-0.050680548,5010,5010,0,0,1,1
565859966,565859394,3670026,3670026,1.959081e-05,2.7035685e-05,-1.4713881e-05,-0.004428681,-2.2669637e-05,-0.049590655,5010,5010,0,0,1,1
565864948,565864403,3670026,3670026,-9.537742e-06,-1.7750526e-05,-2.2905294e-06,-0.0028986165,0.0015616043,-0.04971611,5009,5009,0,0,1,1
565869960,565869413,3670026,3670026,1.8692042e-05,-3.5936341e-06,-1.8216531e-05,-0.0044883126,0.00049478555,-0.050218772,5010,5010,0,0,1,1
565874913,565874423,3670026,3670026,-1.3449233e-05,2.5127907e-05,-1.1133313e-05,-0.004057746,0.00091484434,-0.049916208,5010,5010,0,0,1,1
565880016,565879434,3670026,3670026,7.3070537e-06,2.7264623e-05,1.2361428e-05,-0.0017202208,0.0010846914,-0.049581613,5011,5011,0,0,1,1
565884969,565884442,3670026,3670026,-4.6326884e-05,-4.5325876e-05,1.23236705e-05,-0.00432101,0.0011881592,-0.049616154,5008,5008,0,0,1,1
565889991,565889451,3670026,3670026,-4.2506093e-05,1.992201e-05,8.441975e-06,-0.004752433,0.0012415943,-0.05039124,5009,5009,0,0,1,1
565894946,565894461,3670026,3670026,-4.540071e-05,5.294608e-07,2.3885013e-05,-0.0033494271,0.00097682,-0.049064867,5010,5010,0,0,1,1
565899965,565899471,3670026,3670026,-5.7657475e-05,-2.868436e-05,-2.0067756e-07,-0.0032433209,0.0016458493,-0.050198168,5010,5010,0,0,1,1
565904974,565904480,3670026,3670026,-5.7275403e-05,-2.2511798e-05,7.463164e-06,-0.0043603927,0.001333678,-0.049937315,5009,5009,0,0,1,1
565910013,565909490,3670026,3670026,-3.888681e-05,-1.10376495e-05,2.2983959e-06,-0.0023558328,0.00010679033,-0.050341323,5010,5010,0,0,1,1
565915187,565914499,3670026,3670026,-4.9703198e-05,-8.4511346e-05,-4.6960004e-06,-0.0045288308,0.0014977617,-0.04930889,5009,5009,0,0,1,1
565920081,565919509,3670026,3670026,3.6511952e-05,3.9949256e-05,-4.377759e-05,-0.0044935467,0.0008476057,-0.050298817,5010,5010,0,0,1,1
565925011,565924518,3670026,3670026,-2.0372401e-05,-1.645237e-05,-4.588429e-06,-0.003840137,0.0017648027,-0.050084442,5009,5009,0,0,1,1
565930075,565929528,3670026,3670026,-2.8909675e-05,-4.541203e-05,-2.890429e-05,-0.0030560007,0.0015367176,-0.049020924,5010,5010,0,0,1,1
565935059,565934538,3670026,3670026,2.7382981e-05,-5.5664555e-06,4.630084e-06,-0.00432401,-0.00037303675,-0.049053036,5010,5010,0,0,1,1
565940074,565939547,3670026,3670026,2.3069707e-07,-4.2045094e-06,-1.3421528e-05,-0.0030607735,0.0016230016,-0.050578162,5009,5009,0,0,1,1
565945071,565944557,3670026,3670026,-6.534149e-05,-4.6629582e-05,2.5434854e-05,-0.0034413147,0.0010547398,-0.049813412,5010,5010,0,0,1,1
565950107,565949566,3670026,3670026,-1.4245968e-05,1.3425124e-05,-6.7862135e-07,-0.0045961747,0.0011331292,-0.04963693,5009,5009,0,0,1,1
565955110,565954576,3670026,3670026,-5.236726e-06,8.898395e-05,3.0414094e-05,-0.0046858634,0.0010729391,-0.048858624,5010,5010,0,0,1,1
565960182,565959586,3670026,3670026,-0.00011457335,-5.668934e-05,2.517241e-05,-0.0025734294,0.002740873,-0.050330892,5010,5010,0,0,1,1
565965140,565964595,3670026,3670026,-3.1042233e-05,4.5950994e-05,7.966666e-06,-0.003581985,-0.00028069786,-0.049261175,5009,5009,0,0,1,1
565970198,565969605,3670026,3670026,-8.284876e-06,-2.808823e-05,5.8008845e-07,-0.0044910586,0.0010121763,-0.05059677,5010,5010,0,0,1,1
565975105,565974614,3670026,3670026,-5.897644e-05,-3.2522796e-05,-2.3466784e-05,-0.0030211827,0.0019350717,-0.049651947,5009,5009,0,0,1,1
565980307,565979625,3670026,3670026,1.6162327e-05,1.965891e-05,-4.8058493e-05,-0.0042519034,0.0011522908,-0.051137365,5011,5011,0,0,1,1
565985136,565984636,3670026,3670026,4.1087613e-05,2.1056952e-05,-7.881201e-06,-0.0046439385,8.310749e-05,-0.04880501,5011,5011,0,0,1,1
565990239,565989643,3670026,3670026,-4.3340704e-05,1.3913065e-06,-2.2072421e-05,-0.0035616409,0.0021361928,-0.049055684,5007,5007,0,0,1,1
565995133,565994653,3670026,3670026,-4.418066e-06,-3.0345836e-05,-1.5306697e-06,-0.0029814388,0.00097246305,-0.05052516,5010,5010,0,0,1,1
566000136,565999662,3670026,3670026,-7.452658e-06,-3.671124e-05,-1.8440465e-05,-0.00349564,0.0009383824,-0.050311,5009,5009,0,0,1,1
566005160,566004672,3670026,3670026,-3.682408e-05,-6.913039e-05,6.2888453e-06,-0.0032823398,0.00058545504,-0.05019368,5010,5010,0,0,1,1
566010169,566009682,3670026,3670026,-3.8701663e-05,2.7591937e-05,-1.273053e-06,-0.005159715,0.0014385115,-0.049612943,5010,5010,0,0,1,1
566015310,566014691,3670026,3670026,-2.0561234e-05,-1.5917345e-05,3.796074e-05,-0.0044419253,0.00042268325,-0.049716678,5009,5009,0,0,1,1
566020208,566019701,3670026,3670026,-5.5545246e-05,1.40135735e-05,4.046578e-05,-0.0030351032,0.0015773822,-0.048383143,5010,5010,0,0,1,1
566025256,566024711,3670026,3670026,-4.2655993e-05,3.9194615e-06,3.4502675e-05,-0.0033744979,0.00073345355,-0.04922375,5010,5010,0,0,1,1
566030284,566029720,3670026,3670026,-7.617882e-05,-2.23904e-05,-8.351403e-06,-0.003073277,0.0023804232,-0.05094201,5009,5009,0,0,1,1
566035253,566034730,3670026,3670026,-1.9034444e-05,-6.247088e-05,-1.40354705e-05,-0.0032788739,0.0006906743,-0.050685264,5010,5010,0,0,1,1
566040258,566039739,3670026,3670026,-8.873705e-06,-1.8278975e-05,-4.06057e-05,-0.0050944067,0.0016242305,-0.04966138,5009,5009,0,0,1,1
566045311,566044749,3670026,3670026,2.514856e-05,4.978934e-05,-1.6962287e-05,-0.0048602517,-0.0005440262,-0.049554877,5010,5010,0,0,1,1
566050427,566049760,3670026,3670026,-1.9229463e-05,-4.923204e-05,-1.6451948e-05,-0.001973588,0.0022378766,-0.050961394,5011,5011,0,0,1,1
566055278,566054768,3670026,3670026,-7.689184e-06,3.2610606e-05,-1.1446422e-05,-0.0036475996,0.00017681088,-0.04857701,5008,5008,0,0,1,1
566060286,566059778,3670026,3670026,-1.2343828e-05,-5.009056e-05,-1.7027442e-05,-0.003937813,0.0015802901,-0.04961588,5010,5010,0,0,1,1
566065313,566064788,3670026,3670026,-4.944766e-05,-3.218482e-05,-7.257411e-06,-0.0026398771,0.0016507675,-0.049570907,5010,5010,0,0,1,1
566070308,566069803,3670026,3670026,-2.7357808e-05,4.940676e-06,1.251052e-05,-0.0049254987,0.0006555454,-0.050984852,5015,5015,0,0,1,1
566075301,566074807,3670026,3670026,-3.2154352e-05,2.2577236e-05,1.0339876e-05,-0.0059335297,0.00082009175,-0.049470864,5004,5004,0,0,1,1
566080394,566079816,3670026,3670026,-6.0373146e-05,4.9748338e-05,5.199527e-05,-0.0019162903,0.0014630419,-0.049977414,5009,5009,0,0,1,1
566085376,566084836,3670026,3670026,1.0415411e-05,6.620256e-06,1.9796855e-05,-0.0035669112,0.001266073,-0.050315656,5020,5020,0,0,1,1
566090423,566089835,3670026,3670026,-7.503514e-05,-3.6516594e-05,9.9674035e-06,-0.0035427965,0.0012574226,-0.04992002,4999,4999,0,0,1,1
566095406,566094845,3670026,3670026,-1.7655577e-05,-3.3745841e-06,-9.886746e-06,-0.0029174967,0.0008480385,-0.049734514,5010,5010,0,0,1,1
566100352,566099855,3670026,3670026,-4.501593e-05,-2.0110423e-05,-4.6725763e-06,-0.004746912,0.0015001134,-0.050239716,5010,5010,0,0,1,1
566105362,566104864,3670026,3670026,1.7817494e-05,3.1147727e-05,-3.794565e-05,-0.005326857,-0.00044008312,-0.050194614,5009,5009,0,0,1,1
566110620,566109875,3670026,3670026,-9.562717e-06,2.1756816e-05,-3.0786527e-05,-0.0020866212,0.002919187,-0.050257873,5011,5011,0,0,1,1
566115580,566114883,3670026,3670026,8.791585e-06,5.114174e-06,-3.209032e-05,-0.0033382045,0.0009376128,-0.04942159,5008,5008,0,0,1,1
566120433,566119893,3670026,3670026,1.2768784e-05,-6.859338e-05,-1.0057813e-05,-0.0034479387,0.00054431113,-0.050372444,5010,5010,0,0,1,1
566125407,566124902,3670026,3670026,-5.416177e-05,-2.5891712e-05,5.4996726e-06,-0.0027296785,0.0013710074,-0.049870573,5009,5009,0,0,1,1
566130464,566129912,3670026,3670026,-8.358535e-05,-6.705145e-05,2.8757433e-05,-0.0037791098,0.0015423273,-0.048946545,5010,5010,0,0,1,1
566135512,566134922,3670026,3670026,-1.9864361e-05,2.7811513e-05,1.637083e-05,-0.0063421656,0.00018594509,-0.049747802,5010,5010,0,0,1,1
566140459,566139931,3670026,3670026,-2.7920203e-05,2.3573202e-05,5.5445773e-05,-0.0030420895,0.0013465463,-0.051336735,5009,5009,0,0,1,1
566145471,566144944,3670026,3670026,-4.1845342e-05,1.8629e-05,2.060547e-05,-0.002711118,0.0020656036,-0.049859233,5013,5013,0,0,1,1
566150437,566149951,3670026,3670026,-2.9833793e-05,-4.932171e-06,1.3428696e-05,-0.004565049,0.0002155428,-0.049260367,5007,5007,0,0,1,1
566155448,566154960,3670026,3670026,-3.3977045e-05,-6.0518e-06,-8.871061e-06,-0.0026025695,0.0013656626,-0.050710164,5009,5009,0,0,1,1
566160524,566159970,3670026,3670026,-2.3496685e-05,-5.9982995e-05,-2.1824002e-05,-0.0034193438,0.001480534,-0.050032735,5010,5010,0,0,1,1
566165465,566164984,3670026,3670026,-2.8442264e-06,9.430307e-06,-5.0197075e-05,-0.0056409733,0.0009248128,-0.049110767,5014,5014,0,0,1,1
566170473,566169989,3670026,3670026,-5.367017e-07,3.2900196e-05,-2.3673663e-05,-0.0050042747,0.0014614178,-0.049284775,5005,5005,0,0,1,1
566175566,566174998,3670026,3670026,4.41499e-05,3.96576e-05,-1.1676014e-05,-0.0019327163,-9.127584e-05,-0.050151996,5009,5009,0,0,1,1
566180529,566180008,3670026,3670026,-4.3024113e-05,-6.7381705e-05,-1.49717835e-05,-0.0036733872,0.0013490132,-0.05003471,5010,5010,0,0,1,1
566185525,566185020,3670026,3670026,-2.162975e-05,-1.600577e-05,8.025292e-06,-0.0029241308,0.0015219344,-0.049829975,5012,5012,0,0,1,1
566190521,566190027,3670026,3670026,-2.5838313e-05,-7.031341e-05,1.2069125e-05,-0.0041645714,0.00088356895,-0.04925356,5007,5007,0,0,1,1
566195547,566195037,3670026,3670026,-5.989799e-05,-3.9927552e-05,2.923813e-06,-0.0047619664,0.0015223193,-0.049555264,5010,5010,0,0,1,1
566200540,566200047,3670026,3670026,-4.859971e-05,3.2863514e-05,2.6201875e-05,-0.004446614,-0.00021133113,-0.049487066,5010,5010,0,0,1,1
566205618,566205056,3670026,3670026,-3.2903652e-05,1.568719e-05,3.1674725e-05,-0.0029842064,0.0025803195,-0.0497827,5009,5009,0,0,1,1
566210868,566210066,3670026,3670026,-2.8204066e-05,1.0179101e-05,2.6674074e-05,-0.0031365738,0.0004962447,-0.049694154,5010,5010,0,0,1,1
566215706,566215075,3670026,3670026,-6.84714e-05,-3.416278e-06,1.232839e-05,-0.0030706788,0.0014068157,-0.050523385,5009,5009,0,0,1,1
566220593,566220085,3670026,3670026,2.3014687e-05,-2.132153e-05,-3.2038184e-05,-0.0043694787,0.0012707709,-0.04911411,5010,5010,0,0,1,1
566225621,566225094,3670026,3670026,-1.379347e-05,-2.1185464e-05,-3.445599e-05,-0.0046922546,0.00079844217,-0.04966955,5009,5009,0,0,1,1
566230867,566230104,3670026,3670026,-2.0553922e-05,5.728599e-05,-1.6297547e-05,-0.004344206,0.0012087976,-0.049453404,5010,5010,0,0,1,1
566235646,566235114,3670026,3670026,-2.8361185e-06,-3.2707325e-05,-1.2379871e-05,-0.0028141728,0.00059401157,-0.050214145,5010,5010,0,0,1,1
566240662,566240123,3670026,3670026,-1.16573e-05,1.7402413e-06,-1.9465071e-05,-0.0027676562,0.002051826,-0.04936133,5009,5009,0,0,1,1
566245701,566245133,3670026,3670026,8.982562e-06,4.5938876e-05,1.0253945e-05,-0.0031815488,0.0003877297,-0.049477056,5010,5010,0,0,1,1
566250644,566250143,3670026,3670026,-2.1138689e-05,-0.00012119148,-4.4137996e-06,-0.0036709742,0.001521708,-0.050014913,5010,5010,0,0,1,1
566255641,566255152,3670026,3670026,-1.6261614e-05,-4.2206934e-06,-2.1513933e-06,-0.004957779,0.00062611274,-0.048225015,5009,5009,0,0,1,1
566260663,566260162,3670026,3670026,-6.0030172e-05,6.3293537e-06,2.8653925e-05,-0.0044353013,0.0010919004,-0.048859168,5010,5010,0,0,1,1
566265680,566265173,3670026,3670026,-6.7886154e-05,-1.4843053e-05,3.569774e-05,-0.0026514956,0.00136462,-0.049569987,5011,5011,0,0,1,1
566270915,566270181,3670026,3670026,-5.2764586e-05,3.3019717e-06,1.7602633e-05,-0.0032741746,0.00032259102,-0.050035253,5008,5008,0,0,1,1
566275681,566275191,3670026,3670026,-4.1149764e-05,1.7391438e-05,9.1083865e-07,-0.003496475,0.0021544613,-0.048779543,5010,5010,0,0,1,1
566280790,566280200,3670026,3670026,-6.580486e-05,-1.4603108e-05,-1.0862719e-05,-0.00384495,0.00085840205,-0.05003495,5009,5009,0,0,1,1
566285731,566285210,3670026,3670026,2.2913584e-05,-1.216225e-05,-3.6509344e-05,-0.003972204,0.00064988644,-0.04980393,5010,5010,0,0,1,1
566290841,566290219,3670026,3670026,2.0019059e-05,1.9069965e-05,-9.570673e-06,-0.004768295,0.0009906838,-0.048412148,5009,5009,0,0,1,1
566295827,566295229,3670026,3670026,-1.0201528e-05,1.680734e-05,-2.9232253e-05,-0.0031335114,0.0022823722,-0.049171876,5010,5010,0,0,1,1
566300750,566300238,3670026,3670026,-4.6623677e-06,-1.3312783e-05,-1.816649e-05,-0.003391965,0.00030107837,-0.05008146,5009,5009,0,0,1,1
566305748,566305248,3670026,3670026,2.542844e-05,9.717126e-06,5.540264e-06,-0.0037648007,0.00089811813,-0.049954504,5010,5010,0,0,1,1
566311046,566310258,3670026,3670026,-9.257533e-05,-3.8588583e-05,5.393099e-06,-0.002754191,0.0016974821,-0.0496813,5010,5010,0,0,1,1
566315897,566315268,3670026,3670026,-2.1943639e-05,-1.2709103e-05,7.363733e-06,-0.0042061205,0.0004902194,-0.049094345,5010,5010,0,0,1,1
566320825,566320277,3670026,3670026,-1.5243573e-05,-1.3393608e-05,2.8685417e-05,-0.0050535556,0.0017606023,-0.048947122,5009,5009,0,0,1,1
566325829,566325287,3670026,3670026,-7.940166e-05,-3.937569e-05,2.3950844e-05,-0.0036210904,0.0015394533,-0.04971987,5010,5010,0,0,1,1
566330931,566330296,3670026,3670026,-9.818712e-06,-1.2512426e-05,7.159714e-06,-0.0030191408,0.0004962643,-0.049089722,5009,5009,0,0,1,1
566335787,566335306,3670026,3670026,-6.450431e-05,1.2125615e-05,5.324329e-06,-0.0045149857,0.0014883027,-0.049881153,5010,5010,0,0,1,1
566340808,566340315,3670026,3670026,-4.1656243e-05,-2.6562826e-05,7.1668082e-06,-0.0029171875,0.00044643995,-0.049429692,5009,5009,0,0,1,1
566345936,566345325,3670026,3670026,-3.6840403e-05,-8.584293e-06,-2.7348784e-05,-0.0038609253,0.0015931237,-0.048685625,5010,5010,0,0,1,1
566351032,566350334,3670026,3670026,3.167522e-05,3.7303587e-05,-2.5284751e-05,-0.0047559254,0.0011829451,-0.049266938,5009,5009,0,0,1,1
566355854,566355344,3670026,3670026,-5.467441e-06,-1.9715688e-05,-1.4830824e-05,-0.003632045,0.0014076512,-0.049628913,5010,5010,0,0,1,1
566360875,566360354,3670026,3670026,9.2989296e-07,-2.7515594e-05,-4.7567028e-05,-0.0027212244,0.0009765486,-0.049290072,5010,5010,0,0,1,1
566365851,566365364,3670026,3670026,-3.1534975e-05,-1.7344826e-05,-1.5004736e-05,-0.0035039783,0.0003602086,-0.049480543,5010,5010,0,0,1,1
566370950,566370373,3670026,3670026,-4.1269846e-05,-1.46908715e-05,-3.5340224e-06,-0.004494612,0.0023355957,-0.049694784,5009,5009,0,0,1,1
566375967,566375382,3670026,3670026,2.7229597e-05,3.227006e-05,4.076273e-06,-0.0028840238,0.00076175603,-0.049681295,5009,5009,0,0,1,1
566380890,566380392,3670026,3670026,-6.0743223e-05,4.0583135e-08,4.0702344e-05,-0.0048058373,0.00096616213,-0.04899485,5010,5010,0,0,1,1
566385961,566385402,3670026,3670026,-3.5883093e-06,1.04355095e-05,3.1769618e-05,-0.0038922988,0.0012078943,-0.048789416,5010,5010,0,0,1,1
566391065,566390411,3670026,3670026,-2.8024311e-05,9.666251e-06,1.8198243e-05,-0.0036187673,0.00032429633,-0.049252912,5009,5009,0,0,1,1
566395930,566395421,3670026,3670026,-8.416814e-05,-5.5186098e-05,8.29688e-06,-0.0026836798,0.00184918,-0.050598904,5010,5010,0,0,1,1
566400942,566400431,3670026,3670026,-3.2537566e-05,1.9665418e-05,1.0370543e-05,-0.004318194,0.0011843131,-0.049679387,5010,5010,0,0,1,1
566405992,566405442,3670026,3670026,-4.7533707e-05,4.5275992e-06,-1.3270136e-05,-0.005215991,0.0011373218,-0.048996475,5011,5011,0,0,1,1
566411220,566410450,3670026,3670026,2.1767739e-05,3.2900378e-05,-1.8809742e-05,-0.0038019593,0.0007393449,-0.048121322,5008,5008,0,0,1,1
566416027,566415459,3670026,3670026,-5.8938138e-05,-2.085121e-05,-1.4855127e-05,-0.0026598887,0.0016330386,-0.050019696,5009,5009,0,0,1,1
566421019,566420469,3670026,3670026,4.543808e-05,1.38588575e-05,-2.0535006e-05,-0.003723112,0.00084928476,-0.048159882,5010,5010,0,0,1,1
566425973,566425479,3670026,3670026,-9.678715e-06,-3.7246344e-05,-3.180361e-05,-0.0030118052,0.0009077024,-0.04996792,5010,5010,0,0,1,1
566431146,566430488,3670026,3670026,-4.5909816e-05,-1.6404289e-05,9.945009e-06,-0.003468318,0.002587887,-0.04858391,5009,5009,0,0,1,1
566435989,566435498,3670026,3670026,-2.5687421e-05,-1.5791973e-05,4.251773e-06,-0.0048420546,-2.1350841e-05,-0.049594052,5010,5010,0,0,1,1
566441011,566440508,3670026,3670026,1.160244e-05,-5.2664045e-06,3.6893375e-06,-0.0048328275,0.0011667502,-0.04943742,5010,5010,0,0,1,1
566446005,566445517,3670026,3670026,-4.915264e-05,2.830756e-05,2.8881495e-05,-0.0020066467,0.0012228197,-0.048761953,5009,5009,0,0,1,1
566451063,566450527,3670026,3670026,-3.9750896e-05,-4.285258e-05,1.8303363e-05,-0.0031355245,0.0015691658,-0.04997137,5010,5010,0,0,1,1
566456138,566455537,3670026,3670026,-8.543984e-06,-4.409295e-05,1.0732289e-07,-0.0040823896,0.0015572932,-0.04895433,5010,5010,0,0,1,1
566461079,566460546,3670026,3670026,-6.895348e-05,-1.3155668e-05,3.783163e-06,-0.0026728418,-0.00036729625,-0.050113965,5009,5009,0,0,1,1
566466064,566465556,3670026,3670026,-4.3145465e-05,-1.4696027e-06,-1.5891601e-05,-0.004982971,0.0015555811,-0.04957673,5010,5010,0,0,1,1
566471125,566470565,3670026,3670026,-1.5330796e-05,1.9845023e-05,-3.3086606e-05,-0.0056381486,0.0008960028,-0.049301963,5009,5009,0,0,1,1
566476073,566475575,3670026,3670026,-5.3285903e-06,3.355425e-05,-2.938613e-06,-0.0030894307,0.0020329298,-0.048859328,5010,5010,0,0,1,1
566481281,566480584,3670026,3670026,-2.6132848e-05,1.656836e-05,-3.109998e-05,-0.0024956067,0.0006656765,-0.04900554,5009,5009,4,0,1,1
566486120,566485594,3670026,3670026,-2.9116602e-05,-2.7013818e-06,4.5688216e-06,-0.004006501,0.0010930652,-0.049654827,5010,5010,0,0,1,1
566491246,566490604,3670026,3670026,-4.210369e-06,-4.871704e-05,4.1166327e-06,-0.003288301,0.00092132867,-0.049929526,5010,5010,0,0,1,1
566496138,566495613,3670026,3670026,-5.4103744e-05,-1.5370057e-05,1.409018e-05,-0.0040807556,0.0019330081,-0.04831407,5009,5009,0,0,1,1
566501145,566500623,3670026,3670026,1.7594174e-06,6.981518e-05,2.0799678e-05,-0.005439264,4.803396e-05,-0.049200043,5010,5010,0,0,1,1
566506181,566505634,3670026,3670026,-1.2268681e-05,2.6989901e-05,3.4804387e-05,-0.0034031395,0.002392792,-0.049577404,5011,5011,0,0,1,1
566511362,566510642,3670026,3670026,-2.541711e-05,-4.7540398e-05,1.6344042e-05,-0.0018401118,0.0012232772,-0.049858756,5008,5008,4,0,1,1
566516183,566515657,3670026,3670026,-7.250176e-06,-1.2083432e-05,9.766954e-06,-0.0037762122,-0.00013685835,-0.048878647,5015,5015,0,0,1,1
566521195,566520678,3670026,3670026,-3.617467e-05,-3.492658e-05,-1.4668795e-05,-0.0040368037,0.0023694353,-0.050098993,5021,5021,0,0,1,1
566526154,566525671,3670026,3670026,-3.5220884e-05,-4.740119e-05,-2.3596638e-05,-0.00230135,0.00042194407,-0.049078222,4993,4993,0,0,1,1
566531176,566530683,3670026,3670026,-1.50150545e-05,1.028981e-05,-3.974633e-05,-0.0055515436,0.0012107118,-0.049764287,5012,5012,0,0,1,1
566536173,566535690,3670026,3670026,-1.178084e-05,1.3309307e-05,2.0055547e-06,-0.0046593575,0.0013133601,-0.048789114,5007,5007,0,0,1,1
566541195,566540700,3670026,3670026,-3.918546e-05,7.0496176e-06,-2.5832505e-05,-0.0025924032,0.0011230533,-0.0496729,5010,5010,0,0,1,1
566546198,566545714,3670026,3670026,-2.1987064e-05,-6.7639325e-05,-9.096698e-06,-0.003716583,0.0014473791,-0.050668415,5014,5014,0,0,1,1
566551220,566550719,3670026,3670026,-3.458032e-05,1.2402379e-05,-1.7417915e-06,-0.0035474116,0.00026324147,-0.04869773,5005,5005,0,0,1,1
566556247,566555729,3670026,3670026,-6.653092e-05,-6.408691e-05,9.60926e-06,-0.0034645512,0.0018723843,-0.049746037,5010,5010,0,0,1,1
566561266,566560739,3670026,3670026,-2.9123066e-05,2.8840775e-05,1.2384408e-05,-0.004804415,0.00090267917,-0.04898799,5010,5010,0,0,1,1
566566231,566565748,3670026,3670026,-3.1834355e-05,3.031804e-05,5.1372903e-05,-0.0047864807,0.0007994852,-0.050325096,5009,5009,0,0,1,1
566571298,566570757,3670026,3670026,4.194646e-06,1.0825976e-05,3.0223833e-05,-0.0023699715,0.001710129,-0.04854142,5009,5009,0,0,1,1
566576467,566575773,3670026,3670026,-5.378534e-06,4.6195487e-06,6.9857583e-06,-0.0033970033,-5.527914e-05,-0.05037624,5016,5016,0,0,1,1
566581363,566580784,3670026,3670026,-7.371552e-06,-2.2228633e-05,-1.3969821e-05,-0.0036341993,0.0017054403,-0.050053727,5011,5011,0,0,1,1
566586394,566585786,3670026,3670026,-4.7262078e-05,-1.5843949e-05,-1.3383805e-05,-0.0027909405,0.0014860851,-0.0488284,5002,5002,0,0,1,1
566591308,566590796,3670026,3670026,1.9868849e-05,-1.9543628e-05,-2.4269495e-05,-0.005019169,0.0003831954,-0.04996026,5010,5010,0,0,1,1
566596462,566595806,3670026,3670026,-1.6127815e-05,-1.490709e-05,8.658667e-07,-0.0041818526,0.0006573845,-0.049612865,5010,5010,0,0,1,1
566601368,566600815,3670026,3670026,-3.1657986e-05,2.49177e-05,-1.2373156e-05,-0.0024683364,0.0013264772,-0.049775545,5009,5009,0,0,1,1
566606367,566605828,3670026,3670026,-4.4549447e-06,3.3459708e-06,-3.9728224e-05,-0.0038606923,0.0013268706,-0.04901658,5013,5013,0,0,1,1
566611480,566610834,3670026,3670026,-3.5111378e-05,6.273498e-06,-1.8416518e-05,-0.004498431,0.0015924531,-0.050557103,5006,5006,236,0,1,1
566616341,566615846,3670026,3670026,-7.761595e-05,-5.6416266e-05,-2.0634558e-05,-0.0023393445,0.001126516,-0.05095115,5012,5012,0,0,1,1
566621346,566620854,3670026,3670026,-6.63845e-05,3.082771e-05,1.745597e-05,-0.00481602,0.001754425,-0.048654255,5008,5008,0,0,1,1
566626339,566625863,3670026,3670026,-3.570165e-05,-3.144277e-05,3.559554e-05,-0.0053249663,0.0009052785,-0.049767878,5009,5009,0,0,1,1
566631365,566630873,3670026,3670026,-2.7708707e-05,3.2983793e-05,2.1203248e-05,-0.002706084,0.0016839498,-0.048871882,5010,5010,0,0,1,1
566636419,566635883,3670026,3670026,-2.4258034e-05,4.5371094e-06,1.396291e-05,-0.0034718453,0.00019325879,-0.050486136,5010,5010,0,0,1,1
566641379,566640892,3670026,3670026,4.7861904e-06,4.9147916e-06,2.3768137e-06,-0.004633562,0.0019280739,-0.0494911,5009,5009,0,0,1,1
566646427,566645902,3670026,3670026,-5.451081e-07,-3.1037875e-05,-2.9463003e-05,-0.0022423991,0.00064774655,-0.051081825,5010,5010,0,0,1,1
566651487,566650911,3670026,3670026,-1.8412746e-05,1.4599184e-05,-5.1058e-06,-0.004062371,0.0014326087,-0.04907891,5009,5009,0,0,1,1
566656417,566655922,3670026,3670026,-1.944e-06,-2.0240115e-05,5.6471317e-06,-0.004768294,0.00077993004,-0.04898522,5011,5011,0,0,1,1
566661446,566660931,3670026,3670026,-1.99119e-05,-4.838522e-05,-1.5319252e-05,-0.0025192872,0.0015769864,-0.049554754,5009,5009,0,0,1,1
566666454,566665940,3670026,3670026,-2.7594579e-05,2.5600712e-05,-1.4118922e-05,-0.0038427494,0.0007573027,-0.049383175,5009,5009,0,0,1,1
566671483,566670950,3670026,3670026,-2.5591738e-05,-4.9096334e-06,1.2634429e-05,-0.00382854,0.00057276885,-0.050620243,5010,5010,0,0,1,1
566676620,566675959,3670026,3670026,-7.534888e-05,-2.0827634e-05,-4.2620877e-06,-0.0037654473,0.0016575682,-0.049137797,5009,5009,0,0,1,1
566681515,566680969,3670026,3670026,-3.3000873e-05,-1.8983161e-06,1.387623e-05,-0.004008557,0.0017085997,-0.050093047,5010,5010,0,0,1,1
566686486,566685979,3670026,3670026,-5.2811374e-05,1.2669714e-05,-6.849476e-07,-0.0045960257,0.00064335874,-0.05028306,5010,5010,0,0,1,1
566691619,566690988,3670026,3670026,-3.3240973e-05,-5.225224e-05,2.2910746e-05,-0.0025083856,0.0014641737,-0.050425258,5009,5009,4,0,1,1
566696532,566695998,3670026,3670026,-4.275542e-06,-9.2284645e-06,-5.903835e-07,-0.004417431,0.00069652713,-0.04930382,5010,5010,0,0,1,1
566701505,566701008,3670026,3670026,-3.654283e-05,4.58436e-05,3.9303322e-06,-0.0045087785,0.0016580651,-0.049713023,5010,5010,0,0,1,1
566706546,566706017,3670026,3670026,2.9520512e-05,-2.0973244e-05,-1.249657e-05,-0.0026613744,0.00043553836,-0.050111935,5009,5009,0,0,1,1
566711604,566711033,3670026,3670026,-3.0993382e-05,-1.3638009e-05,-2.4900655e-05,-0.003259475,0.0017756762,-0.050069045,5016,5016,0,0,1,1
566716671,566716037,3670026,3670026,3.6178797e-05,3.6163787e-05,-2.5488167e-05,-0.0053401426,0.0009728467,-0.049650136,5004,5004,0,0,1,1
566721544,566721046,3670026,3670026,-7.925929e-06,-5.220644e-05,-1.17483305e-05,-0.0028197546,0.0009655347,-0.049639653,5009,5009,0,0,1,1
566726592,566726056,3670026,3670026,-1.7755048e-05,-9.4574e-06,-2.0165558e-06,-0.003095997,0.00055582373,-0.04930159,5010,5010,0,0,1,1
566731596,566731066,3670026,3670026,-4.7599748e-05,-4.0128507e-05,6.26109e-06,-0.004720985,0.0011078779,-0.05090459,5010,5010,195,0,1,1
566736564,566736075,3670026,3670026,-2.840831e-05,1.6119593e-05,1.638212e-05,-0.0032395578,0.0014031327,-0.048792873,5009,5009,0,0,1,1
566741665,566741091,3670026,3670026,-7.1931594e-05,2.82985e-06,1.6543167e-05,-0.0030307458,0.001466691,-0.050416436,5016,5016,84,0,1,1
566746581,566746094,3670026,3670026,-6.372009e-05,-4.743571e-06,9.434424e-06,-0.0048624487,0.0009213684,-0.05012569,5003,5003,47,0,1,1
566751714,566751104,3670026,3670026,-5.028447e-05,1.7283517e-05,2.6082284e-05,-0.003333376,0.00096223014,-0.04891391,5010,5010,0,0,1,1
566756722,566756114,3670026,3670026,-3.407434e-05,5.6129347e-06,-2.002793e-07,-0.0040062936,0.0016114155,-0.04979574,5010,5010,0,0,1,1
566761649,566761123,3670026,3670026,-2.1866774e-05,-3.661098e-06,-9.876129e-07,-0.0040898095,0.0014697836,-0.05071647,5009,5009,0,0,1,1
566766639,566766132,3670026,3670026,-1.2276186e-05,-1.0124184e-05,-2.9130508e-05,-0.0038371761,0.0007774072,-0.05020849,5009,5009,0,0,1,1
566771658,566771143,3670026,3670026,2.5933847e-05,3.882482e-05,-2.0402415e-05,-0.0034822538,0.0010106727,-0.049670577,5011,5011,0,0,1,1
566776834,566776152,3670026,3670026,1.23238215e-05,2.345625e-05,-1.4538963e-05,-0.0037568298,0.0010295834,-0.05045472,5009,5009,0,0,1,1
566781708,566781161,3670026,3670026,-1.3174019e-05,-1.1865881e-05,-9.1741285e-06,-0.0031899528,0.0018720578,-0.049288183,5009,5009,0,0,1,1
566786746,566786173,3670026,3670026,2.883086e-06,-5.0818402e-05,8.8868205e-07,-0.0036383646,0.0006769982,-0.050350692,5012,5012,0,0,1,1
566791703,566791181,3670026,3670026,-1.5612322e-05,1.2983867e-05,-3.0621181e-06,-0.004453141,0.0007297291,-0.048999365,5008,5008,0,0,1,1
566796691,566796190,3670026,3670026,-1.8835928e-05,-4.1656167e-05,1.1081308e-05,-0.0031244585,0.00062248355,-0.049791742,5009,5009,0,0,1,1
566801716,566801200,3670026,3670026,-7.909756e-05,-1.689253e-05,2.1959459e-05,-0.003787056,0.0013666943,-0.049560644,5010,5010,0,0,1,1
566806696,566806209,3670026,3670026,-6.295113e-05,3.907295e-05,-7.5836847e-06,-0.0045843767,0.0017422128,-0.04969473,5009,5009,0,0,1,1
566811789,566811219,3670026,3670026,-5.9051432e-05,-1.1480782e-05,2.6100142e-05,-0.0029239561,0.0010314039,-0.04918158,5010,5010,0,0,1,1
566816730,566816228,3670026,3670026,-7.461275e-05,-3.7861366e-05,1.2542882e-05,-0.0028858196,0.00201034,-0.05048024,5009,5009,0,0,1,1
566821744,566821238,3670026,3670026,-5.417632e-05,2.5986272e-05,-4.5528122e-06,-0.0047421586,-0.00010587408,-0.04990948,5010,5010,0,0,1,1
566826725,566826248,3670026,3670026,3.6657634e-06,-6.808158e-05,-3.9693197e-05,-0.00359335,0.0012414219,-0.050058298,5010,5010,0,0,1,1
566831841,566831257,3670026,3670026,2.154039e-05,9.536276e-06,-1.1943378e-05,-0.0029214045,0.0011061861,-0.05001646,5009,5009,0,0,1,1
566836751,566836267,3670026,3670026,1.4709871e-05,2.6032723e-05,-2.7824233e-05,-0.005202254,0.0015061107,-0.051580187,5010,5010,0,0,1,1
566841769,566841277,3670026,3670026,9.613857e-06,-9.55883e-07,1.06562575e-05,-0.0036473447,0.0016197416,-0.04991496,5010,5010,0,0,1,1
566846867,566846286,3670026,3670026,1.6513894e-05,2.9530584e-06,3.4387351e-06,-0.002390913,-6.952378e-05,-0.049974,5009,5009,0,0,1,1
566851834,566851296,3670026,3670026,-1.0213509e-05,2.738208e-06,1.5037117e-05,-0.0046120784,0.0010250286,-0.049526613,5010,5010,0,0,1,1
566856850,566856306,3670026,3670026,-2.7432061e-05,-3.581544e-05,-1.6690767e-05,-0.0038597735,0.0017573483,-0.051094726,5010,5010,0,0,1,1
566861931,566861317,3670026,3670026,-6.5866625e-05,-1.5976944e-05,2.4189154e-05,-0.00326662,0.001302299,-0.049722318,5011,5011,0,0,1,1
566866850,566866325,3670026,3670026,-2.1767226e-05,3.9628165e-05,2.8761026e-05,-0.0052663977,0.0004999486,-0.04999034,5008,5008,0,0,1,1
566871890,566871338,3670026,3670026,-6.823671e-05,-1.1667518e-05,3.690684e-05,-0.0034804326,0.0019705894,-0.05042666,5013,5013,0,0,1,1
566876912,566876345,3670026,3670026,-0.00010481906,-1.2128476e-05,1.0224422e-05,-0.0020120123,0.0016792187,-0.049962014,5007,5007,0,0,1,1
566881961,566881354,3670026,3670026,-4.8924376e-05,5.380178e-06,3.7805668e-07,-0.00417238,-0.00031109471,-0.04921655,5009,5009,0,0,1,1
566886853,566886363,3670026,3670026,-2.836978e-05,-2.198624e-05,-4.1348878e-05,-0.0050482964,0.002028135,-0.049903527,5009,5009,0,0,1,1
566891861,566891373,3670026,3670026,-4.7167046e-06,1.4078574e-05,-1.9970339e-05,-0.002402909,0.0013438861,-0.05048,5010,5010,0,0,1,1
566896875,566896382,3670026,3670026,2.0624986e-05,-1.686087e-05,-4.5174056e-05,-0.0046508145,0.00029703393,-0.05109925,5009,5009,0,0,1,1
566901883,566901392,3670026,3670026,2.448519e-05,7.911925e-06,-5.7000725e-06,-0.0041509015,0.0013473909,-0.04963593,5010,5010,0,0,1,1
566906923,566906402,3670026,3670026,2.0554826e-05,7.2576363e-06,-6.168302e-06,-0.002469759,0.00043211813,-0.050548267,5010,5010,0,0,1,1
566912034,566911413,3670026,3670026,-6.455458e-05,-6.692916e-05,-2.738586e-07,-0.0035667238,0.0028280232,-0.05029615,5011,5011,0,0,1,1
566916940,566916421,3670026,3670026,1.7056556e-05,-2.1722754e-07,9.566081e-06,-0.004264614,-2.8843377e-05,-0.048941284,5008,5008,0,0,1,1
566921936,566921430,3670026,3670026,-5.1731782e-05,-4.3201577e-05,3.2021755e-05,-0.003356581,0.0012674399,-0.05037617,5009,5009,0,0,1,1
566926968,566926440,3670026,3670026,-4.6029978e-05,2.3265029e-05,2.372275e-05,-0.004848148,0.00083301234,-0.050134216,5010,5010,0,0,1,1
566931951,566931450,3670026,3670026,-5.316705e-05,-1.8007293e-05,3.1731797e-05,-0.0038983796,0.00054977124,-0.05127811,5010,5010,0,0,1,1
566937015,566936459,3670026,3670026,-3.7882415e-05,1.1298928e-05,1.1163838e-05,-0.0023148637,0.0014359679,-0.049540598,5009,5009,0,0,1,1
566942011,566941469,3670026,3670026,-8.8594745e-05,1.2364346e-05,7.655366e-06,-0.004508489,0.001392471,-0.04988002,5010,5010,0,0,1,1
566947003,566946478,3670026,3670026,-5.5611294e-05,-3.332936e-05,-1.7397988e-05,-0.0042431084,0.0014403887,-0.05095048,5009,5009,0,0,1,1
566952186,566951488,3670026,3670026,-2.1306274e-05,-1.7862452e-05,-2.871521e-05,-0.0027838438,0.00044236795,-0.04865848,5010,5010,0,0,1,1
566957026,566956497,3670026,3670026,1.2117323e-05,-1.4840652e-05,-4.0407544e-05,-0.0038119354,0.0015763401,-0.049874403,5009,5009,0,0,1,1
566962020,566961507,3670026,3670026,2.9147464e-05,1.32733385e-05,-3.380737e-05,-0.0047265743,0.00065662194,-0.050160762,5010,5010,0,0,1,1
566967075,566966517,3670026,3670026,-3.6006727e-06,-1.2533466e-05,-3.4515072e-06,-0.0007771993,0.001874333,-0.051019296,5010,5010,0,0,1,1
566972099,566971526,3670026,3670026,5.3539675e-06,-3.628743e-05,-1.7905662e-05,-0.005320859,-4.733957e-05,-0.049267497,5009,5009,0,0,1,1
566977090,566976539,3670026,3670026,-6.32196e-07,6.222811e-05,1.7381577e-05,-0.0067475284,0.0018514879,-0.04977518,5013,5013,0,0,1,1
566982128,566981545,3670026,3670026,-2.7870641e-05,1.4037789e-05,8.912251e-06,-0.0007127792,0.00045297944,-0.049740907,5006,5006,0,0,1,1
566987052,566986556,3670026,3670026,-4.0207597e-05,-6.456436e-05,3.0280438e-05,-0.0010631786,0.0018723469,-0.051114533,5011,5011,0,0,1,1
566992103,566991565,3670026,3670026,-7.488688e-06,0.00016011576,-2.0485331e-05,-0.008378119,0.00050700316,-0.050144922,5009,5009,0,0,1,1
566997181,566996574,3670026,3670026,-8.282708e-05,0.00019288404,7.686834e-05,-0.007322948,0.0019122974,-0.05011595,5009,5009,0,0,1,1
567002061,567001584,3670026,3670026,-5.343807e-05,0.00012172573,-1.8741062e-05,-0.00053642463,0.0007253108,-0.050236367,5010,5010,0,0,1,1
567007079,567006593,3670026,3670026,-3.3139513e-05,0.00018682805,4.3391545e-05,-0.0022264195,0.003036268,-0.04880624,5009,5009,0,0,1,1
567012183,567011603,3670026,3670026,-2.048498e-06,0.00033666784,-9.3261806e-05,-0.008454943,-0.0021735593,-0.049782418,5010,5010,0,0,1,1
567017214,567016613,3670026,3670026,7.373966e-05,0.00022541622,3.1246178e-05,-0.004573164,0.0027944716,-0.053135414,5010,5010,0,0,1,1
567022097,567021622,3670026,3670026,-1.2773049e-05,0.0004015487,-1.4302037e-06,-0.0023625954,-0.0009728372,-0.046601236,5009,5009,0,0,1,1
567027150,567026637,3670026,3670026,6.0714876e-05,0.00046416884,-0.000109261244,-0.008102009,0.004213499,-0.04849204,5015,5015,0,0,1,1
567032128,567031641,3670026,3670026,0.00019767143,0.0003138574,0.00013118976,-0.0027660718,0.00067602156,-0.05109096,5004,5004,0,0,1,1
567037179,567036651,3670026,3670026,-2.0706295e-05,0.00031099684,-4.199885e-05,0.0007161364,0.0026782535,-0.05110203,5010,5010,0,0,1,1
567042172,567041661,3670026,3670026,0.00022734706,0.0004408154,0.00015002675,-0.0042627174,0.0014630485,-0.05286265,5010,5010,0,0,1,1
567047300,567046670,3670026,3670026,3.368595e-05,0.00028507155,-0.00010747828,-0.0073716235,0.0015210093,-0.04967784,5009,5009,0,0,1,1
567052190,567051680,3670026,3670026,0.0001122509,0.0003441885,-2.2424105e-05,-0.0005999456,-0.0040792637,-0.046782374,5010,5010,0,0,1,1
567057227,567056689,3670026,3670026,-0.00010366137,0.00030075494,-5.8351125e-05,-0.0016723746,0.0018758613,-0.05155806,5009,5009,0,0,1,1
567062320,567061699,3670026,3670026,6.2664636e-05,0.00026771144,0.000115880146,-0.0040772045,0.003604391,-0.048457865,5010,5010,0,0,1,1
567067303,567066709,3670026,3670026,-0.00013290245,0.00038864373,-4.3778855e-05,-0.0030556673,-0.0031285277,-0.05067343,5010,5010,0,0,1,1
567072214,567071718,3670026,3670026,0.000124219,0.00027910928,-1.8347526e-05,-0.004053399,0.003712211,-0.049519308,5009,5009,0,0,1,1
567077365,567076729,3670026,3670026,-0.0002019915,-1.1235923e-05,-0.00013456258,-0.0010473938,-8.867469e-05,-0.054782983,5011,5011,0,0,1,1
567082211,567081737,3670026,3670026,7.1798872e-06,0.00034041773,-1.4283994e-05,-0.0064580087,0.00298735,-0.04424996,5008,5008,0,0,1,1
567087236,567086747,3670026,3670026,-0.00011845687,0.00028543072,-2.3410299e-05,-0.005908194,0.002657081,-0.049287803,5010,5010,0,0,1,1
567092317,567091757,3670026,3670026,4.5369594e-05,0.00032121484,3.3057506e-05,0.0010773793,-0.004202542,-0.055193026,5010,5010,0,0,1,1
567097281,567096767,3670026,3670026,0.00018337177,0.00025703394,-5.553517e-05,-0.005185086,0.0040644426,-0.04835867,5010,5010,0,0,1,1
567102377,567101776,3670026,3670026,-0.00021040585,0.000112939844,2.336044e-05,0.0033022196,0.00016519363,-0.053308867,5009,5009,0,0,1,1
567107387,567106786,3670026,3670026,0.000111472735,0.00047549338,5.2422103e-05,-0.009176435,0.006261594,-0.0476838,5010,5010,0,0,1,1
567112274,567111795,3670026,3670026,-8.6390835e-05,0.00016429984,-3.7329402e-05,-0.0061221616,-0.0038351172,-0.053780943,5009,5009,0,0,1,1
567117451,567116805,3670026,3670026,0.00038156883,0.00016136907,6.302325e-05,-0.0015168984,0.0030933188,-0.04093264,5010,5010,0,0,1,1
567122294,567121815,3670026,3670026,-0.00021561961,0.00046807562,-8.128795e-05,-0.007682467,0.0008945366,-0.046332113,5010,5010,0,0,1,1
