timestamp,timestamp_sample,device_id,x,y,z,temperature,error_count
564870707,564869759,527625,0.22433333,0.15458333,-0.45391667,nan,0
564890747,564889815,527625,0.22749999,0.15766667,-0.45558333,nan,0
564910698,564909761,527625,0.22749999,0.15558334,-0.4535,nan,0
564930699,564929765,527625,0.22874999,0.16041666,-0.45475,nan,0
564950695,564949761,527625,0.22391666,0.15683334,-0.45391667,nan,0
564970695,564969761,527625,0.22708333,0.156,-0.456,nan,0
564990714,564989760,527625,0.2225,0.15375,-0.45141667,nan,0
565010760,565009759,527625,0.226,0.15458333,-0.45308334,nan,0
565030845,565029759,527625,0.22683333,0.155,-0.45475,nan,0
565050827,565049759,527625,0.22749999,0.15641667,-0.45558333,nan,0
565070873,565069763,527625,0.22683333,0.15558334,-0.45516667,nan,0
565090894,565089764,527625,0.22475,0.1525,-0.45725,nan,0
565110957,565109802,527625,0.23,0.155,-0.45641667,nan,0
565131039,565129773,527625,0.22749999,0.15766667,-0.45475,nan,0
565150695,565149761,527625,0.23141666,0.15558334,-0.45683333,nan,0
565170726,565169792,527625,0.23266667,0.15725,-0.45475,nan,0
565190754,565189808,527625,0.2335,0.15058333,-0.456,nan,0
565210829,565209893,527625,0.22791666,0.15683334,-0.446,nan,0
565230770,565229832,527625,0.226,0.1585,-0.45225,nan,0
565251140,565249976,527625,0.22683333,0.15808333,-0.44808334,nan,0
565270860,565269930,527625,0.22916667,0.15558334,-0.44891667,nan,0
565290918,565289983,527625,0.22708333,0.1585,-0.44725,nan,0
565310698,565309761,527625,0.226,0.15375,-0.446,nan,0
565330696,565329761,527625,0.23041667,0.15291667,-0.44766667,nan,0
565350694,565349757,527625,0.22916667,0.15416667,-0.44766667,nan,0
565370713,565369781,527625,0.22833332,0.15058333,-0.44975,nan,0
565390712,565389778,527625,0.23141666,0.1485,-0.44725,nan,0
565410695,565409760,527625,0.22791666,0.155,-0.45558333,nan,0
565430723,565429787,527625,0.22558333,0.15541667,-0.45183334,nan,0
565450695,565449762,527625,0.22516666,0.15541667,-0.45058334,nan,0
565470713,565469761,527625,0.22833332,0.156,-0.4535,nan,0
565490695,565489759,527625,0.22874999,0.15541667,-0.456,nan,0
565510695,565509762,527625,0.226,0.15766667,-0.45975,nan,0
565530697,565529763,527625,0.22475,0.15208334,-0.46183333,nan,0
565550695,565549756,527625,0.22558333,0.15458333,-0.461,nan,0
565570694,565569756,527625,0.22916667,0.15808333,-0.46225,nan,0
565590710,565589769,527625,0.22833332,0.15416667,-0.46266666,nan,0
565610692,565609759,527625,0.22791666,0.15766667,-0.461,nan,0
565630706,565629770,527625,0.22874999,0.15541667,-0.45975,nan,0
565650724,565649762,527625,0.22791666,0.15958333,-0.45558333,nan,0
565670791,565669759,527625,0.23,0.15375,-0.46141666,nan,0
565690815,565689758,527625,0.22558333,0.1525,-0.45808333,nan,0
565710863,565709758,527625,0.22916667,0.15725,-0.45891666,nan,0
565730822,565729762,527625,0.23041667,0.15458333,-0.46558332,nan,0
565750953,565749779,527625,0.23266667,0.1525,-0.46766666,nan,0
565770946,565769758,527625,0.22683333,0.15725,-0.46225,nan,0
565790962,565789786,527625,0.23099999,0.15541667,-0.46016666,nan,0
565810689,565809759,527625,0.22641666,0.155,-0.46266666,nan,0
565830739,565829800,527625,0.22475,0.15375,-0.46391666,nan,0
565851076,565849902,527625,0.22874999,0.156,-0.461,nan,0
565870787,565869848,527625,0.22749999,0.151,-0.46141666,nan,0
565890814,565889882,527625,0.22874999,0.15725,-0.46433333,nan,0
565910846,565909904,527625,0.22833332,0.15641667,-0.45933333,nan,0
565930872,565929938,527625,0.22308333,0.15291667,-0.46516666,nan,0
565950932,565949998,527625,0.22958334,0.15291667,-0.461,nan,0
565970694,565969763,527625,0.226,0.15416667,-0.46058333,nan,0
565990754,565989760,527625,0.2235,0.14975,-0.46433333,nan,0
566010690,566009756,527625,0.22433333,0.15541667,-0.4585,nan,0
566030725,566029787,527625,0.22791666,0.16083333,-0.46266666,nan,0
566050719,566049787,527625,0.226,0.15958333,-0.46183333,nan,0
566070784,566069845,527625,0.22791666,0.156,-0.46266666,nan,0
566090695,566089763,527625,0.226,0.16208333,-0.466,nan,0
566110707,566109762,527625,0.23224999,0.156,-0.45808333,nan,0
566130701,566129761,527625,0.22708333,0.15725,-0.45725,nan,0
566150696,566149760,527625,0.23,0.15933333,-0.46266666,nan,0
566170693,566169756,527625,0.23041667,0.1585,-0.45933333,nan,0
566190728,566189778,527625,0.23099999,0.15683334,-0.45725,nan,0
566210755,566209762,527625,0.22708333,0.15558334,-0.46016666,nan,0
566230693,566229760,527625,0.22874999,0.15291667,-0.46308333,nan,0
566250691,566249760,527625,0.2335,0.155,-0.46016666,nan,0
566270722,566269760,527625,0.23141666,0.15416667,-0.46308333,nan,0
566290687,566289756,527625,0.22791666,0.15333334,-0.46016666,nan,0
566310779,566309761,527625,0.22874999,0.15766667,-0.45975,nan,0
566330752,566329758,527625,0.22916667,0.15458333,-0.45975,nan,0
566350834,566349763,527625,0.22874999,0.15333334,-0.45975,nan,0
566370790,566369757,527625,0.22516666,0.15541667,-0.46308333,nan,0
566390829,566389757,527625,0.23224999,0.15333334,-0.46183333,nan,0
566410949,566409762,527625,0.22641666,0.15933333,-0.45933333,nan,0
566430979,566429759,527625,0.22958334,0.15183333,-0.45808333,nan,0
566450698,566449766,527625,0.22874999,0.15183333,-0.45766667,nan,0
566470689,566469757,527625,0.23266667,0.15183333,-0.46016666,nan,0
566491025,566489874,527625,0.2235,0.15416667,-0.45808333,nan,0
566511174,566509940,527625,0.22516666,0.15458333,-0.45558333,nan,0
566530776,566529840,527625,0.22874999,0.15375,-0.45225,nan,0
566550864,566549933,527625,0.22683333,0.15291667,-0.45516667,nan,0
566570859,566569927,527625,0.22958334,0.155,-0.45558333,nan,0
566590929,566589998,527625,0.22708333,0.15725,-0.45475,nan,0
566611285,566610060,527625,0.22708333,0.15558334,-0.4535,nan,0
566630776,566629776,527625,0.23183332,0.15641667,-0.45933333,nan,0
566650693,566649760,527625,0.22708333,0.15541667,-0.45308334,nan,0
566670707,566669758,527625,0.22916667,0.15058333,-0.45225,nan,0
566690721,566689778,527625,0.22641666,0.15641667,-0.45808333,nan,0
566710687,566709756,527625,0.22641666,0.15725,-0.45391667,nan,0
566730697,566729761,527625,0.22641666,0.15541667,-0.4535,nan,0
566750706,566749768,527625,0.22749999,0.15541667,-0.451,nan,0
566770697,566769759,527625,0.23099999,0.15541667,-0.45225,nan,0
566790698,566789758,527625,0.22916667,0.15416667,-0.45433334,nan,0
566810706,566809771,527625,0.22833332,0.15725,-0.45225,nan,0
566830698,566829761,527625,0.22433333,0.15208334,-0.45058334,nan,0
566850705,566849759,527625,0.23041667,0.15375,-0.45391667,nan,0
566870755,566869764,527625,0.22558333,0.15458333,-0.4535,nan,0
566890699,566889762,527625,0.2235,0.14975,-0.45391667,nan,0
566910697,566909762,527625,0.22749999,0.15641667,-0.45266667,nan,0
566930741,566929810,527625,0.23041667,0.15766667,-0.461,nan,0
566950701,566949761,527625,0.23041667,0.15416667,-0.45975,nan,0
566970752,566969757,527625,0.23183332,0.156,-0.4535,nan,0
566990736,566989762,527625,0.226,0.15683334,-0.4485,nan,0
567010755,567009756,527625,0.22683333,0.15558334,-0.44766667,nan,0
567030880,567029762,527625,0.22433333,0.16125,-0.44725,nan,0
567050940,567049769,527625,0.22433333,0.15933333,-0.44224998,nan,0
567070867,567069760,527625,0.22208333,0.155,-0.44016665,nan,0
567090691,567089758,527625,0.22708333,0.16083333,-0.44099998,nan,0
567110690,567109760,527625,0.2225,0.15458333,-0.4385,nan,0
567130716,567129777,527625,0.22874999,0.1485,-0.44266665,nan,0
567150803,567149846,527625,0.22641666,0.1475,-0.44058332,nan,0
567170790,567169858,527625,0.22874999,0.14391667,-0.44349998,nan,0
567190845,567189916,527625,0.22791666,0.14625,-0.44058332,nan,0
567210853,567209911,527625,0.22208333,0.14583333,-0.43558332,nan,0
567230889,567229955,527625,0.21933334,0.14708333,-0.43475,nan,0
567250978,567250047,527625,0.22208333,0.14016667,-0.436,nan,0
567270704,567269763,527625,0.22791666,0.14058334,-0.43808332,nan,0
567290695,567289759,527625,0.22391666,0.13916667,-0.43391666,nan,0
567310697,567309761,527625,0.22291666,0.14,-0.43058333,nan,0
567330702,567329762,527625,0.22208333,0.13266666,-0.43266666,nan,0
567350727,567349792,527625,0.22166666,0.123333335,-0.42766666,nan,0
567370720,567369763,527625,0.22558333,0.11975,-0.43058333,nan,0
567390697,567389760,527625,0.22166666,0.12083333,-0.43141666,nan,0
567410703,567409766,527625,0.2225,0.114583336,-0.43683332,nan,0
567430701,567429764,527625,0.226,0.11683333,-0.43433332,nan,0
567450737,567449799,527625,0.23041667,0.110583335,-0.43558332,nan,0
567470693,567469758,527625,0.22833332,0.11291666,-0.43725,nan,0
567490773,567489763,527625,0.23041667,0.111,-0.43891665,nan,0
567510732,567509761,527625,0.23224999,0.10666667,-0.43808332,nan,0
567530692,567529762,527625,0.23458333,0.1075,-0.44058332,nan,0
567550696,567549764,527625,0.24058333,0.107083336,-0.44099998,nan,0
567570767,567569827,527625,0.24058333,0.107083336,-0.4443333,nan,0
567590715,567589759,527625,0.24599999,0.1075,-0.44266665,nan,0
567610706,567609763,527625,0.24125,0.109749995,-0.43975,nan,0
567630706,567629762,527625,0.24291666,0.11975,-0.44183332,nan,0
567650718,567649757,527625,0.23708333,0.12208333,-0.44183332,nan,0
567670752,567669759,527625,0.24058333,0.12083333,-0.43891665,nan,0
567690913,567689757,527625,0.24016666,0.12208333,-0.44058332,nan,0
567710979,567709758,527625,0.24208333,0.12016667,-0.43933332,nan,0
567730905,567729763,527625,0.23808333,0.114583336,-0.43433332,nan,0
567750689,567749759,527625,0.2375,0.115833335,-0.43016666,nan,0
567770688,567769758,527625,0.23416667,0.110583335,-0.42766666,nan,0
567790702,567789770,527625,0.2385,0.113749996,-0.43225,nan,0
567810790,567809841,527625,0.24458332,0.11975,-0.43641666,nan,0
567830773,567829832,527625,0.24416666,0.11266667,-0.43891665,nan,0
567850785,567849854,527625,0.24416666,0.11683333,-0.43641666,nan,0
567870856,567869919,527625,0.23808333,0.12083333,-0.43641666,nan,0
567890927,567889993,527625,0.23975,0.11683333,-0.44141665,nan,0
567910903,567909966,527625,0.24333332,0.12208333,-0.43891665,nan,0
567930691,567929759,527625,0.24058333,0.1185,-0.43766665,nan,0
567950690,567949759,527625,0.2385,0.12058333,-0.43475,nan,0
567970690,567969759,527625,0.23975,0.1185,-0.44224998,nan,0
567990698,567989767,527625,0.24166666,0.124583334,-0.43391666,nan,0
568010744,568009785,527625,0.24249999,0.12725,-0.43891665,nan,0
568030694,568029759,527625,0.24249999,0.12641667,-0.43725,nan,0
568050704,568049759,527625,0.23975,0.12166666,-0.43516666,nan,0
568070701,568069762,527625,0.24016666,0.12166666,-0.44308332,nan,0
568090695,568089764,527625,0.24166666,0.11683333,-0.43766665,nan,0
568110704,568109772,527625,0.24516666,0.12016667,-0.436,nan,0
568130693,568129760,527625,0.24875,0.11975,-0.43391666,nan,0
568150696,568149764,527625,0.24208333,0.11666667,-0.43725,nan,0
568170700,568169764,527625,0.24458332,0.117249995,-0.43808332,nan,0
568190691,568189760,527625,0.24833333,0.117249995,-0.43141666,nan,0
568210690,568209759,527625,0.2385,0.111833334,-0.42891666,nan,0
568230688,568229758,527625,0.23666666,0.10875,-0.43391666,nan,0
568250691,568249760,527625,0.23708333,0.105,-0.42808333,nan,0
568270694,568269761,527625,0.23391667,0.11016667,-0.42249998,nan,0
568290726,568289761,527625,0.23891667,0.10891666,-0.42458332,nan,0
568310809,568309773,527625,0.23975,0.11266667,-0.42766666,nan,0
568330864,568329788,527625,0.24125,0.11266667,-0.42458332,nan,0
568350891,568349757,527625,0.24333332,0.109749995,-0.43516666,nan,0
568370872,568369761,527625,0.24249999,0.111,-0.436,nan,0
568390889,568389757,527625,0.24416666,0.109749995,-0.43558332,nan,0
568410691,568409760,527625,0.24374999,0.113749996,-0.43933332,nan,0
568430987,568429807,527625,0.23933333,0.121249996,-0.44641668,nan,0
568450708,568449772,527625,0.2375,0.1185,-0.4485,nan,0
568470730,568469795,527625,0.23416667,0.12083333,-0.446,nan,0
568490783,568489840,527625,0.2335,0.12291667,-0.446,nan,0
568510893,568509952,527625,0.23808333,0.117249995,-0.44224998,nan,0
568531238,568529985,527625,0.23541667,0.11666667,-0.44391665,nan,0
568550874,568549917,527625,0.23458333,0.12058333,-0.44308332,nan,0
568570896,568569964,527625,0.24125,0.11666667,-0.44141665,nan,0
568590692,568589757,527625,0.24058333,0.11416666,-0.43766665,nan,0
568610723,568609773,527625,0.23583333,0.11333333,-0.4443333,nan,0
568630706,568629773,527625,0.23933333,0.11683333,-0.44016665,nan,0
568650703,568649770,527625,0.241,0.11541667,-0.43933332,nan,0
568670748,568669785,527625,0.24374999,0.12016667,-0.43475,nan,0
568690693,568689760,527625,0.23766667,0.12166666,-0.44308332,nan,0
568710704,568709768,527625,0.23808333,0.11291666,-0.4385,nan,0
568730698,568729763,527625,0.23666666,0.11683333,-0.43558332,nan,0
568750794,568749848,527625,0.23708333,0.11666667,-0.43308333,nan,0
568770707,568769763,527625,0.23666666,0.11666667,-0.4335,nan,0
568790700,568789767,527625,0.23708333,0.114583336,-0.43516666,nan,0
568830698,568829764,527625,0.23975,0.11416666,-0.43766665,nan,0
568850713,568849779,527625,0.24249999,0.11625,-0.43683332,nan,0
568870724,568869758,527625,0.23975,0.11683333,-0.4385,nan,0
568890699,568889762,527625,0.241,0.11333333,-0.43933332,nan,0
568930717,568929759,527625,0.23625,0.117249995,-0.44016665,nan,0
568950738,568949793,527625,0.24125,0.11625,-0.4443333,nan,0
568970877,568969758,527625,0.23975,0.117249995,-0.44141665,nan,0
568990823,568989756,527625,0.24333332,0.118083335,-0.436,nan,0
569030946,569029759,527625,0.24416666,0.119333334,-0.436,nan,0
569050877,569049756,527625,0.24458332,0.12016667,-0.43558332,nan,0
569070691,569069758,527625,0.24599999,0.11683333,-0.43766665,nan,0
569090693,569089757,527625,0.24166666,0.113749996,-0.43808332,nan,0
569130785,569129843,527625,0.24208333,0.11416666,-0.43016666,nan,0
569150766,569149830,527625,0.24516666,0.11891667,-0.43225,nan,0
569170882,569169949,527625,0.241,0.114583336,-0.43016666,nan,0
569190897,569189946,527625,0.24374999,0.117249995,-0.42933333,nan,0
569230909,569229975,527625,0.25474998,0.11666667,-0.43558332,nan,0
569250694,569249764,527625,0.24833333,0.12416667,-0.43933332,nan,0
569270711,569269759,527625,0.24599999,0.12291667,-0.43683332,nan,0
569290694,569289762,527625,0.24599999,0.12208333,-0.43725,nan,0
569330731,569329795,527625,0.24833333,0.119333334,-0.43891665,nan,0
569350694,569349759,527625,0.24875,0.12208333,-0.43683332,nan,0
569370691,569369760,527625,0.24641666,0.11766666,-0.43808332,nan,0
569390756,569389827,527625,0.24683332,0.11975,-0.43558332,nan,0
569430696,569429763,527625,0.24558333,0.11625,-0.43683332,nan,0
569450691,569449760,527625,0.24724999,0.11541667,-0.43766665,nan,0
569470691,569469759,527625,0.24833333,0.11625,-0.43516666,nan,0
569490690,569489758,527625,0.25083333,0.11333333,-0.4335,nan,0
569530748,569529764,527625,0.25,0.113749996,-0.43516666,nan,0
569550735,569549762,527625,0.24641666,0.113749996,-0.43975,nan,0
569570696,569569760,527625,0.24808332,0.11666667,-0.4385,nan,0
569590720,569589759,527625,0.24558333,0.12058333,-0.44141665,nan,0
569630778,569629758,527625,0.25433332,0.11975,-0.43516666,nan,0
569650803,569649763,527625,0.25349998,0.115,-0.43433332,nan,0
569670815,569669761,527625,0.25041667,0.11266667,-0.43725,nan,0
569690915,569689760,527625,0.25625,0.11766666,-0.43641666,nan,0
569730704,569729766,527625,0.25208333,0.11683333,-0.43808332,nan,0
569750723,569749785,527625,0.25166667,0.11891667,-0.43475,nan,0
569770700,569769769,527625,0.25349998,0.117249995,-0.43516666,nan,0
569790750,569789820,527625,0.24958333,0.121249996,-0.43308333,nan,0
569831187,569829972,527625,0.25666666,0.12375,-0.43308333,nan,0
569851254,569850003,527625,0.25433332,0.11766666,-0.43058333,nan,0
569870916,569869984,527625,0.25125,0.118083335,-0.43516666,nan,0
569890903,569889972,527625,0.25916666,0.119333334,-0.43391666,nan,0
569930704,569929769,527625,0.25225,0.117249995,-0.43266666,nan,0
570030696,570029763,527625,0.25041667,0.123333335,-0.43433332,nan,0
570130699,570129765,527625,0.25125,0.117249995,-0.436,nan,0
570230701,570229763,527625,0.24333332,0.11683333,-0.43516666,nan,0
570406453,570405520,527625,0.61433333,-0.111833334,-0.57266665,nan,0
570426472,570425484,527625,0.23891667,0.113749996,-0.43641666,nan,0
570446427,570445483,527625,0.23808333,0.11333333,-0.43266666,nan,0
570466412,570465483,527625,0.23708333,0.113749996,-0.43183333,nan,0
570486417,570485484,527625,0.24458332,0.1185,-0.43433332,nan,0
570526413,570525483,527625,0.24766666,0.11333333,-0.43975,nan,0
570546484,570545499,527625,0.25474998,0.115833335,-0.43558332,nan,0
570566416,570565482,527625,0.24724999,0.115833335,-0.43516666,nan,0
570586420,570585485,527625,0.24641666,0.115833335,-0.43725,nan,0
570626410,570625480,527625,0.24641666,0.11766666,-0.44308332,nan,0
570646491,570645485,527625,0.24875,0.11683333,-0.44224998,nan,0
570666428,570665482,527625,0.24808332,0.117249995,-0.43933332,nan,0
570686455,570685479,527625,0.24683332,0.114583336,-0.43641666,nan,0
570726626,570725497,527625,0.25349998,0.11891667,-0.431,nan,0
570746643,570745485,527625,0.25625,0.11625,-0.43391666,nan,0
570766609,570765482,527625,0.25,0.117249995,-0.43141666,nan,0
570786411,570785480,527625,0.25266665,0.12291667,-0.431,nan,0
570826439,570825503,527625,0.25,0.11766666,-0.43558332,nan,0
570846818,570845642,527625,0.24599999,0.12016667,-0.43933332,nan,0
570866475,570865543,527625,0.24808332,0.115,-0.4385,nan,0
570886519,570885589,527625,0.24475,0.11291666,-0.44099998,nan,0
570926615,570925682,527625,0.24458332,0.12291667,-0.43558332,nan,0
570946649,570945480,527625,0.24291666,0.11975,-0.43558332,nan,0
570966450,570965482,527625,0.24208333,0.121249996,-0.43058333,nan,0
570986412,570985480,527625,0.24291666,0.12516667,-0.43475,nan,0
571026420,571025486,527625,0.24558333,0.124583334,-0.43725,nan,0
571046461,571045530,527625,0.24208333,0.123333335,-0.43933332,nan,0
571066417,571065482,527625,0.24808332,0.119333334,-0.436,nan,0
571086420,571085482,527625,0.24558333,0.11975,-0.43475,nan,0
571126416,571125484,527625,0.24374999,0.12208333,-0.44933334,nan,0
571146414,571145483,527625,0.24599999,0.1225,-0.4535,nan,0
571166420,571165483,527625,0.24516666,0.12083333,-0.451,nan,0
571186416,571185484,527625,0.23891667,0.1225,-0.4535,nan,0
571226417,571225484,527625,0.24516666,0.12291667,-0.4535,nan,0
571246422,571245489,527625,0.24683332,0.12166666,-0.44891667,nan,0
571326444,571325482,527625,0.24208333,0.124749996,-0.44641668,nan,0
571426621,571425490,527625,0.24125,0.12083333,-0.42766666,nan,0
571526492,571525554,527625,0.2335,0.115833335,-0.43891665,nan,0
571722637,571721702,527625,0.61083335,-0.103083335,-0.57225,nan,0
571742642,571741703,527625,0.23224999,0.12016667,-0.44391665,nan,0
571762635,571761702,527625,0.2335,0.11975,-0.4485,nan,0
571782658,571781727,527625,0.23391667,0.12558334,-0.43975,nan,0
571802636,571801703,527625,0.2375,0.12558334,-0.44641668,nan,0
571842701,571841701,527625,0.23891667,0.124749996,-0.44099998,nan,0
571862638,571861700,527625,0.2335,0.12683333,-0.44808334,nan,0
571882644,571881705,527625,0.23933333,0.123333335,-0.44516665,nan,0
571902681,571901746,527625,0.23808333,0.12083333,-0.4385,nan,0
571942734,571941700,527625,0.23583333,0.12016667,-0.43975,nan,0
571962635,571961702,527625,0.23708333,0.12016667,-0.44141665,nan,0
571982716,571981703,527625,0.24475,0.1185,-0.43475,nan,0
572002761,572001701,527625,0.23975,0.11666667,-0.43725,nan,0
572042939,572041700,527625,0.23933333,0.11416666,-0.42725,nan,0
572062817,572061701,527625,0.235,0.111833334,-0.42683333,nan,0
572082855,572081704,527625,0.23308334,0.111833334,-0.42933333,nan,0
572102672,572101701,527625,0.23458333,0.11766666,-0.43391666,nan,0
572142731,572141797,527625,0.23,0.111,-0.446,nan,0
572162680,572161742,527625,0.22874999,0.108333334,-0.446,nan,0
572182710,572181780,527625,0.22916667,0.11141667,-0.44474998,nan,0
572202782,572201846,527625,0.23308334,0.111833334,-0.4455833,nan,0
572242853,572241918,527625,0.24558333,0.117249995,-0.43933332,nan,0
572262634,572261701,527625,0.23933333,0.119333334,-0.44016665,nan,0
572282633,572281702,527625,0.24058333,0.11975,-0.44058332,nan,0
572302643,572301707,527625,0.24808332,0.1185,-0.43725,nan,0
572342687,572341715,527625,0.24208333,0.11416666,-0.43725,nan,0
572362628,572361698,527625,0.24249999,0.12016667,-0.436,nan,0
572382639,572381704,527625,0.2385,0.1185,-0.43933332,nan,0
572402639,572401702,527625,0.24058333,0.11683333,-0.43558332,nan,0
572442639,572441701,527625,0.23808333,0.115,-0.43725,nan,0
572462696,572461702,527625,0.24058333,0.1225,-0.43475,nan,0
572482640,572481703,527625,0.23583333,0.121249996,-0.44308332,nan,0
572502637,572501703,527625,0.23891667,0.12083333,-0.44099998,nan,0
572542641,572541702,527625,0.235,0.12766667,-0.45016667,nan,0
572562642,572561707,527625,0.24125,0.124583334,-0.45475,nan,0
572582638,572581702,527625,0.23933333,0.12641667,-0.45183334,nan,0
572602643,572601702,527625,0.24058333,0.12916666,-0.45641667,nan,0
572642730,572641699,527625,0.23458333,0.13208333,-0.4535,nan,0
572662735,572661698,527625,0.23099999,0.1335,-0.45308334,nan,0
572742929,572741702,527625,0.23583333,0.13599999,-0.4443333,nan,0
572842722,572841790,527625,0.22475,0.13958333,-0.43558332,nan,0
572942651,572941704,527625,0.21541667,0.13125,-0.44641668,nan,0
573138800,573137838,527625,0.21766667,0.14,-0.44224998,nan,0
573158756,573157825,527625,0.21725,0.13958333,-0.44474998,nan,0
573178783,573177833,527625,0.21808334,0.13916667,-0.44391665,nan,0
573198806,573197874,527625,0.22308333,0.13266666,-0.44391665,nan,0
573218786,573217813,527625,0.22,0.13391666,-0.44349998,nan,0
573258820,573257831,527625,0.22291666,0.13599999,-0.4535,nan,0
573278884,573277840,527625,0.2225,0.13516666,-0.4485,nan,0
573298905,573297828,527625,0.22475,0.13475,-0.44891667,nan,0
573318960,573317877,527625,0.22391666,0.13833334,-0.44891667,nan,0
573358767,573357826,527625,0.21599999,0.13558333,-0.44891667,nan,0
573378803,573377859,527625,0.22308333,0.13708334,-0.44183332,nan,0
573398789,573397855,527625,0.22083333,0.13208333,-0.4485,nan,0
573418873,573417942,527625,0.22291666,0.13125,-0.44308332,nan,0
573458868,573457937,527625,0.22749999,0.13558333,-0.44099998,nan,0
573479006,573478069,527625,0.22291666,0.13475,-0.44349998,nan,0
573498983,573498051,527625,0.22516666,0.13708334,-0.44183332,nan,0
573519015,573518080,527625,0.22558333,0.13433333,-0.44391665,nan,0
573558771,573557835,527625,0.22516666,0.13599999,-0.44641668,nan,0
573578780,573577837,527625,0.22516666,0.13625,-0.44975,nan,0
573598777,573597840,527625,0.22291666,0.14058334,-0.44725,nan,0
573618818,573617879,527625,0.22791666,0.14808333,-0.44474998,nan,0
573658760,573657830,527625,0.22916667,0.14666666,-0.44766667,nan,0
573678787,573677846,527625,0.22749999,0.14791666,-0.44141665,nan,0
573698777,573697839,527625,0.22916667,0.14308333,-0.44391665,nan,0
573718796,573717834,527625,0.22475,0.14225,-0.44683334,nan,0
573758827,573757828,527625,0.22708333,0.15333334,-0.43975,nan,0
573778818,573777831,527625,0.22791666,0.15141666,-0.43725,nan,0
573798770,573797833,527625,0.22641666,0.15183333,-0.43683332,nan,0
573818781,573817840,527625,0.22683333,0.151,-0.43933332,nan,0
573858775,573857839,527625,0.22916667,0.14541666,-0.45016667,nan,0
573878926,573877821,527625,0.22433333,0.13791667,-0.44933334,nan,0
573898786,573897825,527625,0.21933334,0.13,-0.44474998,nan,0
573918830,573917830,527625,0.20541666,0.12558334,-0.44891667,nan,0
573958919,573957833,527625,0.17266667,0.11766666,-0.45391667,nan,0
573979060,573977840,527625,0.15708333,0.11975,-0.45933333,nan,0
573998977,573997829,527625,0.12875,0.11225,-0.46266666,nan,0
574018773,574017833,527625,0.10583333,0.1185,-0.4635,nan,0
574058781,574057849,527625,0.06333333,0.12416667,-0.46225,nan,0
574078847,574077889,527625,0.045166668,0.13,-0.45808333,nan,0
574098843,574097912,527625,0.0325,0.126,-0.461,nan,0
574118874,574117943,527625,0.025416667,0.12641667,-0.45933333,nan,0
574158989,574158060,527625,0.018749999,0.13266666,-0.45225,nan,0
574178873,574177848,527625,0.0125,0.13083333,-0.45558333,nan,0
574198757,574197825,527625,0.009333333,0.13708334,-0.44725,nan,0
574218781,574217846,527625,0.013333334,0.13666667,-0.44766667,nan,0
574258811,574257865,527625,0.0,0.13833334,-0.456,nan,0
574278840,574277871,527625,-0.0018333333,0.13958333,-0.4485,nan,0
574298778,574297832,527625,-0.00375,0.14391667,-0.44766667,nan,0
574318787,574317841,527625,-0.00625,0.14458333,-0.44766667,nan,0
574358783,574357840,527625,-0.004583333,0.14625,-0.44891667,nan,0
574378813,574377872,527625,-0.0034999999,0.14266667,-0.45058334,nan,0
574398774,574397834,527625,-0.00375,0.14625,-0.451,nan,0
574418757,574417825,527625,-0.00375,0.1435,-0.45308334,nan,0
574458768,574457829,527625,-0.0026666666,0.15558334,-0.45308334,nan,0
574478783,574477836,527625,-0.004583333,0.156,-0.44975,nan,0
574498769,574497828,527625,-0.004583333,0.15933333,-0.4535,nan,0
574518774,574517838,527625,-0.00225,0.16291666,-0.45058334,nan,0
574558772,574557827,527625,-0.0018333333,0.1635,-0.45141667,nan,0
574658965,574657829,527625,0.034166668,0.17475,-0.45641667,nan,0
574758852,574757913,527625,0.19516666,0.17933333,-0.451,nan,0
574799282,574798102,527625,0.30475,0.16833334,-0.41583332,nan,0
574858756,574857825,527625,0.35916665,0.17041667,-0.39166665,nan,0
575074818,575073885,527625,0.43583333,0.156,-0.32225,nan,0
575094860,575093896,527625,0.44099998,0.15458333,-0.33141667,nan,0
575114853,575113901,527625,0.4375,0.156,-0.32391667,nan,0
575134939,575133887,527625,0.44099998,0.15416667,-0.32308334,nan,0
575154928,575153894,527625,0.44016665,0.15558334,-0.31975,nan,0
575194965,575193887,527625,0.43266666,0.15291667,-0.33433333,nan,0
575215070,575213891,527625,0.43041667,0.15416667,-0.3385,nan,0
575235047,575233914,527625,0.42016667,0.15541667,-0.3435,nan,0
575254828,575253894,527625,0.4130833,0.15641667,-0.3505833,nan,0
575294846,575293913,527625,0.40041667,0.16166666,-0.35183334,nan,0
575314945,575314010,527625,0.39416665,0.15641667,-0.36141667,nan,0
575334945,575334015,527625,0.39183334,0.1585,-0.361,nan,0
575355031,575354100,527625,0.3875,0.15766667,-0.36808333,nan,0
575395023,575394086,527625,0.38125,0.15808333,-0.36183333,nan,0
575414834,575413890,527625,0.38583332,0.16558333,-0.3635,nan,0
575434828,575433898,527625,0.38666666,0.16166666,-0.35933334,nan,0
575454816,575453886,527625,0.39374998,0.16391666,-0.3535,nan,0
575494841,575493908,527625,0.40433332,0.16333333,-0.35266668,nan,0
575514828,575513891,527625,0.41183332,0.16333333,-0.34724998,nan,0
575534823,575533887,527625,0.41808334,0.15958333,-0.341,nan,0
575554848,575553888,527625,0.41975,0.16208333,-0.34016666,nan,0
575594892,575593888,527625,0.42458332,0.16041666,-0.3385,nan,0
575614828,575613892,527625,0.42766666,0.16208333,-0.33183333,nan,0
575634824,575633886,527625,0.42766666,0.16166666,-0.33183333,nan,0
575654829,575653889,527625,0.43,0.16433333,-0.33058333,nan,0
575694849,575693916,527625,0.43391666,0.17183334,-0.32225,nan,0
575714868,575713931,527625,0.43,0.17083333,-0.32183334,nan,0
575734821,575733889,527625,0.43266666,0.17225,-0.33225,nan,0
575754824,575753888,527625,0.43083334,0.16641666,-0.32266667,nan,0
575794888,575793887,527625,0.4375,0.17666666,-0.32475,nan,0
575815057,575813917,527625,0.43516666,0.17308334,-0.32641667,nan,0
575834944,575833886,527625,0.43916667,0.17308334,-0.32266667,nan,0
575854962,575853898,527625,0.43225,0.17583333,-0.32016668,nan,0
575895075,575893886,527625,0.43708333,0.1775,-0.32641667,nan,0
575915211,575913944,527625,0.43558332,0.17833333,-0.32391667,nan,0
575934869,575933936,527625,0.43125,0.17308334,-0.3235,nan,0
575954833,575953893,527625,0.4285,0.17433333,-0.326,nan,0
575994939,575994003,527625,0.43433332,0.17391667,-0.32933334,nan,0
576015303,576014068,527625,0.43,0.17933333,-0.33016667,nan,0
576035021,576034088,527625,0.43083334,0.18058333,-0.3335,nan,0
576055020,576054087,527625,0.42808333,0.17975,-0.33975,nan,0
576094819,576093886,527625,0.39766666,0.18183333,-0.36475,nan,0
576114879,576113904,527625,0.37683332,0.18266666,-0.37183332,nan,0
576134838,576133898,527625,0.35391667,0.19375,-0.38833332,nan,0
576154844,576153898,527625,0.32125,0.18975,-0.40291667,nan,0
576194824,576193884,527625,0.25266665,0.20266667,-0.43225,nan,0
576214878,576213930,527625,0.215,0.19725,-0.44183332,nan,0
576234887,576233897,527625,0.17666666,0.2,-0.45683333,nan,0
576254833,576253894,527625,0.15083334,0.19808333,-0.46433333,nan,0
576294817,576293886,527625,0.116,0.2,-0.45933333,nan,0
576394818,576393887,527625,0.047083333,0.19083333,-0.46016666,nan,0
576494919,576493887,527625,0.030166667,0.17891666,-0.45725,nan,0
576594817,576593886,527625,0.039333332,0.185,-0.45433334,nan,0
576771133,576770135,527625,0.106249996,0.18058333,-0.46475,nan,0
576791083,576790141,527625,0.113749996,0.18333334,-0.4635,nan,0
576811076,576810141,527625,0.12166666,0.18458334,-0.46016666,nan,0
576831100,576830165,527625,0.12875,0.18416667,-0.46141666,nan,0
576851196,576850257,527625,0.13583334,0.18583333,-0.46433333,nan,0
576871074,576870141,527625,0.135,0.18375,-0.4485,nan,0
576891073,576890141,527625,0.14558333,0.18891667,-0.45433334,nan,0
576911070,576910138,527625,0.15433334,0.18291667,-0.451,nan,0
576931075,576930139,527625,0.15933333,0.185,-0.446,nan,0
576951069,576950137,527625,0.16458333,0.17708333,-0.43975,nan,0
576991123,576990141,527625,0.19125,0.16041666,-0.42725,nan,0
577011079,577010144,527625,0.19641666,0.15058333,-0.431,nan,0
577031077,577030139,527625,0.2075,0.12958333,-0.4385,nan,0
577051105,577050146,527625,0.22125,0.10225,-0.44808334,nan,0
577091077,577090138,527625,0.24416666,0.063083336,-0.44224998,nan,0
577111230,577110143,527625,0.25433332,0.049333334,-0.44016665,nan,0
577131101,577130139,527625,0.25933334,0.037916668,-0.431,nan,0
577151147,577150139,527625,0.26458332,0.031833332,-0.42725,nan,0
577191245,577190137,527625,0.28225,0.028333332,-0.40875,nan,0
577211251,577210139,527625,0.28141665,0.026,-0.4075,nan,0
577231335,577230140,527625,0.29141667,0.026833333,-0.3975,nan,0
577251072,577250141,527625,0.29016668,0.0275,-0.39708334,nan,0
577291132,577290196,527625,0.29291666,0.030416666,-0.38875,nan,0
577311170,577310237,527625,0.29516667,0.027916666,-0.39083332,nan,0
577331233,577330297,527625,0.29375,0.025583332,-0.38625,nan,0
577351206,577350275,527625,0.285,0.030833334,-0.385,nan,0
577391667,577390433,527625,0.29208332,0.028333332,-0.40375,nan,0
577411358,577410151,527625,0.28791666,0.031833332,-0.41375,nan,0
577431081,577430139,527625,0.29016668,0.041,-0.41791666,nan,0
577451069,577450136,527625,0.28666666,0.04975,-0.42416665,nan,0
577491147,577490214,527625,0.28183332,0.06391667,-0.42725,nan,0
577511116,577510173,527625,0.28,0.071833335,-0.42166665,nan,0
577531076,577530139,527625,0.27958333,0.07975,-0.43058333,nan,0
577551074,577550140,527625,0.285,0.083333336,-0.42766666,nan,0
577591074,577590140,527625,0.28083333,0.09475,-0.426,nan,0
577611077,577610141,527625,0.27875,0.10266667,-0.42499998,nan,0
577631094,577630159,527625,0.27791667,0.10225,-0.42975,nan,0
577651082,577650138,527625,0.26933333,0.105,-0.42891666,nan,0
577691075,577690139,527625,0.27433333,0.12291667,-0.42891666,nan,0
577711111,577710159,527625,0.27641666,0.12875,-0.43141666,nan,0
577731080,577730142,527625,0.27333334,0.13208333,-0.431,nan,0
577751190,577750141,527625,0.26808333,0.1335,-0.43183333,nan,0
577791134,577790141,527625,0.26766667,0.14583333,-0.43225,nan,0
577811218,577810143,527625,0.265,0.14933333,-0.43183333,nan,0
577831231,577830139,527625,0.261,0.156,-0.4335,nan,0
577851220,577850143,527625,0.265,0.16125,-0.426,nan,0
577891313,577890140,527625,0.27041668,0.16391666,-0.42725,nan,0
577911074,577910141,527625,0.27,0.16291666,-0.43183333,nan,0
577931079,577930142,527625,0.27041668,0.16558333,-0.43308333,nan,0
577951073,577950139,527625,0.26375,0.16724999,-0.42933333,nan,0
577991195,577990246,527625,0.26624998,0.16516666,-0.43308333,nan,0
578011190,578010253,527625,0.26624998,0.1585,-0.43725,nan,0
578031234,578030301,527625,0.27083334,0.16166666,-0.44016665,nan,0
578051215,578050276,527625,0.27516666,0.15808333,-0.44016665,nan,0
578091075,578090135,527625,0.27391666,0.16041666,-0.44308332,nan,0
578191103,578190140,527625,0.27125,0.15208334,-0.42641667,nan,0
578291078,578290139,527625,0.26683334,0.14416666,-0.43016666,nan,0
578391122,578390139,527625,0.25666666,0.13625,-0.44099998,nan,0
578566793,578565832,527625,0.636,-0.085999995,-0.566,nan,0
578586768,578585831,527625,0.26583332,0.13166666,-0.44099998,nan,0
578606792,578605831,527625,0.26375,0.13208333,-0.44058332,nan,0
578626767,578625830,527625,0.26375,0.126,-0.43891665,nan,0
578646777,578645837,527625,0.25833333,0.12683333,-0.44474998,nan,0
578686767,578685829,527625,0.26266667,0.12641667,-0.431,nan,0
578706782,578705833,527625,0.25933334,0.13,-0.42933333,nan,0
578726756,578725825,527625,0.261,0.13208333,-0.43391666,nan,0
578746830,578745826,527625,0.26291665,0.13041666,-0.42933333,nan,0
578786741,578785795,527625,0.25833333,0.12958333,-0.43475,nan,0
578806805,578805872,527625,0.25791666,0.13833334,-0.44141665,nan,0
578826786,578825836,527625,0.25916666,0.13558333,-0.44099998,nan,0
578846881,578845833,527625,0.25933334,0.13833334,-0.44016665,nan,0
578886858,578885835,527625,0.25625,0.13391666,-0.44391665,nan,0
578906889,578905836,527625,0.25875,0.13625,-0.44349998,nan,0
578926958,578925888,527625,0.25975,0.13308333,-0.446,nan,0
578946996,578945882,527625,0.25558332,0.13391666,-0.43808332,nan,0
578986772,578985827,527625,0.25166667,0.12833333,-0.4455833,nan,0
579006796,579005848,527625,0.25041667,0.13308333,-0.45016667,nan,0
579026810,579025877,527625,0.25433332,0.12916666,-0.44141665,nan,0
579046876,579045931,527625,0.25625,0.12916666,-0.4455833,nan,0
579086900,579085961,527625,0.25708333,0.12725,-0.44183332,nan,0
579106992,579106059,527625,0.25666666,0.13083333,-0.44474998,nan,0
579126989,579126038,527625,0.25516665,0.13041666,-0.44099998,nan,0
579147051,579146114,527625,0.25516665,0.13041666,-0.44683334,nan,0
579186776,579185840,527625,0.25583333,0.12683333,-0.43808332,nan,0
579206792,579205848,527625,0.2575,0.13125,-0.43391666,nan,0
579226785,579225843,527625,0.25349998,0.126,-0.43683332,nan,0
579246867,579245929,527625,0.25558332,0.126,-0.42808333,nan,0
579286772,579285833,527625,0.26375,0.126,-0.44391665,nan,0
579306734,579305802,527625,0.2685,0.12516667,-0.44224998,nan,0
579326770,579325835,527625,0.26641667,0.12516667,-0.44183332,nan,0
579346774,579345834,527625,0.26624998,0.12916666,-0.43725,nan,0
579386780,579385845,527625,0.26058334,0.12641667,-0.43558332,nan,0
579406782,579405832,527625,0.26266667,0.12683333,-0.44183332,nan,0
579426787,579425839,527625,0.26183334,0.13083333,-0.4385,nan,0
579446804,579445872,527625,0.26266667,0.12916666,-0.43975,nan,0
579486775,579485838,527625,0.26141667,0.13308333,-0.436,nan,0
579506784,579505834,527625,0.26266667,0.13208333,-0.43433332,nan,0
579526771,579525833,527625,0.26541665,0.12916666,-0.44308332,nan,0
579546890,579545831,527625,0.26683334,0.13708334,-0.43808332,nan,0
579586971,579585830,527625,0.27,0.1335,-0.436,nan,0
579686801,579685849,527625,0.26683334,0.14,-0.43183333,nan,0
579786982,579786032,527625,0.25516665,0.13958333,-0.43266666,nan,0
579886746,579885806,527625,0.26016667,0.13266666,-0.43391666,nan,0
580062825,580061892,527625,0.261,0.1335,-0.43475,nan,0
580082857,580081923,527625,0.26624998,0.13916667,-0.43391666,nan,0
580102849,580101917,527625,0.26458332,0.14058334,-0.43725,nan,0
580122865,580121896,527625,0.26141667,0.13791667,-0.43808332,nan,0
580143004,580141911,527625,0.26266667,0.14975,-0.43516666,nan,0
580182951,580181891,527625,0.25833333,0.141,-0.42891666,nan,0
580203061,580201888,527625,0.261,0.141,-0.43641666,nan,0
580223053,580221891,527625,0.26183334,0.13958333,-0.43891665,nan,0
580243116,580241937,527625,0.25975,0.13833334,-0.43558332,nan,0
580282825,580281887,527625,0.26624998,0.14225,-0.43058333,nan,0
580302855,580301922,527625,0.265,0.14016667,-0.431,nan,0
580322898,580321966,527625,0.26458332,0.14541666,-0.43225,nan,0
580343353,580342092,527625,0.26583332,0.145,-0.431,nan,0
580383008,580382071,527625,0.26183334,0.14791666,-0.44308332,nan,0
580403097,580402165,527625,0.25708333,0.15183333,-0.44099998,nan,0
580423104,580422169,527625,0.26225,0.14975,-0.43891665,nan,0
580442834,580441891,527625,0.25833333,0.156,-0.44016665,nan,0
580482842,580481902,527625,0.26225,0.15891667,-0.44058332,nan,0
580502842,580501903,527625,0.26225,0.15725,-0.4385,nan,0
580522820,580521886,527625,0.26141667,0.16333333,-0.44391665,nan,0
580542931,580541991,527625,0.25558332,0.16683333,-0.43975,nan,0
580582822,580581889,527625,0.25708333,0.17183334,-0.43475,nan,0
580602833,580601900,527625,0.25583333,0.17583333,-0.43308333,nan,0
580622837,580621898,527625,0.25433332,0.17583333,-0.43516666,nan,0
580642832,580641897,527625,0.25041667,0.17266667,-0.43933332,nan,0
580682822,580681889,527625,0.24833333,0.18683334,-0.44058332,nan,0
580702820,580701887,527625,0.24458332,0.18375,-0.43808332,nan,0
580722830,580721895,527625,0.24291666,0.19291666,-0.44016665,nan,0
580782828,580781895,527625,0.24249999,0.2025,-0.43891665,nan,0
580802870,580801889,527625,0.24249999,0.20166667,-0.44141665,nan,0
580822865,580821885,527625,0.24166666,0.20125,-0.43891665,nan,0
580842890,580841885,527625,0.24516666,0.20916666,-0.43725,nan,0
580883098,580881892,527625,0.25349998,0.20916666,-0.43516666,nan,0
580902993,580901887,527625,0.24475,0.215,-0.43433332,nan,0
580923064,580921898,527625,0.24125,0.2075,-0.43725,nan,0
580942821,580941888,527625,0.25041667,0.215,-0.436,nan,0
580983197,580982073,527625,0.24875,0.2075,-0.43725,nan,0
581002858,581001922,527625,0.24458332,0.21,-0.43891665,nan,0
581022918,581021985,527625,0.24916667,0.20875,-0.4385,nan,0
581042962,581042012,527625,0.24724999,0.20391667,-0.43558332,nan,0
581083000,581082064,527625,0.25,0.20916666,-0.43725,nan,0
581103045,581102107,527625,0.25125,0.206,-0.43641666,nan,0
581122820,581121886,527625,0.25308332,0.20308334,-0.43725,nan,0
581142827,581141890,527625,0.25125,0.19849999,-0.44141665,nan,0
581182869,581181938,527625,0.25791666,0.19416666,-0.43766665,nan,0
581202844,581201912,527625,0.25266665,0.19058333,-0.436,nan,0
581222839,581221893,527625,0.2575,0.19208333,-0.43933332,nan,0
581242826,581241888,527625,0.25583333,0.18666667,-0.44141665,nan,0
581282826,581281885,527625,0.25433332,0.17891666,-0.43808332,nan,0
581302828,581301889,527625,0.25666666,0.16958334,-0.44308332,nan,0
581322828,581321893,527625,0.261,0.16875,-0.44099998,nan,0
581342839,581341900,527625,0.25833333,0.166,-0.43933332,nan,0
581382836,581381902,527625,0.26141667,0.1625,-0.436,nan,0
581402852,581401918,527625,0.26016667,0.151,-0.43433332,nan,0
581422880,581421886,527625,0.26183334,0.1475,-0.43225,nan,0
581442818,581441886,527625,0.26333332,0.14458333,-0.43183333,nan,0
581482871,581481899,527625,0.261,0.13225,-0.4335,nan,0
581502854,581501922,527625,0.25666666,0.13083333,-0.44183332,nan,0
581522900,581521887,527625,0.25975,0.124583334,-0.44016665,nan,0
581582981,581581888,527625,0.25516665,0.123333335,-0.43975,nan,0
581682917,581681981,527625,0.24958333,0.10391667,-0.44141665,nan,0
581783010,581782076,527625,0.24058333,0.079333335,-0.43933332,nan,0
581998832,581997900,527625,0.22166666,0.046666667,-0.4443333,nan,0
582018832,582017900,527625,0.21891667,0.041416667,-0.43975,nan,0
582038863,582037928,527625,0.21375,0.04375,-0.44099998,nan,0
582058832,582057900,527625,0.21141666,0.04808333,-0.43641666,nan,0
582078940,582077902,527625,0.21375,0.041833334,-0.43475,nan,0
582118943,582117906,527625,0.21249999,0.046666667,-0.43766665,nan,0
582138985,582137902,527625,0.20516667,0.04975,-0.44308332,nan,0
582159025,582157943,527625,0.2,0.045833334,-0.43558332,nan,0
582179089,582177938,527625,0.20666666,0.048499998,-0.44474998,nan,0
582218846,582217902,527625,0.20625,0.04375,-0.45683333,nan,0
582238842,582237904,527625,0.20875,0.043333333,-0.45225,nan,0
582258911,582257975,527625,0.20875,0.043333333,-0.45558333,nan,0
582278954,582278019,527625,0.211,0.037916668,-0.45266667,nan,0
582318966,582318034,527625,0.21641666,0.037499998,-0.44391665,nan,0
582339082,582338148,527625,0.21333334,0.03708333,-0.44641668,nan,0
582359056,582358124,527625,0.21458334,0.03975,-0.4485,nan,0
582378835,582377901,527625,0.22291666,0.03875,-0.44391665,nan,0
582418839,582417906,527625,0.22874999,0.04058333,-0.44058332,nan,0
582438842,582437905,527625,0.22433333,0.039333332,-0.43933332,nan,0
582458854,582457918,527625,0.22708333,0.03975,-0.44474998,nan,0
582478909,582477970,527625,0.21808334,0.03708333,-0.4443333,nan,0
582518854,582517919,527625,0.22433333,0.037499998,-0.44141665,nan,0
582538849,582537901,527625,0.22125,0.03975,-0.44516665,nan,0
582558843,582557911,527625,0.22166666,0.035,-0.44308332,nan,0
582578855,582577907,527625,0.2235,0.033083335,-0.44266665,nan,0
582618835,582617903,527625,0.21541667,0.035833333,-0.44474998,nan,0
582638845,582637904,527625,0.211,0.03708333,-0.44808334,nan,0
582658842,582657903,527625,0.21141666,0.032666665,-0.44641668,nan,0
582678857,582677914,527625,0.21183333,0.041416667,-0.4443333,nan,0
582718847,582717913,527625,0.20975,0.032666665,-0.451,nan,0
582738848,582737902,527625,0.21016666,0.031,-0.4443333,nan,0
582758845,582757902,527625,0.21249999,0.035416666,-0.44391665,nan,0
582778877,582777903,527625,0.21141666,0.033916667,-0.44058332,nan,0
582818972,582817951,527625,0.21725,0.03625,-0.44141665,nan,0
582839047,582837902,527625,0.21458334,0.03975,-0.44891667,nan,0
582859006,582857901,527625,0.21683334,0.030416666,-0.44141665,nan,0
582879096,582877901,527625,0.21725,0.030833334,-0.44516665,nan,0
582918853,582917920,527625,0.21891667,0.032666665,-0.45183334,nan,0
582938850,582937918,527625,0.21541667,0.030833334,-0.44808334,nan,0
582958868,582957935,527625,0.21958333,0.032666665,-0.4443333,nan,0
582978947,582978013,527625,0.22641666,0.0335,-0.43725,nan,0
583019056,583018069,527625,0.22291666,0.032666665,-0.44058332,nan,0
583039000,583038067,527625,0.22475,0.031833332,-0.43641666,nan,0
583059044,583058112,527625,0.22641666,0.029583333,-0.43266666,nan,0
583118851,583117919,527625,0.22833332,0.034333333,-0.4335,nan,0
583218839,583217902,527625,0.22558333,0.03225,-0.43308333,nan,0
583318835,583317901,527625,0.21933334,0.035416666,-0.43183333,nan,0
583534619,583533685,527625,0.6080833,-0.1585,-0.5555833,nan,0
583554605,583553674,527625,0.22916667,0.063083336,-0.44266665,nan,0
583574610,583573676,527625,0.2235,0.07225,-0.43891665,nan,0
583594634,583593702,527625,0.22791666,0.07,-0.43891665,nan,0
583614617,583613680,527625,0.22749999,0.07416666,-0.44058332,nan,0
583654621,583653682,527625,0.23,0.08208333,-0.4485,nan,0
583674663,583673714,527625,0.22791666,0.082499996,-0.4485,nan,0
583694609,583693677,527625,0.23891667,0.08541667,-0.44349998,nan,0
583714713,583713680,527625,0.24766666,0.08958333,-0.446,nan,0
583754609,583753677,527625,0.23891667,0.089999996,-0.43641666,nan,0
583774611,583773677,527625,0.24558333,0.09291667,-0.43266666,nan,0
583794651,583793709,527625,0.25166667,0.09516667,-0.43933332,nan,0
583814610,583813678,527625,0.25041667,0.09475,-0.43225,nan,0
583854618,583853687,527625,0.25041667,0.08891667,-0.4385,nan,0
583874607,583873675,527625,0.25166667,0.08933333,-0.43558332,nan,0
583894607,583893676,527625,0.24599999,0.08891667,-0.43183333,nan,0
583914772,583913695,527625,0.25208333,0.09166667,-0.42808333,nan,0
583954728,583953676,527625,0.25391665,0.106249996,-0.446,nan,0
583974778,583973688,527625,0.25391665,0.107083336,-0.45308334,nan,0
583994789,583993686,527625,0.25583333,0.10583333,-0.45266667,nan,0
584014907,584013692,527625,0.25625,0.1075,-0.44891667,nan,0
584054612,584053680,527625,0.25225,0.10141666,-0.4485,nan,0
584074632,584073696,527625,0.2575,0.10475,-0.44516665,nan,0
584094648,584093702,527625,0.25308332,0.103083335,-0.44308332,nan,0
584115134,584113879,527625,0.25225,0.10225,-0.43433332,nan,0
584154782,584153833,527625,0.24916667,0.096,-0.405,nan,0
584174819,584173885,527625,0.24958333,0.09916667,-0.41125,nan,0
584194852,584193920,527625,0.24916667,0.09683333,-0.415,nan,0
584214619,584213679,527625,0.24558333,0.093333334,-0.42416665,nan,0
584254609,584253677,527625,0.24416666,0.09916667,-0.42499998,nan,0
584354618,584353680,527625,0.23808333,0.1035,-0.43808332,nan,0
584454607,584453674,527625,0.23933333,0.098749995,-0.44349998,nan,0
584554615,584553679,527625,0.24558333,0.11975,-0.43891665,nan,0
584730405,584729471,527625,0.61125,0.027083334,-0.56016666,nan,0
584750425,584749464,527625,0.23183332,0.26375,-0.42083332,nan,0
584770400,584769465,527625,0.23308334,0.27641666,-0.41958332,nan,0
584790432,584789498,527625,0.2335,0.29141667,-0.41666666,nan,0
584810399,584809465,527625,0.23766667,0.306,-0.40916666,nan,0
584850411,584849469,527625,0.24558333,0.33016667,-0.40333334,nan,0
584870400,584869465,527625,0.24125,0.33808333,-0.39916667,nan,0
584890397,584889461,527625,0.24516666,0.34433332,-0.39875,nan,0
584910413,584909478,527625,0.24808332,0.34958333,-0.39333332,nan,0
584950402,584949468,527625,0.24916667,0.3535,-0.38416666,nan,0
584970400,584969462,527625,0.24641666,0.35433334,-0.38083333,nan,0
584990402,584989469,527625,0.25083333,0.35391667,-0.38458332,nan,0
585010472,585009497,527625,0.25,0.35308334,-0.38083333,nan,0
585050411,585049468,527625,0.26058334,0.36291665,-0.39,nan,0
585070518,585069463,527625,0.26058334,0.3585,-0.38958332,nan,0
585090559,585089468,527625,0.26333332,0.35625,-0.38875,nan,0
585110625,585109532,527625,0.26541665,0.35625,-0.39374998,nan,0
585150601,585149464,527625,0.25975,0.35975,-0.37583333,nan,0
585170403,585169470,527625,0.25666666,0.3585,-0.37583333,nan,0
585190394,585189461,527625,0.25708333,0.35933334,-0.38208333,nan,0
585210416,585209479,527625,0.25933334,0.361,-0.37458333,nan,0
585250520,585249589,527625,0.25916666,0.3575,-0.3775,nan,0
585270547,585269615,527625,0.25583333,0.35141668,-0.38291666,nan,0
585290521,585289584,527625,0.25433332,0.35808334,-0.38416666,nan,0
585310580,585309648,527625,0.25916666,0.35225,-0.385,nan,0
585350438,585349466,527625,0.25474998,0.3505833,-0.38291666,nan,0
585370408,585369475,527625,0.25208333,0.34958333,-0.38666666,nan,0
585390405,585389465,527625,0.25583333,0.3435,-0.38625,nan,0
585410398,585409463,527625,0.25516665,0.34516665,-0.38291666,nan,0
585450471,585449493,527625,0.26458332,0.33475,-0.39666668,nan,0
585470398,585469466,527625,0.26416665,0.33208334,-0.40166667,nan,0
585490398,585489463,527625,0.26766667,0.33058333,-0.40583333,nan,0
585510407,585509462,527625,0.26683334,0.32183334,-0.41125,nan,0
585550393,585549461,527625,0.25916666,0.32016668,-0.41083333,nan,0
585570411,585569464,527625,0.25583333,0.31875,-0.40875,nan,0
585590399,585589465,527625,0.25666666,0.31308332,-0.40208334,nan,0
585610402,585609464,527625,0.25791666,0.31391665,-0.39416665,nan,0
585650448,585649466,527625,0.25433332,0.30391666,-0.38125,nan,0
585670399,585669467,527625,0.25308332,0.30958334,-0.38041666,nan,0
585690439,585689469,527625,0.24808332,0.30641666,-0.38458332,nan,0
585710393,585709461,527625,0.25,0.29933333,-0.38833332,nan,0
585750514,585749473,527625,0.24766666,0.2885,-0.40166667,nan,0
585770473,585769494,527625,0.24916667,0.28666666,-0.40791667,nan,0
585790484,585789466,527625,0.24458332,0.2835,-0.41,nan,0
585810598,585809469,527625,0.24683332,0.28391665,-0.40916666,nan,0
585850624,585849464,527625,0.24475,0.27433333,-0.41291666,nan,0
585870760,585869554,527625,0.24724999,0.2725,-0.4175,nan,0
585890397,585889463,527625,0.24724999,0.27166668,-0.41875,nan,0
585910453,585909518,527625,0.25041667,0.26766667,-0.426,nan,0
585950527,585949596,527625,0.25041667,0.26558334,-0.42249998,nan,0
585970880,585969654,527625,0.25166667,0.2625,-0.42683333,nan,0
585990569,585989628,527625,0.24475,0.26125,-0.42333332,nan,0
586010607,586009658,527625,0.24724999,0.26208332,-0.42249998,nan,0
586050941,586049777,527625,0.24125,0.25625,-0.42641667,nan,0
586150432,586149495,527625,0.23891667,0.24933334,-0.42808333,nan,0
586250411,586249471,527625,0.22433333,0.23958333,-0.42975,nan,0
586350407,586349468,527625,0.21933334,0.16958334,-0.4385,nan,0
586526485,586525553,527625,0.60683334,-0.28416666,-0.53225,nan,0
586546546,586545612,527625,0.22708333,-0.09041666,-0.39666668,nan,0
586566517,586565584,527625,0.22749999,-0.09791666,-0.39208332,nan,0
586586559,586585617,527625,0.22516666,-0.09683333,-0.38833332,nan,0
586606695,586605745,527625,0.22083333,-0.098749995,-0.38375,nan,0
586646739,586645807,527625,0.22125,-0.10125,-0.38875,nan,0
586666484,586665550,527625,0.226,-0.10225,-0.39374998,nan,0
586686487,586685547,527625,0.22516666,-0.108333334,-0.38083333,nan,0
586706481,586705547,527625,0.22391666,-0.11416666,-0.38708332,nan,0
586746488,586745554,527625,0.22,-0.111833334,-0.38,nan,0
586766511,586765576,527625,0.22291666,-0.11141667,-0.37291667,nan,0
586786490,586785550,527625,0.22433333,-0.111,-0.37791666,nan,0
586806503,586805551,527625,0.2235,-0.11291666,-0.37625,nan,0
586846555,586845549,527625,0.22833332,-0.10891666,-0.38,nan,0
586866482,586865548,527625,0.226,-0.11016667,-0.38041666,nan,0
586886486,586885546,527625,0.226,-0.107083336,-0.37666667,nan,0
586906492,586905552,527625,0.22749999,-0.10666667,-0.38791665,nan,0
586946485,586945547,527625,0.22516666,-0.10891666,-0.3775,nan,0
586966535,586965546,527625,0.23141666,-0.10891666,-0.38291666,nan,0
586986484,586985547,527625,0.23058333,-0.1075,-0.38166666,nan,0
587006487,587005550,527625,0.23099999,-0.10475,-0.38125,nan,0
587046512,587045557,527625,0.23891667,-0.099583335,-0.38666666,nan,0
587066553,587065550,527625,0.235,-0.10125,-0.38333333,nan,0
587086572,587085548,527625,0.23666666,-0.096,-0.37958333,nan,0
587106560,587105552,527625,0.23183332,-0.1035,-0.38541666,nan,0
587146660,587145582,527625,0.23099999,-0.11016667,-0.38083333,nan,0
587166712,587165549,527625,0.23183332,-0.110583335,-0.37666667,nan,0
587186679,587185550,527625,0.23391667,-0.10666667,-0.38,nan,0
587206483,587205550,527625,0.23583333,-0.10891666,-0.3825,nan,0
587246855,587245654,527625,0.23583333,-0.10141666,-0.38166666,nan,0
587266533,587265595,527625,0.23975,-0.09791666,-0.37791666,nan,0
587286539,587285607,527625,0.24249999,-0.094333336,-0.3825,nan,0
587306586,587305655,527625,0.24599999,-0.086833335,-0.39124998,nan,0
587346729,587345782,527625,0.2385,-0.07625,-0.39833334,nan,0
587366703,587365756,527625,0.24058333,-0.066,-0.3945833,nan,0
587386486,587385549,527625,0.24166666,-0.058083333,-0.40291667,nan,0
587406485,587405550,527625,0.24291666,-0.048499998,-0.40125,nan,0
587446513,587445569,527625,0.24558333,-0.037499998,-0.41041666,nan,0
587466515,587465579,527625,0.25225,-0.027916666,-0.41416666,nan,0
587486504,587485548,527625,0.25308332,-0.025583332,-0.41458333,nan,0
587506497,587505548,527625,0.25625,-0.01375,-0.4175,nan,0
587546499,587545549,527625,0.25666666,-0.005,-0.4175,nan,0
587566506,587565569,527625,0.25666666,0.0005833333,-0.41791666,nan,0
587586483,587585550,527625,0.25166667,0.007083333,-0.42458332,nan,0
587606494,587605550,527625,0.25625,0.0076666665,-0.42499998,nan,0
587646485,587645551,527625,0.25516665,0.021666666,-0.42558333,nan,0
587746486,587745550,527625,0.25933334,0.036666665,-0.42083332,nan,0
587846623,587845549,527625,0.26333332,0.056416664,-0.42641667,nan,0
587946490,587945549,527625,0.27041668,0.0675,-0.42683333,nan,0
588122644,588121699,527625,0.65099996,-0.115833335,-0.5593333,nan,0
588142610,588141676,527625,0.27041668,0.11225,-0.431,nan,0
588162609,588161676,527625,0.27516666,0.113749996,-0.43183333,nan,0
588182608,588181676,527625,0.2685,0.11683333,-0.43141666,nan,0
588202611,588201677,527625,0.26725,0.11891667,-0.43391666,nan,0
588242614,588241676,527625,0.26458332,0.11891667,-0.43808332,nan,0
588262617,588261678,527625,0.265,0.11625,-0.44183332,nan,0
588282632,588281680,527625,0.26016667,0.111833334,-0.4385,nan,0
588302647,588301706,527625,0.25791666,0.115,-0.44224998,nan,0
588342619,588341675,527625,0.25166667,0.115,-0.43725,nan,0
588362609,588361675,527625,0.25208333,0.117249995,-0.43891665,nan,0
588382631,588381692,527625,0.25,0.11291666,-0.4443333,nan,0
588402609,588401677,527625,0.24516666,0.109749995,-0.44516665,nan,0
588442727,588441675,527625,0.2335,0.11416666,-0.4443333,nan,0
588462696,588461675,527625,0.2185,0.117249995,-0.45183334,nan,0
588482767,588481675,527625,0.21225,0.11416666,-0.45266667,nan,0
588502738,588501675,527625,0.19958334,0.117249995,-0.45558333,nan,0
588542907,588541731,527625,0.18725,0.1185,-0.45891666,nan,0
588562609,588561675,527625,0.1735,0.115,-0.45641667,nan,0
588582611,588581675,527625,0.1535,0.117249995,-0.46266666,nan,0
588602611,588601675,527625,0.14433333,0.11291666,-0.46516666,nan,0
588643152,588641879,527625,0.109749995,0.11333333,-0.46475,nan,0
588662712,588661770,527625,0.09083333,0.114583336,-0.46808332,nan,0
588682823,588681885,527625,0.07558333,0.111833334,-0.46558332,nan,0
588702785,588701842,527625,0.060166664,0.111,-0.47016665,nan,0
588743196,588741975,527625,0.028916666,0.10933333,-0.4685,nan,0
588762605,588761673,527625,0.023083333,0.111833334,-0.46141666,nan,0
588782613,588781676,527625,0.018333333,0.111,-0.46266666,nan,0
588802615,588801676,527625,0.007083333,0.11541667,-0.45683333,nan,0
588842684,588841751,527625,-0.0005833333,0.118083335,-0.45225,nan,0
588862617,588861674,527625,0.00016666666,0.11666667,-0.45558333,nan,0
588882617,588881683,527625,-0.005,0.115,-0.45475,nan,0
588902606,588901673,527625,-0.006666667,0.119333334,-0.451,nan,0
588942605,588941673,527625,-0.0101666665,0.115,-0.45183334,nan,0
588962622,588961684,527625,-0.007083333,0.11141667,-0.45225,nan,0
588982642,588981676,527625,-0.009333333,0.11541667,-0.4485,nan,0
589002606,589001673,527625,-0.012916666,0.114583336,-0.4535,nan,0
589042628,589041676,527625,-0.01725,0.115833335,-0.45225,nan,0
589062608,589061675,527625,-0.01475,0.11416666,-0.45266667,nan,0
589082618,589081679,527625,-0.0125,0.105,-0.45516667,nan,0
589102616,589101683,527625,-0.0125,0.10475,-0.44683334,nan,0
589142691,589141676,527625,-0.009333333,0.105,-0.451,nan,0
589162663,589161730,527625,-0.00725,0.10391667,-0.456,nan,0
589242848,589241676,527625,-0.014333333,0.1035,-0.44808334,nan,0
589342684,589341751,527625,-0.0005833333,0.10041667,-0.44933334,nan,0
589442787,589441854,527625,0.025166666,0.09791666,-0.45641667,nan,0
589638545,589637612,527625,0.45725,-0.11266667,-0.59625,nan,0
589658588,589657609,527625,0.08225,0.110583335,-0.46725,nan,0
589678611,589677614,527625,0.08141667,0.111833334,-0.47183332,nan,0
589698552,589697618,527625,0.079166666,0.11416666,-0.46641666,nan,0
589718601,589717668,527625,0.079166666,0.115833335,-0.46475,nan,0
589758672,589757612,527625,0.09083333,0.111833334,-0.46725,nan,0
589778781,589777626,527625,0.09041666,0.11416666,-0.46391666,nan,0
589798728,589797612,527625,0.0885,0.115833335,-0.46516666,nan,0
589818753,589817613,527625,0.09125,0.11666667,-0.46058333,nan,0
589858545,589857610,527625,0.08975,0.11016667,-0.46183333,nan,0
589878618,589877685,527625,0.08766667,0.11225,-0.4635,nan,0
589898580,589897642,527625,0.09041666,0.11333333,-0.47016665,nan,0
589918634,589917698,527625,0.08541667,0.115833335,-0.46475,nan,0
589958677,589957745,527625,0.08725,0.12058333,-0.466,nan,0
589979042,589977911,527625,0.08416667,0.12058333,-0.46433333,nan,0
589999062,589997925,527625,0.09041666,0.119333334,-0.46433333,nan,0
590018552,590017611,527625,0.08725,0.1185,-0.46683332,nan,0
590058547,590057609,527625,0.086833335,0.11891667,-0.46558332,nan,0
590078548,590077611,527625,0.088083334,0.118083335,-0.46808332,nan,0
590098560,590097624,527625,0.09083333,0.115,-0.46475,nan,0
590118593,590117650,527625,0.09166667,0.119333334,-0.46725,nan,0
590158543,590157609,527625,0.09475,0.12516667,-0.45933333,nan,0
590178573,590177634,527625,0.088083334,0.124583334,-0.45558333,nan,0
590198545,590197609,527625,0.09475,0.12291667,-0.45433334,nan,0
590218543,590217611,527625,0.09083333,0.12558334,-0.461,nan,0
590258554,590257615,527625,0.09041666,0.12766667,-0.461,nan,0
590278582,590277616,527625,0.084583335,0.12683333,-0.45725,nan,0
590298555,590297612,527625,0.08975,0.13083333,-0.46183333,nan,0
590318552,590317614,527625,0.09291667,0.13308333,-0.4635,nan,0
590358583,590357635,527625,0.084583335,0.13433333,-0.466,nan,0
590378571,590377613,527625,0.086833335,0.13391666,-0.46058333,nan,0
590398549,590397612,527625,0.08641667,0.13225,-0.45975,nan,0
590418542,590417609,527625,0.08641667,0.13125,-0.46308333,nan,0
590458601,590457665,527625,0.095583335,0.12166666,-0.461,nan,0
590478757,590477610,527625,0.09516667,0.123333335,-0.46308333,nan,0
590498659,590497610,527625,0.09708333,0.12516667,-0.45808333,nan,0
590518718,590517610,527625,0.100833334,0.12058333,-0.45725,nan,0
590558796,590557615,527625,0.10791667,0.12516667,-0.45641667,nan,0
590578992,590577710,527625,0.11016667,0.12875,-0.45308334,nan,0
590598544,590597610,527625,0.113749996,0.13208333,-0.45808333,nan,0
590618633,590617688,527625,0.113749996,0.13791667,-0.45933333,nan,0
590658620,590657688,527625,0.11958333,0.13833334,-0.47016665,nan,0
590679033,590677883,527625,0.113749996,0.1335,-0.46516666,nan,0
590698679,590697744,527625,0.1125,0.12916666,-0.45891666,nan,0
590718738,590717801,527625,0.11291666,0.12916666,-0.46141666,nan,0
590758542,590757610,527625,0.1125,0.12641667,-0.4635,nan,0
590858577,590857614,527625,0.11875,0.10791667,-0.45975,nan,0
590958545,590957609,527625,0.126,0.103083335,-0.45975,nan,0
591058542,591057610,527625,0.115166664,0.09516667,-0.45016667,nan,0
591234336,591233398,527625,0.5154167,-0.11683333,-0.57808334,nan,0
591254328,591253395,527625,0.14083333,0.10666667,-0.46266666,nan,0
591274334,591273396,527625,0.1385,0.10583333,-0.45975,nan,0
591294328,591293395,527625,0.14391667,0.10541666,-0.46266666,nan,0
591314368,591313428,527625,0.14433333,0.1075,-0.46016666,nan,0
591354337,591353397,527625,0.15141666,0.103083335,-0.45891666,nan,0
591374348,591373398,527625,0.15183333,0.106249996,-0.461,nan,0
591394330,591393395,527625,0.14999999,0.10933333,-0.46141666,nan,0
591414339,591413398,527625,0.15141666,0.108333334,-0.4585,nan,0
591454337,591453396,527625,0.1535,0.115833335,-0.45975,nan,0
591474392,591473400,527625,0.15541667,0.115833335,-0.45475,nan,0
591494335,591493400,527625,0.15391667,0.115,-0.45308334,nan,0
591514348,591513407,527625,0.15433334,0.115833335,-0.45933333,nan,0
591554387,591553451,527625,0.16141666,0.11225,-0.461,nan,0
591574342,591573408,527625,0.16724999,0.115833335,-0.45558333,nan,0
591594337,591593396,527625,0.1775,0.12016667,-0.45516667,nan,0
591614390,591613399,527625,0.18541667,0.12083333,-0.446,nan,0
591654358,591653395,527625,0.22208333,0.113749996,-0.43766665,nan,0
591674412,591673397,527625,0.24683332,0.114583336,-0.431,nan,0
591694492,591693398,527625,0.27916667,0.11141667,-0.42,nan,0
591714515,591713401,527625,0.311,0.11266667,-0.40791667,nan,0
591754633,591753396,527625,0.36141667,0.108333334,-0.38583332,nan,0
591774334,591773396,527625,0.3818333,0.10933333,-0.37541667,nan,0
591794338,591793398,527625,0.39499998,0.10583333,-0.37183332,nan,0
591814394,591813452,527625,0.40708333,0.106249996,-0.36016667,nan,0
591854411,591853472,527625,0.4285,0.111,-0.34183332,nan,0
591874479,591873545,527625,0.42875,0.11016667,-0.33475,nan,0
591894436,591893502,527625,0.4285,0.11141667,-0.32683334,nan,0
591914537,591913595,527625,0.43558332,0.11016667,-0.32266667,nan,0
591954571,591953636,527625,0.43833333,0.108333334,-0.31975,nan,0
591974603,591973669,527625,0.44224998,0.10891666,-0.3175,nan,0
591994333,591993397,527625,0.445,0.113749996,-0.32391667,nan,0
592014340,592013400,527625,0.44375,0.10933333,-0.31583333,nan,0
592054337,592053404,527625,0.44291666,0.11541667,-0.31291667,nan,0
