timestamp,accel_device_id,gyro_device_id,accel_clipping[0],accel_clipping[1],accel_clipping[2],gyro_clipping[0],gyro_clipping[1],gyro_clipping[2],accel_error_count,gyro_error_count,accel_rate_hz,gyro_rate_hz,accel_raw_rate_hz,gyro_raw_rate_hz,accel_vibration_metric,gyro_vibration_metric,delta_angle_coning_metric,mean_accel[0],mean_accel[1],mean_accel[2],mean_gyro[0],mean_gyro[1],mean_gyro[2],var_accel[0],var_accel[1],var_accel[2],var_gyro[0],var_gyro[1],var_gyro[2],temperature_accel,temperature_gyro
564845637,2490386,2490386,0,0,0,0,0,0,0,0,809.3526,809.3526,8093.5264,8093.5264,0.02404592,0.0014262599,2.4466118e-10,-0.69633615,0.13157615,-9.798931,-0.015726527,-0.0051959422,0.0148968585,0.008478361,0.009642046,0.0800373,3.183812e-05,3.855053e-05,2.5250032e-05,51.64108,51.64108
564949434,2490386,2490386,0,0,0,0,0,0,0,0,809.3526,809.3526,8093.526,8093.526,0.024537632,0.0014010251,2.3196504e-10,-0.69579387,0.13168249,-9.812293,-0.015768593,-0.0051465356,0.01503007,0.008710715,0.010126946,0.075443365,3.1471976e-05,3.6323345e-05,2.4158544e-05,51.646107,51.646107
565054538,2490386,2490386,0,0,0,0,0,0,0,0,809.35254,809.35254,8093.5254,8093.5254,0.093576774,0.005584882,1.2560671e-09,-0.7090469,0.13189802,-9.8143215,-0.015258546,-0.0048876097,0.016777053,0.18687476,0.34753373,0.35089457,0.0003791921,0.00025476722,0.0009006587,51.647327,51.647327
565156829,2490386,2490386,0,0,0,0,0,0,0,0,809.35254,809.35254,8093.525,8093.525,0.13630608,0.00703735,8.240318e-10,-0.6856629,0.14367619,-9.801674,-0.016319413,-0.005730668,0.01421546,0.3129856,0.5931552,0.63856703,0.0002662778,0.00017867307,0.00041562074,51.63835,51.63835
565260605,2490386,2490386,0,0,0,0,0,0,0,0,809.3524,809.3524,8093.5244,8093.5244,0.15171625,0.007391389,9.455684e-10,-0.69150454,0.120842904,-9.826016,-0.015162605,-0.0043776697,0.014004615,0.19607213,0.41208604,0.535822,0.0004346769,0.00017247551,0.00011288763,51.63029,51.63029
565364880,2490386,2490386,0,0,0,0,0,0,0,0,809.3524,809.3524,8093.524,8093.524,0.14882886,0.0073932824,1.2584324e-09,-0.69036585,0.14481734,-9.803604,-0.016348265,-0.005136897,0.01564629,0.21128972,0.2242355,0.8017703,0.00041942723,0.00029684452,0.00013375754,51.641857,51.641857
565468167,2490386,2490386,0,0,0,0,0,0,0,0,809.35236,809.35236,8093.5234,8093.5234,0.16286866,0.007201004,7.762275e-10,-0.7001068,0.12368716,-9.847475,-0.016092852,-0.0059292694,0.014169114,0.25274584,0.34037292,0.95781183,0.000343687,0.00039262505,0.00012879835,51.636906,51.636906
565572027,2490386,2490386,0,0,0,0,0,0,0,0,809.35236,809.35236,8093.5234,8093.5234,0.20669045,0.007375411,1.092829e-09,-0.69569594,0.13398102,-9.833639,-0.015350551,-0.0048640813,0.014766009,0.35393733,0.34921306,1.0397804,0.00035668517,0.001020594,0.000113422946,51.6057,51.6057
565675867,2490386,2490386,0,0,0,0,0,0,0,0,809.3523,809.3523,8093.523,8093.523,0.2183413,0.0072467257,1.4772524e-09,-0.69640255,0.13563596,-9.852168,-0.015917106,-0.0053374865,0.015982866,0.27596605,0.27705047,0.7417396,0.0005228192,0.0013337369,0.0001239569,51.579475,51.579475
565776008,2490386,2490386,0,0,0,0,0,0,0,0,809.3523,809.3523,8093.5225,8093.5225,0.23943922,0.007648579,1.5498715e-09,-0.69595385,0.13298859,-9.856655,-0.016772471,-0.005053946,0.014648398,0.2830553,0.481196,0.67967564,0.0007477619,0.00086488,0.00020263188,51.569527,51.569527
565878801,2490386,2490386,0,0,0,0,0,0,0,0,809.35223,809.35223,8093.522,8093.522,0.24916857,0.0081897015,1.0857808e-09,-0.6876844,0.1326307,-9.887599,-0.014505201,-0.005038605,0.014668428,0.3060836,0.4735305,0.6344465,0.00042802314,0.0005946016,0.00011704193,51.542656,51.542656
565982273,2490386,2490386,0,0,0,0,0,0,0,0,809.35223,809.35223,8093.522,8093.522,0.27623403,0.009024683,1.0882666e-09,-0.7006316,0.12990424,-9.882882,-0.01689642,-0.0057590697,0.015557135,0.27219394,0.37330714,0.5298244,0.0003361178,0.0005325613,0.00010749137,51.512184,51.512184
566086536,2490386,2490386,0,0,0,0,0,0,0,0,809.3521,809.3521,8093.5215,8093.5215,0.28690976,0.009319204,8.2874574e-10,-0.6939668,0.13472192,-9.843622,-0.01538526,-0.0053850063,0.015491956,0.26842973,0.32835734,1.0291904,0.00020327432,0.00051813264,9.350931e-05,51.503838,51.503838
566189799,2490386,2490386,0,0,0,0,0,0,0,0,809.3521,809.3521,8093.521,8093.521,0.3086656,0.009496737,1.0054008e-09,-0.68729734,0.13202122,-9.88543,-0.015220323,-0.0053644413,0.013947044,0.2593502,0.34134048,1.0219142,0.00016258437,0.0009527516,0.00010690233,51.508644,51.508644
566293536,2490386,2490386,0,0,0,0,0,0,0,0,809.35205,809.35205,8093.521,8093.521,0.29768786,0.0094971685,1.2995793e-09,-0.7030332,0.14346726,-9.837262,-0.016459912,-0.0044482364,0.015283986,0.19200104,0.40867773,0.57208055,0.00046489938,0.001078156,0.00021719828,51.50837,51.50837
566397397,2490386,2490386,0,0,0,0,0,0,0,0,809.35205,809.35205,8093.5205,8093.5205,0.29384017,0.009628881,1.0685608e-09,-0.6812803,0.12794197,-9.844604,-0.015922822,-0.0058807787,0.015682187,0.1656162,0.3440666,0.7406372,0.0005196425,0.00051361433,0.00016632842,51.532814,51.532814
566501499,2490386,2490386,0,0,0,0,0,0,0,0,809.352,809.352,8093.52,8093.52,0.30678147,0.009916324,1.1004407e-09,-0.7220583,0.12133151,-9.839197,-0.015379055,-0.0046385047,0.014280987,0.29707012,0.31005108,0.51726717,0.0004154268,0.00063306175,0.00012933474,51.55704,51.55704
566605158,2490386,2490386,0,0,0,0,0,0,0,0,809.352,809.352,8093.5195,8093.5195,0.32272243,0.0096815955,1.3262363e-09,-0.67697144,0.1356133,-9.820483,-0.015089381,-0.005809684,0.014986492,0.27806324,0.43057123,0.6120254,0.0005073625,0.00082814955,0.00018041735,51.593708,51.593708
566708941,2490386,2490386,0,0,0,0,0,0,0,0,809.352,809.352,8093.5195,8093.5195,0.32204443,0.009758999,1.1900417e-09,-0.6947626,0.13731709,-9.809591,-0.016174786,-0.0048290095,0.015335818,0.39236,0.43361855,0.69534886,0.00046283987,0.0007847085,0.00015081385,51.608932,51.608932
566812571,2490386,2490386,0,0,0,0,0,0,0,0,809.35187,809.35187,8093.519,8093.519,0.3194418,0.009488668,1.0462404e-09,-0.6947504,0.1364855,-9.844086,-0.016100027,-0.005311044,0.015311308,0.2700261,0.23141472,0.65305495,0.0003088408,0.0006407105,9.782752e-05,51.62489,51.62489
566916323,2490386,2490386,0,0,0,0,0,0,0,0,809.35187,809.35187,8093.5186,8093.5186,0.33034158,0.009443154,1.0244945e-09,-0.70560277,0.13893162,-9.844481,-0.014552535,-0.0045021363,0.014025928,0.2818625,0.39086947,0.9898376,0.0005440149,0.0006550787,0.00014426814,51.593983,51.593983
567020095,2490386,2490386,0,0,0,0,0,0,0,0,809.3516,809.3516,8093.517,8093.517,0.39060745,0.011168893,2.6158522e-09,-0.72763693,0.09968409,-9.847255,-0.01529852,0.008585685,0.015077161,0.6312013,0.7648205,1.5367322,0.0007835621,0.0017888914,0.00018774052,51.58083,51.58083
567123873,2490386,2490386,0,0,0,0,0,0,0,0,809.3518,809.3518,8093.518,8093.518,0.5645512,0.020495636,9.863739e-09,-0.6632748,0.17966084,-9.911703,-0.006983982,0.05727696,0.014289152,5.1116114,7.2917986,13.573318,0.0055950996,0.0023092325,0.0006185317,51.536633,51.536633
567228753,2490386,2490386,0,0,0,0,0,0,0,0,809.35175,809.35175,8093.5176,8093.5176,1.1174335,0.04861534,6.312369e-08,-0.5787716,0.014706395,-10.018274,-0.0057303417,0.089730315,0.004549546,10.831035,7.6863675,17.350473,0.0254694,0.03514364,0.002459286,51.501472,51.501472
567331656,2490386,2490386,0,0,0,0,0,0,0,0,809.7166,809.7166,8097.166,8097.166,1.5579401,0.07150716,2.3331353e-07,-0.35535356,0.26957738,-10.73133,0.035441995,0.21885154,0.021868085,21.69831,16.50516,140.49641,0.16254368,0.025269343,0.007898922,51.395733,51.395733
567435506,2490386,2490386,0,0,0,0,0,0,0,0,809.37164,809.37164,8093.717,8093.717,1.7353436,0.08467066,2.9365867e-07,0.13519114,-0.233788,-13.2864485,-0.05390821,0.40891913,0.016280368,37.35143,18.979425,439.48468,0.09174752,0.042464174,0.013427309,51.14749,51.14749
567539490,2490386,2490386,0,0,0,0,0,0,0,0,809.3541,809.3541,8093.5415,8093.5415,1.8789386,0.09760521,3.085392e-07,0.17775854,-0.097072326,-13.18762,0.24545272,0.14306046,0.059097525,45.81849,27.893656,249.16277,0.18175837,0.06937039,0.025250418,50.885887,50.885887
567642854,2490386,2490386,0,0,0,0,0,0,0,0,809.3503,809.3503,8093.503,8093.503,2.1770003,0.10808637,2.5564682e-07,0.2860409,-0.21681176,-11.125866,0.023121208,-0.16118525,0.048470926,27.95552,23.339226,152.02571,0.1878097,0.04458409,0.0074338396,50.760162,50.760162
567746604,2490386,2490386,0,0,0,0,0,0,0,0,809.34827,809.34827,8093.483,8093.483,2.3195298,0.10961802,9.602394e-08,0.095801756,-0.12782015,-9.525265,-0.021061793,0.010884553,0.05102096,10.205197,21.838633,70.163605,0.050316963,0.031308327,0.0020803723,50.703434,50.703434
567850403,2490386,2490386,0,0,0,0,0,0,0,0,809.3471,809.3471,8093.471,8093.471,2.3567793,0.114241995,7.6557335e-08,0.22405094,-0.15385364,-9.674473,0.01104367,-0.062401626,0.05338069,16.508577,14.799973,31.809547,0.05484872,0.020072958,0.004176426,50.71853,50.71853
567954276,2490386,2490386,0,0,0,0,0,0,0,0,809.3463,809.3463,8093.463,8093.463,2.4897985,0.1123353,8.297763e-08,0.16764434,-0.16320537,-10.195941,-0.0019175654,-0.08376798,0.062182184,27.774208,10.046202,217.13857,0.06092158,0.01270459,0.0040908214,50.790203,50.790203
568058096,2490386,2490386,0,0,0,0,0,0,0,0,809.3446,809.3446,8093.4463,8093.4463,2.4208643,0.113092594,1.6255694e-07,0.1326055,-0.1410545,-9.706894,-0.03860865,0.056093324,0.056871124,9.530195,7.872646,41.255882,0.20166601,0.027804805,0.0038892285,50.835274,50.835274
568161967,2490386,2490386,0,0,0,0,0,0,0,0,809.3443,809.3443,8093.443,8093.443,2.580854,0.11752348,1.0021248e-07,0.21236216,-0.22024882,-9.698086,0.07383508,0.123077944,0.047113564,25.525064,10.643015,280.12405,0.108931854,0.019990996,0.004509975,50.851593,50.851593
568265813,2490386,2490386,0,0,0,0,0,0,0,0,809.3407,809.3407,8093.4067,8093.4067,2.5991402,0.11646328,6.440696e-08,0.092986956,-0.05852634,-10.640051,-0.11032562,0.037084363,0.034766182,32.14678,10.901734,89.405556,0.07200271,0.021802906,0.004026864,50.87905,50.87905
568371208,2490386,2490386,0,0,0,0,0,0,0,0,809.34155,809.34155,8093.4155,8093.4155,3.1647804,0.14295946,1.3727265e-07,0.27066174,-0.26797652,-13.049314,0.052450817,0.08307651,0.0037415787,35.635616,18.005205,118.10016,0.1601813,0.047670692,0.0054367715,50.8672,50.8672
568473264,2490386,2490386,0,0,0,0,0,0,0,0,809.3423,809.3423,8093.4233,8093.4233,3.087396,0.16549753,1.6041724e-07,0.22457418,-0.24892586,-11.603706,-0.20483018,-0.14872004,0.03054106,42.42813,8.010089,69.951256,0.11412089,0.023354633,0.011372895,50.865322,50.865322
568576998,2490386,2490386,0,0,0,0,0,0,0,0,809.3423,809.3423,8093.4233,8093.4233,3.0744576,0.15725626,9.5366644e-08,0.16978912,-0.22305368,-9.328172,0.0115222875,0.017505774,0.0352554,35.266922,7.79467,69.893364,0.16159001,0.017805645,0.0052882256,50.87171,50.87171
568681476,2490386,2490386,0,0,0,0,0,0,0,0,809.34174,809.34174,8093.417,8093.417,2.9468286,0.14962797,6.673533e-08,0.20690154,-0.18248165,-9.469513,0.031368256,0.014579544,0.037835013,29.25959,7.920914,148.53108,0.09567268,0.022223203,0.0034403005,50.867775,50.867775
568784490,2490386,2490386,0,0,0,0,0,0,0,0,809.34174,809.34174,8093.417,8093.417,2.9596965,0.14340387,6.4305944e-08,0.17525594,-0.22416548,-10.010126,-0.08885283,0.018513897,0.018541537,39.645477,5.83049,85.52022,0.07557656,0.017398957,0.0045586685,50.839165,50.839165
568888341,2490386,2490386,0,0,0,0,0,0,0,0,809.34125,809.34125,8093.4126,8093.4126,2.8285418,0.13801113,8.460677e-08,0.21154785,-0.23418397,-9.953618,0.07414799,-0.086137496,0.0009201921,51.39606,6.361381,99.3378,0.10095235,0.029830659,0.009063215,50.833904,50.833904
568992181,2490386,2490386,0,0,0,0,0,0,0,0,809.34125,809.34125,8093.413,8093.413,2.7592227,0.13898934,1.1700752e-07,0.22404428,-0.21755822,-10.149632,0.07388494,0.033225812,-0.006526535,41.59361,10.069267,108.95941,0.26583332,0.045932166,0.0054787407,50.840168,50.840168
569092691,2490386,2490386,0,0,0,0,0,0,0,0,809.3412,809.3412,8093.412,8093.412,2.7726371,0.13582374,6.702086e-08,0.024445564,-0.25906757,-10.182688,0.0445157,-0.05667817,-0.014912392,62.606007,13.399754,99.07838,0.08232099,0.026811928,0.009894045,50.879604,50.879604
569194971,2490386,2490386,0,0,0,0,0,0,0,0,809.3382,809.3382,8093.383,8093.383,2.6677048,0.12729695,6.29186e-08,0.07677993,-0.30478758,-10.011716,0.023709033,-0.01893661,-0.0043472815,28.315035,10.87349,58.06822,0.23010467,0.020392474,0.0045057447,50.893562,50.893562
569298527,2490386,2490386,0,0,0,0,0,0,0,0,809.34094,809.34094,8093.409,8093.409,2.646852,0.124130785,9.411162e-08,0.24537191,-0.25928596,-9.955899,-0.066470176,-0.031361945,0.019690974,20.921497,12.773426,60.80792,0.2588321,0.013996356,0.0031118316,50.90436,50.90436
569402562,2490386,2490386,0,0,0,0,0,0,0,0,809.3405,809.3405,8093.406,8093.406,2.6770358,0.121219635,1.02444844e-07,-0.009541891,-0.39672258,-10.062332,-0.040910184,-0.0533367,0.002512841,70.75715,9.865462,156.58908,0.095001474,0.034638293,0.010081864,50.895527,50.895527
569506069,2490386,2490386,0,0,0,0,0,0,0,0,809.34064,809.34064,8093.4067,8093.4067,2.7691236,0.12202089,1.3851994e-07,0.15324746,-0.20550588,-10.219127,0.113588534,0.08283844,0.006761398,72.214226,8.274686,260.55847,0.15977262,0.061280783,0.009292339,50.90911,50.90911
569610031,2490386,2490386,0,0,0,0,0,0,0,0,809.33685,809.33685,8093.368,8093.368,2.8475194,0.12471537,7.610062e-08,0.29528216,-0.37753567,-10.004907,-0.058204997,-0.0033306368,-0.0013265566,95.82484,9.43488,261.7942,0.11920122,0.03378854,0.013258056,50.903355,50.903355
569713910,2490386,2490386,0,0,0,0,0,0,0,0,809.34015,809.34015,8093.4014,8093.4014,2.8918796,0.12189353,5.900662e-08,0.083926246,-0.31906098,-10.131247,-0.0031264573,0.018781126,0.026669063,41.543804,9.561597,114.2944,0.19317956,0.019151986,0.005548405,50.887894,50.887894
569814091,2490386,2490386,0,0,0,0,0,0,0,0,809.34,809.34,8093.4004,8093.4004,2.7664876,0.118185245,1.2564793e-07,0.19000955,-0.23791532,-9.796282,0.03451674,-0.087673716,0.052295655,19.568289,8.997162,39.865444,0.17924011,0.011859424,0.0037179035,50.91637,50.91637
569916564,2490386,2490386,0,0,0,0,0,0,0,0,809.3398,809.3398,8093.3984,8093.3984,2.6285856,0.11489073,5.1676864e-08,0.19928105,-0.24603167,-9.994407,0.023901155,0.04165864,0.074636854,33.333874,7.424898,167.37982,0.038251128,0.016410727,0.0070442776,50.939785,50.939785
570020362,2490386,2490386,0,0,0,0,0,0,0,0,809.33966,809.33966,8093.3965,8093.3965,2.5349798,0.112444125,8.161146e-08,0.08699281,-0.29592744,-9.812308,-0.123920396,-0.07854534,0.03155602,18.24572,7.4783316,49.112804,0.10032319,0.015427346,0.003757711,50.93303,50.93303
570124200,2490386,2490386,0,0,0,0,0,0,0,0,809.3374,809.3374,8093.374,8093.374,2.4440248,0.11138971,1.0192852e-07,0.122351676,-0.19328348,-10.225206,-0.010469598,0.0694101,0.0323663,25.208574,7.9411855,50.84262,0.16976017,0.01701066,0.006916457,50.87186,50.87186
570227661,2490386,2490386,0,0,0,0,0,0,0,0,809.3396,809.3396,8093.3955,8093.3955,2.4053853,0.11028473,1.088936e-07,0.24962078,-0.3454465,-10.023287,-0.1382841,0.09678746,0.026438028,29.671785,5.872985,82.772644,0.12353494,0.00928038,0.0065079094,50.83499,50.83499
570331434,2490386,2490386,0,0,0,0,0,0,0,0,809.33966,809.33966,8093.396,8093.396,2.391253,0.10988744,1.1496633e-07,0.10203094,-0.24859223,-10.06917,-0.08891456,0.08999762,0.037992217,37.16134,10.295155,112.891,0.15208057,0.020564152,0.0074132155,50.791927,50.791927
570435220,2490386,2490386,0,0,0,0,0,0,0,0,809.3397,809.3397,8093.397,8093.397,2.481982,0.11373764,7.70156e-08,0.15067379,-0.32998505,-10.123103,-0.06583463,-0.0051974724,0.054891653,26.38569,8.385856,243.69504,0.12658913,0.02026053,0.0058781896,50.76029,50.76029
570539179,2490386,2490386,0,0,0,0,0,0,0,0,809.3398,809.3398,8093.398,8093.398,2.6181936,0.118966736,1.1329565e-07,0.21339747,-0.16506137,-9.701697,0.14882629,-0.045009892,0.08143285,67.38191,16.961454,508.0085,0.12241539,0.039274253,0.0045630056,50.739445,50.739445
570642931,2490386,2490386,0,0,0,0,0,0,0,0,809.3399,809.3399,8093.3984,8093.3984,2.6329854,0.11643564,8.875283e-08,0.0318869,-0.37407073,-10.030719,0.008185511,-0.05151503,0.049452562,45.41286,15.122871,134.01006,0.17568444,0.025871854,0.0032862513,50.736794,50.736794
570746808,2490386,2490386,0,0,0,0,0,0,0,0,809.3399,809.3399,8093.399,8093.399,2.629044,0.11809421,1.10322226e-07,0.03521941,-0.14137164,-9.885982,0.07027967,0.041552477,0.016006052,48.975895,11.380509,101.938484,0.16434078,0.030364305,0.005511967,50.738235,50.738235
570850750,2490386,2490386,0,0,0,0,0,0,0,0,809.33997,809.33997,8093.4,8093.4,2.5450742,0.120237336,7.496853e-08,0.08682109,-0.3184669,-9.936772,-0.12166797,-0.06754023,-0.0087631,40.194557,10.090551,122.356514,0.06591482,0.017690478,0.006937259,50.75246,50.75246
570954186,2490386,2490386,0,0,0,0,0,0,0,0,809.3398,809.3398,8093.398,8093.398,2.5506816,0.1178304,8.8582276e-08,0.1048691,-0.32831815,-10.404396,-0.066877455,-0.034047138,0.011811922,56.65063,17.839117,169.74847,0.1692192,0.021470051,0.007880566,50.73902,50.73902
571057944,2490386,2490386,0,0,0,0,0,0,0,0,809.34015,809.34015,8093.4014,8093.4014,2.5843265,0.11556345,7.892008e-08,0.14228751,-0.23196264,-9.638107,-0.007805438,-0.05024637,0.027209591,66.0479,15.062928,256.2831,0.16146788,0.030125633,0.0064589866,50.75721,50.75721
571161741,2490386,2490386,0,0,0,0,0,0,0,0,809.33997,809.33997,8093.3994,8093.3994,2.6979601,0.1194733,9.9567636e-08,-0.028789174,-0.32604492,-9.993231,-0.10915804,0.038735364,0.052376144,68.55542,15.819682,171.41527,0.20786077,0.025921086,0.008896573,50.732685,50.732685
571267036,2490386,2490386,0,0,0,0,0,0,0,0,809.3386,809.3386,8093.3857,8093.3857,2.9964285,0.12570302,8.520796e-08,0.120578155,-0.2559032,-6.921973,-0.009345698,-0.051109757,0.024192309,32.881863,21.46249,114.71733,0.15077741,0.03721921,0.0067502214,50.755924,50.755924
571369309,2490386,2490386,0,0,0,0,0,0,0,0,809.34,809.34,8093.4004,8093.4004,3.404492,0.14298506,7.66282e-08,-0.008831757,-0.20193711,-6.1130733,0.034826096,-0.03333408,0.020171655,8.367909,20.391876,87.802,0.06888284,0.08286231,0.011058744,50.77467,50.77467
571473221,2490386,2490386,0,0,0,0,0,0,0,0,809.34015,809.34015,8093.4014,8093.4014,3.5863733,0.15215676,1.0911824e-07,-0.026492016,-0.2093431,-7.486321,-0.07697072,0.0068702274,0.0022420052,7.126823,16.152607,117.79712,0.10250463,0.0674921,0.010508042,50.805794,50.805794
571577589,2490386,2490386,0,0,0,0,0,0,0,0,809.34015,809.34015,8093.402,8093.402,3.5335886,0.1491604,1.9638685e-07,0.04644132,-0.42482996,-10.8506775,-0.11551031,0.10884825,0.026778523,81.71567,26.835339,381.148,0.2290566,0.03576502,0.01124982,50.83658,50.83658
571677676,2490386,2490386,0,0,0,0,0,0,0,0,809.33887,809.33887,8093.3887,8093.3887,3.4096212,0.14607482,1.0474167e-07,0.17638828,-0.3400021,-10.243255,-0.113149546,-0.026192814,0.02140603,84.861084,33.416218,150.38385,0.25972238,0.02618472,0.014362733,50.86165,50.86165
571779838,2490386,2490386,0,0,0,0,0,0,0,0,809.34,809.34,8093.4,8093.4,3.5934618,0.14518495,1.11305575e-07,0.0318492,-0.39465782,-10.145293,0.0952428,-0.10653403,0.021845946,64.01879,33.960423,837.4767,0.12916829,0.04134644,0.013378887,50.88473,50.88473
571883402,2490386,2490386,0,0,0,0,0,0,0,0,809.3399,809.3399,8093.399,8093.399,3.8804111,0.1425393,8.215238e-08,0.06507623,-0.2514375,-9.64867,0.060765836,-0.027491493,0.023831759,131.29257,23.647882,736.97504,0.20138502,0.04101329,0.014727998,50.90644,50.90644
571988169,2490386,2490386,0,0,0,0,0,0,0,0,809.33997,809.33997,8093.3994,8093.3994,3.9041405,0.13838887,9.3085056e-08,0.2537064,-0.41297716,-10.207285,-0.011061633,0.060430884,0.0076756547,83.22046,19.958574,655.19617,0.25419235,0.044528514,0.010699711,50.898026,50.898026
572090909,2490386,2490386,0,0,0,0,0,0,0,0,809.3398,809.3398,8093.398,8093.398,3.909697,0.14890783,1.15970956e-07,0.050548516,-0.28738093,-12.342366,-0.12042875,0.10036065,0.04077554,40.07956,17.177792,242.1125,0.099065594,0.03891758,0.009977267,50.88762,50.88762
572194687,2490386,2490386,0,0,0,0,0,0,0,0,809.3397,809.3397,8093.397,8093.397,4.33946,0.15333526,2.2068183e-07,0.14853863,-0.3947081,-12.1389885,-0.04233217,0.066672646,0.013182248,50.835693,18.892786,182.80612,0.22686355,0.16510364,0.009805187,50.867706,50.867706
572298533,2490386,2490386,0,0,0,0,0,0,0,0,809.3397,809.3397,8093.3975,8093.3975,4.134962,0.15115663,1.8890017e-07,0.041157488,-0.29114303,-9.927073,0.17023332,-0.0893178,0.018060477,91.26346,24.301191,188.9406,0.25684533,0.049395703,0.0062784124,50.853527,50.853527
572398649,2490386,2490386,0,0,0,0,0,0,0,0,809.3397,809.3397,8093.3975,8093.3975,4.006529,0.1475111,1.07958314e-07,0.16616598,-0.23990776,-9.414022,0.004120754,-0.051938772,0.019228956,61.04571,26.73891,214.8698,0.3643022,0.02100036,0.006792938,50.846916,50.846916
572501325,2490386,2490386,0,0,0,0,0,0,0,0,809.33966,809.33966,8093.3965,8093.3965,3.7379875,0.14421293,1.3120633e-07,-0.03883678,-0.23719049,-10.3498335,-0.13475922,-0.06766202,-0.0029116466,59.020996,11.83107,117.655975,0.19923718,0.026644591,0.0077484273,50.86022,50.86022
572605306,2490386,2490386,0,0,0,0,0,0,0,0,809.33966,809.33966,8093.397,8093.397,3.68631,0.1407249,1.5357521e-07,0.12625587,-0.280859,-7.7504325,-0.10318271,-0.13464196,-0.015494443,24.812214,16.14137,161.50319,0.11830976,0.0197401,0.008178522,50.881645,50.881645
572708732,2490386,2490386,0,0,0,0,0,0,0,0,809.3396,809.3396,8093.396,8093.396,3.7368267,0.15062973,8.893051e-08,0.104618914,-0.23189615,-5.796884,0.0026135237,-0.16124749,-0.02303499,8.836877,11.617432,65.29857,0.040828682,0.04149041,0.006339604,50.90794,50.90794
572812605,2490386,2490386,0,0,0,0,0,0,0,0,809.33936,809.33936,8093.3936,8093.3936,3.8701231,0.14905417,7.307362e-08,0.015858246,-0.16882356,-7.225008,-0.1270512,-0.06297584,-0.013878411,10.703012,17.96468,77.56783,0.05373176,0.031072585,0.0034055351,50.92211,50.92211
572916308,2490386,2490386,0,0,0,0,0,0,0,0,809.33923,809.33923,8093.3926,8093.3926,3.745991,0.14893071,1.2640703e-07,0.10531062,-0.20892267,-10.17798,-0.29577926,0.071921505,0.015708365,60.97864,15.501483,96.130424,0.13138786,0.02797445,0.011019458,50.93505,50.93505
573020051,2490386,2490386,0,0,0,0,0,0,0,0,809.3394,809.3394,8093.3945,8093.3945,3.52889,0.14298153,1.0258282e-07,0.15559283,-0.11195444,-10.533308,-0.027728604,-0.034145065,0.033561736,79.53847,15.41399,180.65063,0.14480391,0.039299652,0.008848715,50.90422,50.90422
573120541,2490386,2490386,0,0,0,0,0,0,0,0,809.33936,809.33936,8093.393,8093.393,3.52318,0.140163,5.4605973e-08,0.010533371,-0.14520058,-9.982773,0.041223068,-0.038388144,0.028305797,40.855957,18.18391,397.11987,0.09828101,0.019521369,0.00637863,50.877872,50.877872
573222791,2490386,2490386,0,0,0,0,0,0,0,0,809.33936,809.33936,8093.3936,8093.3936,3.5412006,0.14052148,1.487823e-07,0.19044293,-0.31221586,-10.001127,0.090410195,0.040266834,0.023945507,67.76421,24.855595,275.80127,0.23229156,0.04361204,0.004802126,50.866756,50.866756
573325291,2490386,2490386,0,0,0,0,0,0,0,0,809.33936,809.33936,8093.3936,8093.3936,3.5077293,0.13496974,9.1977796e-08,0.033000685,-0.09111116,-10.199379,0.0036877603,-0.009067812,0.0149947,46.91002,19.886076,270.0839,0.15794706,0.026124258,0.0050917882,50.885868,50.885868
573425517,2490386,2490386,0,0,0,0,0,0,0,0,809.3394,809.3394,8093.394,8093.394,3.4625118,0.13051666,4.0266173e-08,0.04645922,-0.082561076,-9.612797,-0.039184425,0.036046173,0.010187879,55.302097,16.577246,317.00925,0.048564386,0.021553157,0.0060110833,50.893154,50.893154
573530786,2490386,2490386,0,0,0,0,0,0,0,0,809.3391,809.3391,8093.3906,8093.3906,3.3452985,0.12621233,7.8267625e-08,0.22204362,-0.24630292,-10.224177,-0.011613112,-0.074822895,0.014110449,50.13307,17.140402,56.333344,0.08141599,0.032883115,0.00839991,50.900845,50.900845
573632999,2490386,2490386,0,0,0,0,0,0,0,0,809.3394,809.3394,8093.3936,8093.3936,3.2336605,0.12688373,1.2137194e-07,0.21177694,-0.09331094,-9.848958,0.014638953,-0.12405205,0.029184803,50.1405,18.546951,87.47384,0.095348,0.04514405,0.008191761,50.908302,50.908302
573736686,2490386,2490386,0,0,0,0,0,0,0,0,809.33923,809.33923,8093.393,8093.393,3.1673179,0.12442203,7.863386e-08,-0.1737654,-0.04651022,-10.4529,0.06143571,-0.058927957,0.028241225,54.32344,22.58114,189.84239,0.13638718,0.026289351,0.0064374725,50.883648,50.883648
573841197,2490386,2490386,0,0,0,0,0,0,0,0,809.3392,809.3392,8093.392,8093.392,3.2042174,0.12610783,1.3179962e-07,0.08047295,-0.17478675,-9.866823,-0.050959334,-0.03695782,0.039861627,55.485786,15.236782,208.33034,0.11439375,0.048113883,0.004547266,50.841877,50.841877
573944304,2490386,2490386,0,0,0,0,0,0,0,0,809.3392,809.3392,8093.3916,8093.3916,3.1380494,0.13019966,5.636046e-07,0.106592834,-0.12948415,-10.099749,-0.77195996,0.5427002,0.04622899,34.51591,10.245558,228.41586,0.33194605,0.020637874,0.007105224,50.799324,50.799324
574048187,2490386,2490386,0,0,0,0,0,0,0,0,809.33936,809.33936,8093.393,8093.393,3.6433554,0.1490698,2.3068385e-06,0.16225411,-0.16085422,-10.891052,-2.2844892,0.09638257,0.03575434,262.5458,82.35706,710.9581,0.5566608,0.22744648,0.023969475,50.803425,50.803425
574152076,2490386,2490386,0,0,0,0,0,0,0,0,809.33923,809.33923,8093.392,8093.392,3.713631,0.15299197,1.0605394e-06,0.12096994,0.16276415,-10.247058,-1.0475526,-0.1790498,0.037844703,89.04629,27.905195,399.34583,0.34431767,0.108618625,0.020692857,50.802567,50.802567
574252471,2490386,2490386,0,0,0,0,0,0,0,0,809.33936,809.33936,8093.3936,8093.3936,3.6893334,0.14979333,2.801464e-07,-0.037491657,0.1672982,-10.874908,-0.3799738,-0.15122545,0.0066769295,58.63709,12.538101,129.6372,0.11684761,0.03856913,0.0051095802,50.794987,50.794987
574354846,2490386,2490386,0,0,0,0,0,0,0,0,809.33923,809.33923,8093.3926,8093.3926,3.4846888,0.14813054,2.077057e-07,0.15321618,0.11925951,-11.196124,-0.1508695,-0.1321713,-0.008014618,44.750523,16.254486,249.44151,0.19370832,0.036355563,0.009124999,50.737007,50.737007
574458280,2490386,2490386,0,0,0,0,0,0,0,0,809.3394,809.3394,8093.394,8093.394,3.3310645,0.14274056,1.2130526e-07,-0.046693612,0.24587649,-11.357193,0.03116954,-0.13261922,-0.04112907,51.96847,19.326052,229.96744,0.12368817,0.0184757,0.007482508,50.639385,50.639385
574562584,2490386,2490386,0,0,0,0,0,0,0,0,809.33936,809.33936,8093.3936,8093.3936,3.2885156,0.15063098,1.5990027e-07,0.07356941,0.46283886,-10.758435,0.025292829,-0.24784641,-0.05240165,83.03945,30.589846,437.292,0.07128974,0.022069784,0.011870913,50.496017,50.496017
574665832,2490386,2490386,0,0,0,0,0,0,0,0,809.33966,809.33966,8093.396,8093.396,3.2014549,0.15319785,8.706224e-07,0.005224203,0.532917,-11.126874,1.279577,-0.2647852,-0.028332233,63.31935,38.69979,270.20395,0.9784212,0.07764847,0.014116408,50.370792,50.370792
574769626,2490386,2490386,0,0,0,0,0,0,0,0,809.3397,809.3397,8093.3975,8093.3975,3.2383413,0.14982145,6.833228e-06,-0.031788033,0.81958896,-11.396655,3.7160437,-0.0946529,-0.0040696454,229.23596,58.32171,755.25714,0.77172256,0.547322,0.03604368,50.258003,50.258003
574873414,2490386,2490386,0,0,0,0,0,0,0,0,809.3399,809.3399,8093.399,8093.399,3.679745,0.16178338,3.8634525e-06,0.16127564,0.2545953,-10.265195,2.859303,0.1510917,0.0070836144,186.11165,86.28587,482.8442,0.8975969,0.2956994,0.028606428,50.219475,50.219475
574977793,2490386,2490386,0,0,0,0,0,0,0,0,809.3398,809.3398,8093.398,8093.398,4.8786936,0.16842505,9.184842e-07,-0.22150746,0.21578261,-9.733494,0.8204044,0.15178624,0.008700323,142.13988,54.783817,1154.8783,0.5103906,0.092741854,0.024292406,50.262676,50.262676
575081203,2490386,2490386,0,0,0,0,0,0,0,0,809.3397,809.3397,8093.3975,8093.3975,5.148933,0.17024817,2.539048e-07,0.010891232,0.050682552,-10.621415,0.38854674,0.07098385,0.020360814,57.10474,73.038536,889.40454,0.3003033,0.050353564,0.023260914,50.32544,50.32544
575184993,2490386,2490386,0,0,0,0,0,0,0,0,809.3404,809.3404,8093.4043,8093.4043,5.1691723,0.17425299,2.3931358e-07,-0.009327918,0.15743585,-11.051151,-0.060420506,-0.01663802,0.015821615,164.72826,79.330055,940.126,0.67699873,0.09581041,0.013630895,50.353046,50.353046
575288642,2490386,2490386,0,0,0,0,0,0,0,0,809.3403,809.3403,8093.4033,8093.4033,5.0340614,0.17133334,9.48129e-07,0.03277885,-0.031096093,-10.610573,-0.8721381,-0.07290967,-0.0017588782,177.52914,64.44622,798.04504,0.52139115,0.187385,0.011144572,50.336514,50.336514
575392335,2490386,2490386,0,0,0,0,0,0,0,0,809.34064,809.34064,8093.4067,8093.4067,4.6715107,0.16695179,2.9828166e-07,-0.06630337,0.11355876,-11.065745,-0.40412247,-0.025408367,0.012042686,62.54823,22.784071,285.63773,0.31505418,0.05892813,0.012342885,50.32552,50.32552
575496128,2490386,2490386,0,0,0,0,0,0,0,0,809.34,809.34,8093.4004,8093.4004,4.251044,0.1610969,3.6190573e-07,-0.03517288,-0.1476097,-11.387156,0.5189124,-0.06501577,0.035498038,53.1432,26.193256,159.25685,0.44829243,0.051024843,0.005946822,50.32766,50.32766
575599917,2490386,2490386,0,0,0,0,0,0,0,0,809.3409,809.3409,8093.4087,8093.4087,4.153741,0.15973271,3.2382917e-07,-0.1814549,-0.107839465,-11.01277,0.49586043,0.074253194,0.09784761,49.08309,19.63225,359.72446,0.2823239,0.012811706,0.010891165,50.353905,50.353905
575704390,2490386,2490386,0,0,0,0,0,0,0,0,809.341,809.341,8093.41,8093.41,4.0506496,0.16019623,2.4090295e-07,0.14578512,-0.3564612,-10.551696,0.17145318,-0.06902393,0.10890429,50.42741,21.071089,179.11594,0.29526797,0.025518805,0.011149005,50.38805,50.38805
575807602,2490386,2490386,0,0,0,0,0,0,0,0,809.3407,809.3407,8093.407,8093.407,3.767708,0.15815946,2.0008949e-07,0.0106753,-0.30561078,-10.962859,0.11112149,-0.093316436,0.12625054,55.24955,12.927762,299.52286,0.18209343,0.037264116,0.015653346,50.445427,50.445427
575911568,2490386,2490386,0,0,0,0,0,0,0,0,809.3412,809.3412,8093.412,8093.412,3.5220346,0.14899378,1.7990104e-07,-0.20127647,-0.49883908,-10.961802,-0.08703092,0.11123802,0.13126351,61.47652,12.523369,278.69858,0.2099692,0.04409859,0.016197795,50.420044,50.420044
576016218,2490386,2490386,0,0,0,0,0,0,0,0,809.34106,809.34106,8093.411,8093.411,3.6212242,0.15352727,3.128711e-07,0.015215513,-0.7024918,-10.734735,-0.04721235,0.032166865,0.1561695,154.98694,57.368835,280.09702,0.33056882,0.23089735,0.013834581,50.3923,50.3923
576116423,2490386,2490386,0,0,0,0,0,0,0,0,809.34143,809.34143,8093.414,8093.414,3.5198054,0.16185883,6.9644597e-07,-0.34701145,-0.8036334,-9.85167,-1.4580487,-0.046759427,0.16501983,115.88719,40.060486,385.22318,0.9901708,0.03685515,0.017376302,50.344204,50.344204
576217786,2490386,2490386,0,0,0,0,0,0,0,0,809.3415,809.3415,8093.415,8093.415,4.1262217,0.16988164,4.369053e-06,0.037248842,-0.7070671,-10.659174,-3.6561935,-0.15153357,0.11947796,371.26172,221.18204,1279.9064,1.3824121,0.23179793,0.037262734,50.307693,50.307693
576321483,2490386,2490386,0,0,0,0,0,0,0,0,809.34155,809.34155,8093.4155,8093.4155,4.485527,0.19517848,3.5484204e-06,-0.60440904,-0.08918517,-10.929482,-2.5902944,0.22982897,0.095553614,159.96155,95.82939,654.0689,0.9904059,0.3644378,0.03698329,50.2844,50.2844
576426035,2490386,2490386,0,0,0,0,0,0,0,0,809.3417,809.3417,8093.4165,8093.4165,4.8949246,0.22368178,9.573887e-07,-0.16717203,-0.34640387,-10.409801,-0.76698506,0.19780008,0.108503535,85.35166,87.099106,1133.8807,0.6051536,0.27982032,0.0297752,50.20244,50.20244
576529137,2490386,2490386,0,0,0,0,0,0,0,0,809.3419,809.3419,8093.4185,8093.4185,5.1918273,0.24133773,6.400931e-07,-0.10742052,-0.2928104,-10.489536,-0.01991766,-0.010330069,0.067036994,209.43445,167.54457,445.20123,1.7253155,0.528196,0.045711525,50.064785,50.064785
576632969,2490386,2490386,0,0,0,0,0,0,0,0,809.34204,809.34204,8093.4204,8093.4204,5.20031,0.23055448,6.8837755e-07,-0.026485281,-0.44542715,-10.418672,0.41468203,-0.058321007,0.0708554,184.14827,112.11606,1150.6141,0.5957472,0.47602898,0.050982185,50.019917,50.019917
576737119,2490386,2490386,0,0,0,0,0,0,0,0,809.3422,809.3422,8093.422,8093.422,5.2405515,0.22164842,1.09757e-06,0.014827498,-0.2723522,-10.478016,0.67980504,0.07002077,0.06377743,188.78175,128.3349,605.25946,0.95476663,0.32407367,0.040842988,50.048737,50.048737
576840939,2490386,2490386,0,0,0,0,0,0,0,0,809.34235,809.34235,8093.424,8093.424,5.054107,0.21542268,1.5321924e-06,-0.3225509,-0.21853918,-10.623312,0.82072437,-0.111219,0.10363353,220.40799,73.4231,1225.6504,0.6027394,0.5540112,0.0352249,50.047234,50.047234
576944550,2490386,2490386,0,0,0,0,0,0,0,0,809.3425,809.3425,8093.426,8093.426,5.009042,0.21016228,1.1546103e-06,-0.321081,-0.111937165,-10.370937,0.6834155,0.032190852,0.017775962,93.631485,78.198784,677.09827,0.54714,0.2468391,0.058140762,50.03637,50.03637
577048076,2490386,2490386,0,0,0,0,0,0,0,0,809.3427,809.3427,8093.4272,8093.4272,4.9161863,0.20907363,2.2834583e-06,-0.37506902,-0.2539598,-12.443236,1.0951678,1.4808079,0.05825484,212.15685,53.37317,1420.7482,0.59442097,1.5484655,0.03375191,49.995052,49.995052
577151855,2490386,2490386,0,0,0,0,0,0,0,0,809.3423,809.3423,8093.4233,8093.4233,4.788254,0.2025858,3.1511288e-06,-0.030628385,-0.33017305,-12.332886,0.9715967,1.4787735,0.051720217,88.30603,96.2797,1354.6692,0.6720707,0.73943,0.01793048,49.89527,49.89527
577255553,2490386,2490386,0,0,0,0,0,0,0,0,809.343,809.343,8093.43,8093.43,4.7830505,0.19845785,3.9637789e-07,-0.014413754,-0.25286365,-9.553077,0.5360739,0.055494472,0.061438534,67.638855,38.103268,517.02185,0.26492643,0.07144331,0.015012776,49.900005,49.900005
577359385,2490386,2490386,0,0,0,0,0,0,0,0,809.34326,809.34326,8093.4326,8093.4326,4.755872,0.19309999,1.3670193e-07,-0.12590837,-0.41150302,-11.778039,0.030321527,-0.009342914,0.09131434,49.866722,20.52064,308.04852,0.1683706,0.042240344,0.008615836,49.90943,49.90943
577463247,2490386,2490386,0,0,0,0,0,0,0,0,809.3434,809.3434,8093.434,8093.434,4.40589,0.1902316,6.7035216e-07,0.09751191,-0.46940875,-13.393787,-0.2987931,-0.4963941,0.06109374,62.37013,43.221336,395.58572,0.26093942,0.20744671,0.017535416,49.919636,49.919636
577567905,2490386,2490386,0,0,0,0,0,0,0,0,809.3436,809.3436,8093.436,8093.436,4.1185174,0.18232322,8.891705e-07,0.34164461,-0.37368852,-10.2240505,-0.14630972,-0.7544851,0.038842417,77.757545,36.07067,177.0343,0.23566398,0.054093868,0.011522248,49.8509,49.8509
577671155,2490386,2490386,0,0,0,0,0,0,0,0,809.3436,809.3436,8093.437,8093.437,3.9973888,0.1673815,5.5105556e-07,0.21689847,-0.41750333,-9.330778,-0.20050856,-0.58939904,0.015576761,108.27178,22.321224,299.50714,0.13336907,0.049278766,0.009058534,49.79821,49.79821
577774497,2490386,2490386,0,0,0,0,0,0,0,0,809.344,809.344,8093.4395,8093.4395,3.703892,0.16248246,4.96137e-07,0.26397553,-0.43437502,-9.868801,-0.15243493,-0.45625937,0.026371557,65.15048,23.86124,207.44261,0.20515795,0.025592348,0.010297666,49.737606,49.737606
577879079,2490386,2490386,0,0,0,0,0,0,0,0,809.34424,809.34424,8093.442,8093.442,3.4602635,0.1520226,4.401829e-07,0.14234307,-0.47482175,-10.168239,-0.0958665,-0.4442185,0.0001482111,78.31615,11.311543,211.54466,0.19184738,0.04592708,0.006631478,49.67485,49.67485
577982069,2490386,2490386,0,0,0,0,0,0,0,0,809.34436,809.34436,8093.4443,8093.4443,3.3583634,0.14553691,1.7496738e-07,0.285381,-0.36150432,-9.731643,0.0015407999,-0.063712254,0.0067545134,20.082516,34.756077,151.31055,0.40509441,0.03070446,0.0032673613,49.58859,49.58859
578085844,2490386,2490386,0,0,0,0,0,0,0,0,809.3446,809.3446,8093.4463,8093.4463,3.2876902,0.14091966,1.698963e-07,0.18899502,-0.2699555,-8.725974,0.13687235,0.10790939,-0.014254229,73.42115,17.052567,421.91003,0.14811201,0.057948753,0.012997813,49.50577,49.50577
578189635,2490386,2490386,0,0,0,0,0,0,0,0,809.34485,809.34485,8093.4487,8093.4487,3.6221995,0.1484754,1.5517898e-07,0.2955594,-0.4479801,-7.6913557,-0.031564686,0.15887088,-0.025222436,23.627699,28.471708,169.22801,0.16793798,0.029134454,0.007077775,49.43215,49.43215
578289896,2490386,2490386,0,0,0,0,0,0,0,0,809.3451,809.3451,8093.451,8093.451,3.412191,0.14318809,2.9252325e-07,0.23734728,-0.4975109,-9.617326,-0.20430677,0.18652482,0.022387449,22.20055,32.75636,151.31517,0.402243,0.01815578,0.006754848,49.390095,49.390095
578391260,2490386,2490386,0,0,0,0,0,0,0,0,809.34534,809.34534,8093.4536,8093.4536,3.2980397,0.14152542,1.278042e-07,0.16404484,-0.45742607,-10.516821,-0.12894957,0.05316021,0.027648598,70.344315,17.140488,344.39145,0.2652152,0.06344705,0.0074804756,49.3384,49.3384
578491404,2490386,2490386,0,0,0,0,0,0,0,0,809.3456,809.3456,8093.4556,8093.4556,3.2537365,0.13653542,1.0985684e-07,0.16112053,-0.6741742,-9.940341,-0.025085278,0.06107788,-0.004015255,80.10466,43.92082,264.86652,0.29576066,0.056560956,0.012158763,49.251923,49.251923
578595099,2490386,2490386,0,0,0,0,0,0,0,0,809.3459,809.3459,8093.459,8093.459,3.3521729,0.14020726,1.9564682e-07,0.38482538,-0.50927573,-8.628623,0.034621816,0.07697677,-0.007445335,86.92114,32.48314,237.23996,0.34584635,0.06968346,0.020476604,49.15689,49.15689
578698689,2490386,2490386,0,0,0,0,0,0,0,0,809.3461,809.3461,8093.4614,8093.4614,3.3743718,0.13545886,1.1192072e-07,0.31312454,-0.60327065,-9.690282,0.033052072,0.03233633,-0.018568525,122.14156,40.134212,420.63788,0.39227125,0.094990686,0.012968149,49.048973,49.048973
578802428,2490386,2490386,0,0,0,0,0,0,0,0,809.34656,809.34656,8093.4653,8093.4653,3.3648987,0.13847515,1.9985698e-07,0.19853519,-0.58914477,-9.877599,-0.037015807,-0.14501327,-0.0006403562,104.78743,25.730883,406.58496,0.24435359,0.12778102,0.009411449,48.955887,48.955887
578906242,2490386,2490386,0,0,0,0,0,0,0,0,809.3467,809.3467,8093.4673,8093.4673,3.46197,0.14317955,2.4736204e-07,0.45545995,-0.57049567,-10.246315,-0.10476248,0.060018856,0.027111024,102.1703,43.777122,393.25195,0.5345715,0.15636261,0.01268357,48.88249,48.88249
579011263,2490386,2490386,0,0,0,0,0,0,0,0,809.34717,809.34717,8093.4717,8093.4717,3.550986,0.14240359,1.16840845e-07,0.30837527,-0.4660056,-9.8388605,-0.010925215,0.008165363,0.027407546,138.94194,27.746746,559.6565,0.31460318,0.080607235,0.015473256,48.797596,48.797596
579113913,2490386,2490386,0,0,0,0,0,0,0,0,809.3474,809.3474,8093.4746,8093.4746,3.4798632,0.14485435,1.7029934e-07,0.096573934,-0.5594751,-10.293607,-0.021287404,0.03165366,0.049239036,118.57683,53.885815,398.6748,0.53518146,0.10770382,0.016413644,48.769207,48.769207
579217700,2490386,2490386,0,0,0,0,0,0,0,0,809.34784,809.34784,8093.478,8093.478,3.514674,0.14141767,2.111702e-07,0.26315567,-0.7398298,-10.33428,0.00976715,0.08178004,0.044214107,154.49287,53.4376,356.19257,0.4604558,0.19248314,0.019663975,48.77458,48.77458
579321570,2490386,2490386,0,0,0,0,0,0,0,0,809.3479,809.3479,8093.479,8093.479,3.6489618,0.14356868,1.85183e-07,-0.036132183,-0.54197663,-9.959031,0.107843615,-0.033416167,0.03312144,142.43018,43.16724,710.2126,0.310538,0.25285837,0.015293348,48.755608,48.755608
579421705,2490386,2490386,0,0,0,0,0,0,0,0,809.3484,809.3484,8093.4834,8093.4834,3.6691306,0.14485429,1.5700516e-07,0.41708058,-0.5824317,-9.728067,-0.049138125,-0.051070493,0.03157325,132.33792,35.46591,534.15985,0.32678947,0.12939931,0.017232554,48.736485,48.736485
579524011,2490386,2490386,0,0,0,0,0,0,0,0,809.3487,809.3487,8093.4873,8093.4873,3.6508934,0.14226662,1.6178517e-07,0.06970895,-0.6711904,-10.416276,0.03647165,-0.039540924,0.012513687,138.62912,52.051075,320.81012,0.38095567,0.24480383,0.015056235,48.685658,48.685658
579627808,2490386,2490386,0,0,0,0,0,0,0,0,809.34894,809.34894,8093.4897,8093.4897,3.6094782,0.13833705,2.3994673e-07,0.13623787,-0.4717232,-10.132099,0.081520006,-0.12533377,-0.015886936,140.83084,44.88851,588.0493,0.4108637,0.1889319,0.018195538,48.65647,48.65647
579732284,2490386,2490386,0,0,0,0,0,0,0,0,809.3493,809.3493,8093.493,8093.493,3.5571144,0.13763402,2.3837595e-07,0.24863744,-0.65494394,-9.646594,-0.20292963,-0.11421181,-0.0069358987,88.55919,38.60404,193.97676,0.28943828,0.05172698,0.0147329075,48.645763,48.645763
579835325,2490386,2490386,0,0,0,0,0,0,0,0,809.3497,809.3497,8093.4966,8093.4966,3.5245454,0.13622203,2.4526184e-07,0.15110883,-0.6611336,-10.171185,-0.05988844,0.13735215,0.018062232,135.0656,24.00946,384.82053,0.3888737,0.21732338,0.01830006,48.614983,48.614983
579939127,2490386,2490386,0,0,0,0,0,0,0,0,809.35,809.35,8093.4995,8093.4995,3.4346611,0.13933255,1.501301e-07,0.10577101,-0.76248056,-9.998974,0.06390798,-0.0018282861,-0.007948588,136.92847,37.180195,419.5344,0.36755624,0.15689288,0.01697982,48.605152,48.605152
580043026,2490386,2490386,0,0,0,0,0,0,0,0,809.3503,809.3503,8093.5024,8093.5024,3.4706905,0.13676317,1.25976e-07,0.0032643937,-0.5071324,-10.091335,0.078310385,-0.04024696,-0.02413176,146.03638,62.660675,358.0781,0.4804612,0.28663397,0.012915175,48.574654,48.574654
580143475,2490386,2490386,0,0,0,0,0,0,0,0,809.3506,809.3506,8093.5054,8093.5054,3.4221623,0.14507528,2.913201e-07,0.41177562,-0.76524097,-10.112273,-0.15750584,-0.13488358,0.005257786,87.619156,26.804655,221.18709,0.40517607,0.08409322,0.012477724,48.531174,48.531174
580245860,2490386,2490386,0,0,0,0,0,0,0,0,809.35095,809.35095,8093.51,8093.51,3.5489824,0.15616125,5.7781494e-07,0.3365218,-0.6256913,-10.365974,0.037427116,0.06895309,0.09570717,84.966995,64.55386,334.36783,0.8868208,0.3204556,0.021261696,48.47237,48.47237
580349643,2490386,2490386,0,0,0,0,0,0,0,0,809.35,809.35,8093.5,8093.5,3.6544166,0.16084813,8.45004e-07,0.19571428,-0.7612536,-10.238719,-0.0048017823,0.040302154,0.42724034,128.99251,54.22709,372.47928,0.5187108,0.17406878,0.037422244,48.423187,48.423187
580453530,2490386,2490386,0,0,0,0,0,0,0,0,809.3514,809.3514,8093.514,8093.514,3.6676154,0.17545947,1.699348e-06,0.56812173,-0.5904214,-9.666565,-0.020123707,0.14847304,0.8935993,83.06437,61.203762,315.48407,0.43054065,0.13676257,0.033339992,48.376686,48.376686
580556863,2490386,2490386,0,0,0,0,0,0,0,0,809.35187,809.35187,8093.519,8093.519,3.9379802,0.19416665,2.2201693e-06,0.52134025,-0.7313353,-10.502101,0.0061305887,0.12814166,1.2131448,88.52736,68.14655,318.07117,0.52614224,0.17314029,0.027332647,48.334553,48.334553
580660648,2490386,2490386,0,0,0,0,0,0,0,0,809.35223,809.35223,8093.5225,8093.5225,3.9240785,0.19219103,2.122201e-06,-0.12506391,-0.4908678,-9.884694,-0.009320891,0.17233577,1.2319888,143.2826,55.23274,261.6429,0.4338763,0.09889621,0.017195677,48.23536,48.23536
580764424,2490386,2490386,0,0,0,0,0,0,0,0,809.3526,809.3526,8093.526,8093.526,3.8072286,0.18792032,1.8823112e-06,0.23802859,-0.7254362,-10.191485,-0.046268035,-0.06631237,0.922388,146.87032,61.30415,125.64262,0.45596087,0.1941027,0.034858823,48.179775,48.179775
580864750,2490386,2490386,0,0,0,0,0,0,0,0,809.3529,809.3529,8093.5293,8093.5293,3.8029597,0.18797585,7.9890003e-07,-0.05573571,-0.43056205,-9.993871,0.11883668,-0.030246856,0.40402272,57.19791,47.689293,386.5043,0.20322084,0.39715698,0.05065852,48.159725,48.159725
580967143,2490386,2490386,0,0,0,0,0,0,0,0,809.35315,809.35315,8093.532,8093.532,3.8745036,0.20036604,5.680417e-07,-0.057256855,-0.42762956,-9.752788,-0.08727763,-0.24155506,-0.19314331,34.427094,60.17373,516.27203,0.3491782,0.4793271,0.0545909,48.15958,48.15958
581070961,2490386,2490386,0,0,0,0,0,0,0,0,809.3536,809.3536,8093.5356,8093.5356,3.86261,0.20436339,9.2045013e-07,-0.084985085,-0.54476017,-10.035389,-0.08758032,-0.15150875,-0.6535329,27.445005,33.47091,380.68106,0.1451172,0.33282363,0.06497493,48.139507,48.139507
581174833,2490386,2490386,0,0,0,0,0,0,0,0,809.3539,809.3539,8093.539,8093.539,4.0456505,0.20829636,1.66049e-06,0.0029066054,-0.44996467,-10.023677,-0.088829555,-0.09417796,-0.94907975,49.297405,44.3871,467.02637,0.30243796,0.28875494,0.024286238,48.14578,48.14578
581279123,2490386,2490386,0,0,0,0,0,0,0,0,809.3543,809.3543,8093.5425,8093.5425,4.2663646,0.20553753,1.7286677e-06,0.018423837,-0.4159986,-10.111012,-0.12623343,-0.030929007,-1.137216,37.642246,24.886116,402.97946,0.15485358,0.1941235,0.018096395,48.13118,48.13118
581382177,2490386,2490386,0,0,0,0,0,0,0,0,809.3546,809.3546,8093.546,8093.546,4.4564424,0.19721554,1.3283893e-06,0.23985635,-0.6421143,-10.299023,0.033688176,-0.015658986,-1.2179374,56.02809,36.9908,414.83957,0.12809047,0.11538726,0.009884302,48.09596,48.09596
581485948,2490386,2490386,0,0,0,0,0,0,0,0,809.35486,809.35486,8093.5483,8093.5483,4.32523,0.19781694,1.4265854e-06,0.07958472,-0.32936895,-9.92086,-0.028982617,0.0071754465,-1.2507474,60.84357,30.540222,312.12622,0.17755286,0.08523832,0.009069303,48.05627,48.05627
581589854,2490386,2490386,0,0,0,0,0,0,0,0,809.3552,809.3552,8093.5527,8093.5527,3.9420068,0.18511648,1.0559332e-06,0.27905244,-0.36677736,-10.17262,-0.19282848,-0.10658101,-1.2545744,48.798775,12.036525,241.43192,0.10781826,0.039296508,0.008199105,47.99948,47.99948
581693496,2490386,2490386,0,0,0,0,0,0,0,0,809.35565,809.35565,8093.556,8093.556,3.7987943,0.1799579,1.1245253e-06,0.26102832,-0.5172759,-10.215983,-0.1101344,0.016702764,-1.2174762,55.985714,12.220551,486.20203,0.09292512,0.05995075,0.0051601855,47.934715,47.934715
581801101,2490386,2490386,0,0,0,0,0,0,0,0,809.35596,809.35596,8093.5596,8093.5596,3.6130533,0.17070054,1.4184833e-06,0.39966068,-0.3761935,-9.962465,-0.047778983,0.025008654,-1.1562431,42.7743,13.505082,375.61102,0.21215774,0.053285375,0.008696813,47.888336,47.888336
581901302,2490386,2490386,0,0,0,0,0,0,0,0,809.35626,809.35626,8093.563,8093.563,3.6431782,0.17200084,1.3851845e-06,0.4405937,-0.48386124,-10.09131,-0.16087702,0.03975151,-0.9427029,15.079261,18.620562,181.2249,0.33231243,0.039741524,0.008765151,47.89035,47.89035
582001391,2490386,2490386,0,0,0,0,0,0,0,0,809.35626,809.35626,8093.563,8093.563,3.4933357,0.16376945,5.989669e-07,0.45643118,-0.41001686,-7.930305,0.06828337,0.023870304,-0.65626866,41.211197,20.227398,159.4235,0.09050761,0.03612239,0.017163558,47.8732,47.8732
582103960,2490386,2490386,0,0,0,0,0,0,0,0,809.357,809.357,8093.5693,8093.5693,3.4413087,0.16329215,4.7571095e-07,0.34482157,-0.27207807,-9.517734,-0.15596089,-0.10732639,-0.42357355,30.312525,17.881907,115.506165,0.19702372,0.028373828,0.008892765,47.87073,47.87073
582207508,2490386,2490386,0,0,0,0,0,0,0,0,809.35724,809.35724,8093.5728,8093.5728,3.4429135,0.19603544,3.2657567e-07,0.50693417,-0.2894976,-11.942274,-0.06028812,-0.101895206,-0.20995975,26.674377,58.249485,413.7054,0.2650327,0.03919656,0.019830594,47.87159,47.87159
582311300,2490386,2490386,0,0,0,0,0,0,0,0,809.35767,809.35767,8093.5767,8093.5767,3.2291155,0.18793854,1.9041916e-07,0.3344835,-0.3397141,-11.021796,0.17182899,0.08629777,-0.08565994,26.57713,32.775337,192.81119,0.23992172,0.027235651,0.013013659,47.874756,47.874756
582415067,2490386,2490386,0,0,0,0,0,0,0,0,809.3579,809.3579,8093.579,8093.579,3.1791937,0.17270462,7.37467e-08,0.62254053,-0.21976829,-10.071259,0.16122413,0.007795655,-0.02741207,72.79756,36.847313,650.5761,0.22531831,0.027586173,0.006792534,47.861664,47.861664
582518821,2490386,2490386,0,0,0,0,0,0,0,0,809.3582,809.3582,8093.582,8093.582,3.3455415,0.16137846,7.07221e-08,0.21839733,-0.27961114,-10.595607,-0.11698425,0.03890705,0.03282114,32.09762,13.925874,649.97595,0.13119438,0.03798969,0.002981611,47.833286,47.833286
582622663,2490386,2490386,0,0,0,0,0,0,0,0,809.3586,809.3586,8093.586,8093.586,3.3982852,0.1526002,9.100618e-08,0.37715876,-0.31277215,-10.232903,-0.12506972,0.037362415,0.03883912,45.297073,16.164143,427.4564,0.104023784,0.026700549,0.0030655283,47.870956,47.870956
582727649,2490386,2490386,0,0,0,0,0,0,0,0,809.35895,809.35895,8093.589,8093.589,3.4517574,0.13806374,1.1346383e-07,0.3999597,-0.24318402,-9.966378,-0.07006513,-0.048186295,0.041098993,93.38052,25.588026,539.2437,0.12708926,0.063024946,0.00884172,47.873253,47.873253
582830364,2490386,2490386,0,0,0,0,0,0,0,0,809.3592,809.3592,8093.592,8093.592,3.427997,0.13675593,1.0341021e-07,0.20178881,-0.33360147,-11.119311,0.02950385,0.06048085,0.02998389,73.24953,31.441875,802.45844,0.21199133,0.08018788,0.0067233136,47.906746,47.906746
582934126,2490386,2490386,0,0,0,0,0,0,0,0,809.3595,809.3595,8093.5947,8093.5947,3.690418,0.1377729,1.3152592e-07,0.7123926,0.024482124,-9.552414,0.014821715,0.04939831,0.029899463,132.9511,36.131336,971.256,0.35170916,0.07426505,0.009230405,47.91897,47.91897
583038097,2490386,2490386,0,0,0,0,0,0,0,0,809.35974,809.35974,8093.5977,8093.5977,4.4897685,0.13757378,1.3301123e-07,0.3816683,-0.2745585,-9.874301,0.19723386,0.006905288,0.008979503,271.27707,37.44346,931.8911,0.2599748,0.056370117,0.008330611,47.92047,47.92047
583141478,2490386,2490386,0,0,0,0,0,0,0,0,809.36005,809.36005,8093.6006,8093.6006,4.5293083,0.14229041,2.3055934e-07,0.4683329,-0.234783,-9.947438,-0.014159838,0.019124437,0.109085836,54.503574,51.728737,382.90982,0.5133579,0.034120075,0.022610683,47.881012,47.881012
583245265,2490386,2490386,0,0,0,0,0,0,0,0,809.36035,809.36035,8093.6035,8093.6035,4.3523927,0.14320055,5.523328e-07,0.43992102,-0.12464682,-9.417226,-0.16381116,0.082571015,0.40888387,61.613365,48.033306,327.71057,0.29274413,0.036766414,0.016219726,47.885834,47.885834
583349065,2490386,2490386,0,0,0,0,0,0,0,0,809.3601,809.3601,8093.6016,8093.6016,4.0739202,0.15024681,9.340587e-07,0.60379434,-0.15986785,-10.164644,-0.08656597,0.0631893,0.6911006,58.8152,41.992313,335.8788,0.22644666,0.074771814,0.021416903,47.8478,47.8478
583453042,2490386,2490386,0,0,0,0,0,0,0,0,809.3609,809.3609,8093.609,8093.609,4.0195456,0.1490775,1.2291503e-06,0.66462284,-0.19126897,-10.738473,-0.19771041,-0.033311777,0.86091954,43.6055,32.78688,300.82812,0.25473076,0.09846323,0.010859614,47.846073,47.846073
583560508,2490386,2490386,0,0,0,0,0,0,0,0,809.36127,809.36127,8093.612,8093.612,3.683608,0.14692725,1.218064e-06,0.40506235,-0.35573635,-11.582749,-0.058561347,-0.06298222,0.9213856,42.426025,31.798384,258.79996,0.26388514,0.061550125,0.009701329,47.81811,47.81811
583660607,2490386,2490386,0,0,0,0,0,0,0,0,809.3615,809.3615,8093.615,8093.615,3.4542587,0.14762166,7.478758e-07,0.5424314,-0.20170097,-11.263617,-0.0037719274,-0.03742428,0.78283817,38.697815,21.69955,121.16251,0.12316075,0.09081565,0.015414653,47.79602,47.79602
583764365,2490386,2490386,0,0,0,0,0,0,0,0,809.3618,809.3618,8093.6177,8093.6177,3.3287473,0.1508262,8.067908e-07,0.388441,-0.36118224,-10.4220085,0.15865923,-0.027584173,0.5715108,65.98084,39.202076,569.0496,0.24030922,0.116222695,0.009486807,47.75564,47.75564
583867973,2490386,2490386,0,0,0,0,0,0,0,0,809.3616,809.3616,8093.616,8093.616,3.5145082,0.16474825,3.0149778e-07,0.34651947,-0.20875461,-10.717292,0.07220129,0.07667541,0.37372476,47.008316,22.489922,629.7354,0.09111127,0.079491794,0.009375141,47.735645,47.735645
583971731,2490386,2490386,0,0,0,0,0,0,0,0,809.36237,809.36237,8093.6235,8093.6235,3.527426,0.15139678,2.5689783e-07,0.50736696,-0.2668441,-10.880348,-0.10080134,-0.13193744,0.24063022,29.386559,22.030804,507.43182,0.08925856,0.09333212,0.0110184625,47.712006,47.712006
584075576,2490386,2490386,0,0,0,0,0,0,0,0,809.3626,809.3626,8093.626,8093.626,3.8835967,0.15059862,1.9881998e-07,0.33745903,-0.23151855,-7.5498886,0.08229961,0.062323622,0.13129535,29.444025,33.86966,249.5958,0.27334487,0.054474834,0.00861739,47.70704,47.70704
584180308,2490386,2490386,0,0,0,0,0,0,0,0,809.3629,809.3629,8093.629,8093.629,3.9421136,0.15516359,2.3462134e-07,0.3118917,-0.29842478,-7.4357824,-0.00906409,0.16256145,0.10818277,14.481306,21.234999,125.89898,0.16291212,0.030392779,0.007008976,47.668594,47.668594
584283086,2490386,2490386,0,0,0,0,0,0,0,0,809.3629,809.3629,8093.6294,8093.6294,3.7776568,0.14529821,1.9399202e-07,0.34302267,-0.34196532,-11.2396755,-0.21023813,-0.14850035,0.09573478,41.77423,19.713657,242.85455,0.116679214,0.041762963,0.004825282,47.650665,47.650665
584386987,2490386,2490386,0,0,0,0,0,0,0,0,809.36346,809.36346,8093.6343,8093.6343,3.5087795,0.15432334,2.0322557e-07,0.3089928,-0.38289723,-11.9011545,-0.12837334,0.13535932,0.08514429,39.67554,16.431862,208.4571,0.12377227,0.14189903,0.012114246,47.648674,47.648674
584491207,2490386,2490386,0,0,0,0,0,0,0,0,809.3637,809.3637,8093.637,8093.637,3.330682,0.1447669,1.3503596e-07,0.37938932,-0.38941213,-10.929907,0.14439383,-0.052280273,0.05725307,51.66165,13.514891,126.963104,0.13018607,0.094841264,0.009744243,47.639603,47.639603
584595616,2490386,2490386,0,0,0,0,0,0,0,0,809.364,809.364,8093.64,8093.64,3.2600646,0.15932392,1.3167212e-06,0.4808494,-0.48383477,-11.159815,-0.13566162,-1.258619,0.027279261,71.4883,24.482666,179.23763,0.2685468,0.39124048,0.011835562,47.634857,47.634857
584698199,2490386,2490386,0,0,0,0,0,0,0,0,809.36426,809.36426,8093.643,8093.643,3.3199947,0.16704287,1.9136658e-06,0.36145633,-0.43059048,-10.4891815,-0.25635192,-1.4933118,0.025036454,76.94658,39.43381,341.31412,0.27869314,0.2061709,0.0087478,47.57275,47.57275
584801997,2490386,2490386,0,0,0,0,0,0,0,0,809.36444,809.36444,8093.6445,8093.6445,3.3066072,0.18576455,1.3882149e-06,0.45484775,-0.29042718,-11.249784,0.028571809,-1.2655911,0.027182525,42.897007,27.559746,198.88147,0.26432216,0.16044226,0.007843493,47.514805,47.514805
584905729,2490386,2490386,0,0,0,0,0,0,0,0,809.36487,809.36487,8093.648,8093.648,3.1872876,0.20891045,7.5613434e-07,0.35098362,-0.45169622,-11.651093,0.11381008,-1.0585284,0.032918,45.030067,21.171093,202.97691,0.11746529,0.15960307,0.008956573,47.46182,47.46182
585009593,2490386,2490386,0,0,0,0,0,0,0,0,809.3652,809.3652,8093.6514,8093.6514,2.979275,0.19891387,2.0856403e-07,0.47209984,-0.37597066,-10.901075,0.11381912,-0.23733956,0.013649534,28.610563,15.5082855,335.48224,0.17542759,0.08977741,0.0029662354,47.40727,47.40727
585113426,2490386,2490386,0,0,0,0,0,0,0,0,809.36523,809.36523,8093.6523,8093.6523,2.8494766,0.18621348,8.415195e-08,0.180952,-0.30726498,-11.19918,0.1722599,0.033196487,-0.0085280035,26.737915,11.2757845,94.49291,0.07340912,0.051074352,0.004425325,47.393753,47.393753
585221612,2490386,2490386,0,0,0,0,0,0,0,0,809.3657,809.3657,8093.657,8093.657,3.1912942,0.17436568,7.390238e-08,0.19690415,-0.3020731,-11.515804,-0.078559496,-0.07445305,-0.01096122,9.595191,8.109291,54.79375,0.04327766,0.024573248,0.002854925,47.42315,47.42315
585321895,2490386,2490386,0,0,0,0,0,0,0,0,809.366,809.366,8093.66,8093.66,3.0569413,0.18348391,5.871978e-08,0.019895623,-0.26232222,-11.193598,-0.040725082,0.12690447,0.034146618,24.267828,6.1418447,119.53648,0.041518085,0.07545246,0.003130977,47.430996,47.430996
585424897,2490386,2490386,0,0,0,0,0,0,0,0,809.3663,809.3663,8093.6626,8093.6626,2.9028182,0.17371957,1.9626357e-07,-0.28515676,-0.12340708,-11.543311,0.07032966,0.2853891,0.014196704,32.94783,7.661406,190.84224,0.06055056,0.107391894,0.00512398,47.44401,47.44401
585528449,2490386,2490386,0,0,0,0,0,0,0,0,809.3665,809.3665,8093.6655,8093.6655,3.060933,0.16262472,2.493403e-07,-0.2169362,-0.21068592,-9.830303,-0.01811263,0.3945489,0.0055564395,33.66578,9.557918,147.53986,0.08362622,0.06596547,0.0044786343,47.44033,47.44033
585633102,2490386,2490386,0,0,0,0,0,0,0,0,809.3668,809.3668,8093.6685,8093.6685,3.0932457,0.15640415,2.266462e-07,-0.08804477,0.014798884,-8.22982,-0.0019462506,0.26686993,0.019610358,42.966778,12.800166,341.88226,0.12754801,0.03831261,0.00633286,47.42459,47.42459
585735956,2490386,2490386,0,0,0,0,0,0,0,0,809.36707,809.36707,8093.671,8093.671,3.0962439,0.16937698,2.6809212e-07,-0.6179174,-0.17459077,-13.593741,-0.11835044,0.257138,0.012995248,35.574017,49.18073,256.68674,0.400244,0.41800943,0.018514596,47.410347,47.410347
585839740,2490386,2490386,0,0,0,0,0,0,0,0,809.3673,809.3673,8093.6733,8093.6733,3.384228,0.18516517,5.852759e-07,-0.4590424,-0.112299636,-14.408885,-0.15399235,0.4226937,-0.003438887,34.05576,107.46601,523.9073,0.26219082,0.3563464,0.051813096,47.383038,47.383038
585943581,2490386,2490386,0,0,0,0,0,0,0,0,809.36755,809.36755,8093.676,8093.676,3.5390885,0.21444906,3.3037276e-07,-0.30696455,-0.2292164,-11.889713,0.03366575,0.23697248,-0.0297022,28.749651,78.819435,191.10965,0.23515433,0.20151643,0.058237366,47.33071,47.33071
586043958,2490386,2490386,0,0,0,0,0,0,0,0,809.36786,809.36786,8093.679,8093.679,3.4030044,0.21065286,1.976288e-07,-0.33479065,-0.1403317,-10.460572,-0.12078784,0.11509331,0.0010430731,13.795834,23.707355,107.05083,0.17404217,0.14506778,0.015525823,47.31665,47.31665
586146417,2490386,2490386,0,0,0,0,0,0,0,0,809.3681,809.3681,8093.681,8093.681,3.424091,0.19536363,3.3384626e-07,-0.36430198,-0.30278653,-10.378405,-0.16988441,0.2778889,0.05648391,21.814816,28.915537,232.75558,0.21882182,0.14734907,0.011653274,47.296833,47.296833
586250237,2490386,2490386,0,0,0,0,0,0,0,0,809.36847,809.36847,8093.6846,8093.6846,4.0381055,0.20270908,2.78111e-07,-0.3988941,-0.24831212,-10.215965,-0.20842257,0.20611261,0.025639394,44.66208,61.87795,332.6225,0.29282728,0.16441528,0.011934,47.309498,47.309498
586354091,2490386,2490386,0,0,0,0,0,0,0,0,809.36865,809.36865,8093.687,8093.687,4.0418363,0.23673278,2.164159e-06,-0.729169,-0.24663131,-9.797919,-0.017444089,1.8639028,0.018536163,33.433983,65.71276,395.64545,0.28884992,0.8517309,0.0362878,47.33422,47.33422
586457463,2490386,2490386,0,0,0,0,0,0,0,0,809.369,809.369,8093.69,8093.69,3.9332557,0.25258517,4.251289e-06,-0.61137855,-0.781237,-12.812754,0.11343856,3.2735147,-0.0041707237,91.54434,111.43601,571.82825,0.6708206,0.97719544,0.164002,47.340546,47.340546
586561286,2490386,2490386,0,0,0,0,0,0,0,0,809.36926,809.36926,8093.692,8093.692,3.9059083,0.24274524,2.4074411e-06,-0.5594052,-0.23024234,-11.563994,0.11380616,1.553075,0.0018398728,103.02615,92.66435,577.3134,0.7991449,0.5209934,0.045344662,47.33034,47.33034
586665027,2490386,2490386,0,0,0,0,0,0,0,0,809.3695,809.3695,8093.695,8093.695,3.879772,0.24659967,6.9246033e-07,-0.3869116,-0.6145293,-11.122789,-0.08254942,0.27574068,0.059317745,133.08298,146.4435,461.34464,1.1411301,0.24289568,0.034924876,47.309204,47.309204
586768917,2490386,2490386,0,0,0,0,0,0,0,0,809.3697,809.3697,8093.697,8093.697,3.9928002,0.25380608,6.119532e-07,-0.8023758,-0.5141476,-11.821751,0.0042686476,0.1954113,-0.012189027,179.75987,142.12212,729.50775,0.99038756,0.51961505,0.025109611,47.292458,47.292458
586872705,2490386,2490386,0,0,0,0,0,0,0,0,809.36993,809.36993,8093.7,8093.7,3.813154,0.22970304,4.897566e-07,-0.3712178,-0.5022243,-11.995893,-0.006224901,-0.07153377,0.011508932,136.59843,212.9987,766.3053,1.2548853,0.5239937,0.024867065,47.24487,47.24487
586975192,2490386,2490386,0,0,0,0,0,0,0,0,809.3701,809.3701,8093.7017,8093.7017,3.6987493,0.21118015,4.2525573e-07,-0.07587667,-0.4191335,-11.126597,0.07596046,-0.049977724,0.00530529,152.63742,83.33565,520.28796,0.6659142,0.74462086,0.030379856,47.208782,47.208782
587075397,2490386,2490386,0,0,0,0,0,0,0,0,809.37054,809.37054,8093.705,8093.705,4.0950394,0.2033221,3.6214647e-07,-0.37594202,-0.38393548,-11.221134,0.08996061,-0.24362321,0.002053907,90.41034,86.27226,376.54807,0.5193154,0.2265485,0.0142780505,47.187645,47.187645
587175899,2490386,2490386,0,0,0,0,0,0,0,0,809.37067,809.37067,8093.707,8093.707,3.7546823,0.18105648,1.7912676e-07,-0.25911146,-0.4871526,-11.135916,-0.032083765,0.1903109,0.026232427,46.51625,24.626617,138.95302,0.31757432,0.13938327,0.0077277296,47.167706,47.167706
587278224,2490386,2490386,0,0,0,0,0,0,0,0,809.371,809.371,8093.7095,8093.7095,3.6425443,0.19275552,3.7081315e-07,0.25336024,-0.5045761,-11.237501,0.08298683,-0.2259344,0.017775731,78.000786,26.618053,252.39171,0.29321474,0.18209115,0.01094981,47.093678,47.093678
587381682,2490386,2490386,0,0,0,0,0,0,0,0,809.3712,809.3712,8093.7124,8093.7124,3.600996,0.19585696,1.2102597e-06,0.268651,-0.3762893,-10.708904,-0.038926605,-0.79515433,0.043949384,96.17071,49.350273,347.78848,0.4022367,0.14243005,0.011527573,47.0111,47.0111
587486565,2490386,2490386,0,0,0,0,0,0,0,0,809.37146,809.37146,8093.715,8093.715,3.6385252,0.18509234,9.95047e-07,0.078491636,-0.48024547,-10.495964,0.22792529,-0.78318536,0.05120935,76.8922,52.159153,166.61272,0.36785233,0.09883431,0.008127566,46.913612,46.913612
587589208,2490386,2490386,0,0,0,0,0,0,0,0,809.3718,809.3718,8093.718,8093.718,3.667608,0.17929651,8.0688835e-07,0.326993,-0.48590222,-10.056596,0.02764148,-0.71236855,0.029931309,43.37351,21.924164,201.7224,0.20541954,0.041599896,0.0061097806,46.791756,46.791756
587692916,2490386,2490386,0,0,0,0,0,0,0,0,809.37213,809.37213,8093.7217,8093.7217,3.5564828,0.1732853,4.6853444e-07,0.6306636,-0.571158,-9.709271,0.044634007,-0.45694247,0.022748256,63.026596,26.233225,310.38992,0.2040477,0.07374968,0.007635031,46.684845,46.684845
